[{"stop_lat": 30.350016, "stop_timezone": null, "wheelchair_boarding": 0, "stop_code": "5225", "direction_id": 0, "stop_lon": -97.71196, "parent_station": null, "route_id": "383", "stop_url": "http://www.capmetro.org/gismaps/stops/5225.html", "stop_sequence": 1, "stop_id": "5225", "stop_desc": "Northeast corner of RESEARCH and LAMAR - Mid-Block", "stop_name": "NORTH LAMAR BAY 1", "location_type": null, "platform_code": null, "zone_id": null}, {"stop_lat": 30.350323, "stop_timezone": null, "wheelchair_boarding": 0, "stop_code": "5071", "direction_id": 0, "stop_lon": -97.713047, "parent_station": null, "route_id": "383", "stop_url": "http://www.capmetro.org/gismaps/stops/5071.html", "stop_sequence": 2, "stop_id": "5071", "stop_desc": "Northeast corner of RESEARCH and LAMAR - Mid-Block", "stop_name": "RESEARCH/LAMAR", "location_type": null, "platform_code": null, "zone_id": null}, {"stop_lat": 30.355308, "stop_timezone": null, "wheelchair_boarding": 0, "stop_code": "3795", "direction_id": 0, "stop_lon": -97.714862, "parent_station": null, "route_id": "383", "stop_url": "http://www.capmetro.org/gismaps/stops/3795.html", "stop_sequence": 3, "stop_id": "3795", "stop_desc": "Southeast corner of RESEARCH and JAMESTOWN - Nearside", "stop_name": "RESEARCH/JAMESTOWN", "location_type": null, "platform_code": null, "zone_id": null}, {"stop_lat": 30.357316, "stop_timezone": null, "wheelchair_boarding": 0, "stop_code": "3796", "direction_id": 0, "stop_lon": -97.715514, "parent_station": null, "route_id": "383", "stop_url": "http://www.capmetro.org/gismaps/stops/3796.html", "stop_sequence": 4, "stop_id": "3796", "stop_desc": "Southeast corner of RESEARCH and CLEARFIELD - Nearside", "stop_name": "RESEARCH/CLEARFIELD", "location_type": null, "platform_code": null, "zone_id": null}, {"stop_lat": 30.359988, "stop_timezone": null, "wheelchair_boarding": 0, "stop_code": "3797", "direction_id": 0, "stop_lon": -97.716313, "parent_station": null, "route_id": "383", "stop_url": "http://www.capmetro.org/gismaps/stops/3797.html", "stop_sequence": 5, "stop_id": "3797", "stop_desc": "Southeast corner of RESEARCH and FAIRFIELD - Nearside", "stop_name": "8523 RESEARCH/FAIRFIELD", "location_type": null, "platform_code": null, "zone_id": null}, {"stop_lat": 30.362273, "stop_timezone": null, "wheelchair_boarding": 0, "stop_code": "3798", "direction_id": 0, "stop_lon": -97.716941, "parent_station": null, "route_id": "383", "stop_url": "http://www.capmetro.org/gismaps/stops/3798.html", "stop_sequence": 6, "stop_id": "3798", "stop_desc": "Southeast corner of RESEARCH and OHLEN - Mid-Block", "stop_name": "8601 RESEARCH/OHLEN", "location_type": null, "platform_code": null, "zone_id": null}, {"stop_lat": 30.368858, "stop_timezone": null, "wheelchair_boarding": 0, "stop_code": "3799", "direction_id": 0, "stop_lon": -97.718513, "parent_station": null, "route_id": "383", "stop_url": "http://www.capmetro.org/gismaps/stops/3799.html", "stop_sequence": 7, "stop_id": "3799", "stop_desc": "Northeast corner of RESEARCH and NORTHGATE - Farside", "stop_name": "RESEARCH/NORTHGATE", "location_type": null, "platform_code": null, "zone_id": null}, {"stop_lat": 30.371864, "stop_timezone": null, "wheelchair_boarding": 0, "stop_code": "3800", "direction_id": 0, "stop_lon": -97.722558, "parent_station": null, "route_id": "383", "stop_url": "http://www.capmetro.org/gismaps/stops/3800.html", "stop_sequence": 8, "stop_id": "3800", "stop_desc": "Northwest corner of RESEARCH and METRIC - Mid-Block", "stop_name": "RESEARCH/METRIC", "location_type": null, "platform_code": null, "zone_id": null}, {"stop_lat": 30.374709, "stop_timezone": null, "wheelchair_boarding": 0, "stop_code": "4753", "direction_id": 0, "stop_lon": -97.725908, "parent_station": null, "route_id": "383", "stop_url": "http://www.capmetro.org/gismaps/stops/4753.html", "stop_sequence": 9, "stop_id": "4753", "stop_desc": "Northeast corner of BURNET and RESEARCH - Mid-Block", "stop_name": "9101 BURNET/RESEARCH", "location_type": null, "platform_code": null, "zone_id": null}, {"stop_lat": 30.379497, "stop_timezone": null, "wheelchair_boarding": 1, "stop_code": "4757", "direction_id": 0, "stop_lon": -97.724857, "parent_station": null, "route_id": "383", "stop_url": "http://www.capmetro.org/gismaps/stops/4757.html", "stop_sequence": 10, "stop_id": "4757", "stop_desc": "Southeast corner of BURNET and LONGHORN - Nearside", "stop_name": "9525 BURNET/LONGHORN", "location_type": null, "platform_code": null, "zone_id": null}, {"stop_lat": 30.382365, "stop_timezone": null, "wheelchair_boarding": 1, "stop_code": "4755", "direction_id": 0, "stop_lon": -97.724197, "parent_station": null, "route_id": "383", "stop_url": "http://www.capmetro.org/gismaps/stops/4755.html", "stop_sequence": 11, "stop_id": "4755", "stop_desc": "Northeast corner of BURNET and MCNEIL - Mid-Block", "stop_name": "BURNET/MCNEIL", "location_type": null, "platform_code": null, "zone_id": null}, {"stop_lat": 30.387502, "stop_timezone": null, "wheelchair_boarding": 0, "stop_code": "5719", "direction_id": 0, "stop_lon": -97.722935, "parent_station": null, "route_id": "383", "stop_url": "http://www.capmetro.org/gismaps/stops/5719.html", "stop_sequence": 12, "stop_id": "5719", "stop_desc": "Northeast corner of BURNET and MC HALE - Mid-Block", "stop_name": "10401 BURNET/MC HALE", "location_type": null, "platform_code": null, "zone_id": null}, {"stop_lat": 30.391615, "stop_timezone": null, "wheelchair_boarding": 1, "stop_code": "4682", "direction_id": 0, "stop_lon": -97.723148, "parent_station": null, "route_id": "383", "stop_url": "http://www.capmetro.org/gismaps/stops/4682.html", "stop_sequence": 13, "stop_id": "4682", "stop_desc": "Northwest corner of BRAKER and BURNET - Farside", "stop_name": "BRAKER/BURNET NW CORNER", "location_type": null, "platform_code": null, "zone_id": null}, {"stop_lat": 30.392667, "stop_timezone": null, "wheelchair_boarding": 1, "stop_code": "3014", "direction_id": 0, "stop_lon": -97.725958, "parent_station": null, "route_id": "383", "stop_url": "http://www.capmetro.org/gismaps/stops/3014.html", "stop_sequence": 14, "stop_id": "3014", "stop_desc": "Northwest corner of BRAKER and BURNET - Mid-Block", "stop_name": "BRAKER/IBM", "location_type": null, "platform_code": null, "zone_id": null}, {"stop_lat": 30.391198, "stop_timezone": null, "wheelchair_boarding": 0, "stop_code": "5916", "direction_id": 0, "stop_lon": -97.739283, "parent_station": null, "route_id": "383", "stop_url": "http://www.capmetro.org/gismaps/stops/5916.html", "stop_sequence": 15, "stop_id": "5916", "stop_desc": "Northeast corner of STONELAKE and CAPITAL OF TEXAS - Farside", "stop_name": "10001 STONELAKE/CAPITAL OF TEXAS", "location_type": null, "platform_code": null, "zone_id": null}, {"stop_lat": 30.393703, "stop_timezone": null, "wheelchair_boarding": 0, "stop_code": "3016", "direction_id": 0, "stop_lon": -97.743884, "parent_station": null, "route_id": "383", "stop_url": "http://www.capmetro.org/gismaps/stops/3016.html", "stop_sequence": 16, "stop_id": "3016", "stop_desc": "Northeast corner of GREAT HILLS and RESEARCH - Mid-Block", "stop_name": "10050 GREAT HILLS/RESEARCH", "location_type": null, "platform_code": null, "zone_id": null}, {"stop_lat": 30.394273, "stop_timezone": null, "wheelchair_boarding": 1, "stop_code": "2726", "direction_id": 0, "stop_lon": -97.748666, "parent_station": null, "route_id": "383", "stop_url": "http://www.capmetro.org/gismaps/stops/2726.html", "stop_sequence": 17, "stop_id": "2726", "stop_desc": "Northwest corner of GREAT HILLS and RESEARCH - Mid-Block", "stop_name": "9828 GREAT HILLS/RESEARCH", "location_type": null, "platform_code": null, "zone_id": null}, {"stop_lat": 30.395978, "stop_timezone": null, "wheelchair_boarding": 1, "stop_code": "3804", "direction_id": 0, "stop_lon": -97.749877, "parent_station": null, "route_id": "383", "stop_url": "http://www.capmetro.org/gismaps/stops/3804.html", "stop_sequence": 18, "stop_id": "3804", "stop_desc": "Northeast corner of JOLLYVILLE and GREAT HILLS - Mid-Block", "stop_name": "10201 JOLLYVILLE/GREAT HILLS", "location_type": null, "platform_code": null, "zone_id": null}, {"stop_lat": 30.400576, "stop_timezone": null, "wheelchair_boarding": 0, "stop_code": "3806", "direction_id": 0, "stop_lon": -97.748014, "parent_station": null, "route_id": "383", "stop_url": "http://www.capmetro.org/gismaps/stops/3806.html", "stop_sequence": 19, "stop_id": "3806", "stop_desc": "Southeast corner of BRAKER and JOLLYVILLE - Mid-Block", "stop_name": "4815 BRAKER/JOLLYVILLE", "location_type": null, "platform_code": null, "zone_id": null}, {"stop_lat": 30.401655, "stop_timezone": null, "wheelchair_boarding": 0, "stop_code": "4688", "direction_id": 0, "stop_lon": -97.745247, "parent_station": null, "route_id": "383", "stop_url": "http://www.capmetro.org/gismaps/stops/4688.html", "stop_sequence": 20, "stop_id": "4688", "stop_desc": "Southeast corner of RESEARCH and HAMILTON - Nearside", "stop_name": "RESEARCH/HAMILTON", "location_type": null, "platform_code": null, "zone_id": null}, {"stop_lat": 30.404485, "stop_timezone": null, "wheelchair_boarding": 0, "stop_code": "5290", "direction_id": 0, "stop_lon": -97.744959, "parent_station": null, "route_id": "383", "stop_url": "http://www.capmetro.org/gismaps/stops/5290.html", "stop_sequence": 21, "stop_id": "5290", "stop_desc": "Northeast corner of RESEARCH and SETON CENTER - Farside", "stop_name": "RESEARCH/SETON CENTER", "location_type": null, "platform_code": null, "zone_id": null}, {"stop_lat": 30.408812, "stop_timezone": null, "wheelchair_boarding": 0, "stop_code": "3809", "direction_id": 0, "stop_lon": -97.744632, "parent_station": null, "route_id": "383", "stop_url": "http://www.capmetro.org/gismaps/stops/3809.html", "stop_sequence": 22, "stop_id": "3809", "stop_desc": "Northeast corner of RESEARCH and BALCONES WOODS - Mid-Block", "stop_name": "11215 RESEARCH/BALCONES WOODS", "location_type": null, "platform_code": null, "zone_id": null}, {"stop_lat": 30.412532, "stop_timezone": null, "wheelchair_boarding": 0, "stop_code": "3810", "direction_id": 0, "stop_lon": -97.745139, "parent_station": null, "route_id": "383", "stop_url": "http://www.capmetro.org/gismaps/stops/3810.html", "stop_sequence": 23, "stop_id": "3810", "stop_desc": "Northeast corner of RESEARCH and BALCONES WOODS - Mid-Block", "stop_name": "11411 RESEARCH/WINDRIVER APTS", "location_type": null, "platform_code": null, "zone_id": null}, {"stop_lat": 30.417953, "stop_timezone": null, "wheelchair_boarding": 1, "stop_code": "3811", "direction_id": 0, "stop_lon": -97.746152, "parent_station": null, "route_id": "383", "stop_url": "http://www.capmetro.org/gismaps/stops/3811.html", "stop_sequence": 24, "stop_id": "3811", "stop_desc": "Southeast corner of RESEARCH and DUVAL - Nearside", "stop_name": "11689 RESEARCH/DUVAL", "location_type": null, "platform_code": null, "zone_id": null}, {"stop_lat": 30.425929, "stop_timezone": null, "wheelchair_boarding": 0, "stop_code": "5432", "direction_id": 0, "stop_lon": -97.75164, "parent_station": null, "route_id": "383", "stop_url": "http://www.capmetro.org/gismaps/stops/5432.html", "stop_sequence": 25, "stop_id": "5432", "stop_desc": "Northeast corner of RESEARCH and RIATA TRACE - Nearside", "stop_name": "RESEARCH/RIATA TRACE", "location_type": null, "platform_code": null, "zone_id": null}, {"stop_lat": 30.42702, "stop_timezone": null, "wheelchair_boarding": 0, "stop_code": "3812", "direction_id": 0, "stop_lon": -97.75387, "parent_station": null, "route_id": "383", "stop_url": "http://www.capmetro.org/gismaps/stops/3812.html", "stop_sequence": 26, "stop_id": "3812", "stop_desc": "Northwest corner of RESEARCH and RIATA APTS - Farside", "stop_name": "RESEARCH/RIATA APTS", "location_type": null, "platform_code": null, "zone_id": null}, {"stop_lat": 30.426817, "stop_timezone": null, "wheelchair_boarding": 0, "stop_code": "2727", "direction_id": 0, "stop_lon": -97.757476, "parent_station": null, "route_id": "383", "stop_url": "http://www.capmetro.org/gismaps/stops/2727.html", "stop_sequence": 27, "stop_id": "2727", "stop_desc": "Northwest corner of RESEARCH and PAVILION - Nearside", "stop_name": "PAVILION PARK AND RIDE", "location_type": null, "platform_code": null, "zone_id": null}, {"stop_lat": 30.425929, "stop_timezone": null, "wheelchair_boarding": 0, "stop_code": "5432", "direction_id": 0, "stop_lon": -97.75164, "parent_station": null, "route_id": "383", "stop_url": "http://www.capmetro.org/gismaps/stops/5432.html", "stop_sequence": 28, "stop_id": "5432", "stop_desc": "Northeast corner of RESEARCH and RIATA TRACE - Nearside", "stop_name": "RESEARCH/RIATA TRACE", "location_type": null, "platform_code": null, "zone_id": null}, {"stop_lat": 30.42702, "stop_timezone": null, "wheelchair_boarding": 0, "stop_code": "3812", "direction_id": 0, "stop_lon": -97.75387, "parent_station": null, "route_id": "383", "stop_url": "http://www.capmetro.org/gismaps/stops/3812.html", "stop_sequence": 29, "stop_id": "3812", "stop_desc": "Northwest corner of RESEARCH and RIATA APTS - Farside", "stop_name": "RESEARCH/RIATA APTS", "location_type": null, "platform_code": null, "zone_id": null}, {"stop_lat": 30.43024, "stop_timezone": null, "wheelchair_boarding": 0, "stop_code": "3813", "direction_id": 0, "stop_lon": -97.76044, "parent_station": null, "route_id": "383", "stop_url": "http://www.capmetro.org/gismaps/stops/3813.html", "stop_sequence": 30, "stop_id": "3813", "stop_desc": "Northwest corner of RESEARCH and OAK KNOLL - Mid-Block", "stop_name": "12550 RESEARCH/OAK KNOLL", "location_type": null, "platform_code": null, "zone_id": null}, {"stop_lat": 30.43266, "stop_timezone": null, "wheelchair_boarding": 0, "stop_code": "4690", "direction_id": 0, "stop_lon": -97.76536, "parent_station": null, "route_id": "383", "stop_url": "http://www.capmetro.org/gismaps/stops/4690.html", "stop_sequence": 31, "stop_id": "4690", "stop_desc": "Northwest corner of RESEARCH and TECHNOLOGY - Mid-Block", "stop_name": "RESEARCH/TECHNOLOGY", "location_type": null, "platform_code": null, "zone_id": null}, {"stop_lat": 30.434391, "stop_timezone": null, "wheelchair_boarding": 0, "stop_code": "5671", "direction_id": 0, "stop_lon": -97.768725, "parent_station": null, "route_id": "383", "stop_url": "http://www.capmetro.org/gismaps/stops/5671.html", "stop_sequence": 32, "stop_id": "5671", "stop_desc": "Southeast corner of RESEARCH and MC NEIL - Nearside", "stop_name": "RESEARCH/MC NEIL", "location_type": null, "platform_code": null, "zone_id": null}, {"stop_lat": 30.444876, "stop_timezone": null, "wheelchair_boarding": 0, "stop_code": "5649", "direction_id": 0, "stop_lon": -97.777674, "parent_station": null, "route_id": "383", "stop_url": "http://www.capmetro.org/gismaps/stops/5649.html", "stop_sequence": 33, "stop_id": "5649", "stop_desc": "Northeast corner of POND SPRINGS and TURTLE ROCK - Mid-Block", "stop_name": "13175 POND SPRINGS/TURTLE ROCK", "location_type": null, "platform_code": null, "zone_id": null}, {"stop_lat": 30.449535, "stop_timezone": null, "wheelchair_boarding": 0, "stop_code": "5673", "direction_id": 0, "stop_lon": -97.788219, "parent_station": null, "route_id": "383", "stop_url": "http://www.capmetro.org/gismaps/stops/5673.html", "stop_sequence": 34, "stop_id": "5673", "stop_desc": "Northeast corner of ANDERSON MILL and US 183 - Nearside", "stop_name": "9514 ANDERSON MILL/US 183", "location_type": null, "platform_code": null, "zone_id": null}, {"stop_lat": 30.448048, "stop_timezone": null, "wheelchair_boarding": 0, "stop_code": "4952", "direction_id": 0, "stop_lon": -97.79324, "parent_station": null, "route_id": "383", "stop_url": "http://www.capmetro.org/gismaps/stops/4952.html", "stop_sequence": 35, "stop_id": "4952", "stop_desc": "Northwest corner of ANDERSON MILL and US 183 - Mid-Block", "stop_name": "9700 ANDERSON MILL/US 183", "location_type": null, "platform_code": null, "zone_id": null}, {"stop_lat": 30.447549, "stop_timezone": null, "wheelchair_boarding": 0, "stop_code": "4953", "direction_id": 0, "stop_lon": -97.803914, "parent_station": null, "route_id": "383", "stop_url": "http://www.capmetro.org/gismaps/stops/4953.html", "stop_sequence": 36, "stop_id": "4953", "stop_desc": "Southeast corner of MILLWRIGHT and MISSEL THRUSH - Nearside", "stop_name": "11807 MILLWRIGHT/MISSEL THRUSH", "location_type": null, "platform_code": null, "zone_id": null}, {"stop_lat": 30.452086, "stop_timezone": null, "wheelchair_boarding": 1, "stop_code": "4954", "direction_id": 0, "stop_lon": -97.802828, "parent_station": null, "route_id": "383", "stop_url": "http://www.capmetro.org/gismaps/stops/4954.html", "stop_sequence": 37, "stop_id": "4954", "stop_desc": "Northeast corner of MILLWRIGHT and OLD STAGE TRAIL - Mid-Block", "stop_name": "12103 MILLWRIGHT/OLD STAGE TRAIL", "location_type": null, "platform_code": null, "zone_id": null}, {"stop_lat": 30.455338, "stop_timezone": null, "wheelchair_boarding": 0, "stop_code": "4955", "direction_id": 0, "stop_lon": -97.80375, "parent_station": null, "route_id": "383", "stop_url": "http://www.capmetro.org/gismaps/stops/4955.html", "stop_sequence": 38, "stop_id": "4955", "stop_desc": "Northeast corner of MILLWRIGHT and WENDTS WAY - Mid-Block", "stop_name": "12221 MILLWRIGHT/WENDTS WAY", "location_type": null, "platform_code": null, "zone_id": null}, {"stop_lat": 30.457116, "stop_timezone": null, "wheelchair_boarding": 1, "stop_code": "4956", "direction_id": 0, "stop_lon": -97.803597, "parent_station": null, "route_id": "383", "stop_url": "http://www.capmetro.org/gismaps/stops/4956.html", "stop_sequence": 39, "stop_id": "4956", "stop_desc": "Southeast corner of LAKE CREEK and MILLWRIGHT - Mid-Block", "stop_name": "10621 LAKE CREEK/MILLWRIGHT", "location_type": null, "platform_code": null, "zone_id": null}, {"stop_lat": 30.458877, "stop_timezone": null, "wheelchair_boarding": 1, "stop_code": "4957", "direction_id": 0, "stop_lon": -97.799056, "parent_station": null, "route_id": "383", "stop_url": "http://www.capmetro.org/gismaps/stops/4957.html", "stop_sequence": 40, "stop_id": "4957", "stop_desc": "Southeast corner of LAKE CREEK and HICKORY STICK - Mid-Block", "stop_name": "10505 LAKE CREEK/HICKORY STICK", "location_type": null, "platform_code": null, "zone_id": null}, {"stop_lat": 30.46064, "stop_timezone": null, "wheelchair_boarding": 0, "stop_code": "3818", "direction_id": 0, "stop_lon": -97.79704, "parent_station": null, "route_id": "383", "stop_url": "http://www.capmetro.org/gismaps/stops/3818.html", "stop_sequence": 41, "stop_id": "3818", "stop_desc": "Northeast corner of LAKE CREEK and MELLOW MEADOWS - Mid-Block", "stop_name": "10409 LAKE CREEK/MELLOW MEADOWS", "location_type": null, "platform_code": null, "zone_id": null}, {"stop_lat": 30.462312, "stop_timezone": null, "wheelchair_boarding": 0, "stop_code": "4654", "direction_id": 0, "stop_lon": -97.791684, "parent_station": null, "route_id": "383", "stop_url": "http://www.capmetro.org/gismaps/stops/4654.html", "stop_sequence": 42, "stop_id": "4654", "stop_desc": "Southeast corner of LAKE CREEK and US 183 - Mid-Block", "stop_name": "10135 LAKE CREEK/US 183", "location_type": null, "platform_code": null, "zone_id": null}, {"stop_lat": 30.463646, "stop_timezone": null, "wheelchair_boarding": 0, "stop_code": "5785", "direction_id": 0, "stop_lon": -97.789238, "parent_station": null, "route_id": "383", "stop_url": "http://www.capmetro.org/gismaps/stops/5785.html", "stop_sequence": 43, "stop_id": "5785", "stop_desc": "Southwest corner of LAKE CREEK and HYMEADOW - Nearside", "stop_name": "LAKE CREEK/HYMEADOW", "location_type": null, "platform_code": null, "zone_id": null}, {"stop_lat": 30.467978, "stop_timezone": null, "wheelchair_boarding": 0, "stop_code": "4655", "direction_id": 0, "stop_lon": -97.787873, "parent_station": null, "route_id": "383", "stop_url": "http://www.capmetro.org/gismaps/stops/4655.html", "stop_sequence": 44, "stop_id": "4655", "stop_desc": "Southeast corner of LAKE CREEK and PECAN PARK - Mid-Block", "stop_name": "10007 LAKE CREEK/PECAN PARK", "location_type": null, "platform_code": null, "zone_id": null}, {"stop_lat": 30.474728, "stop_timezone": null, "wheelchair_boarding": 0, "stop_code": "5653", "direction_id": 0, "stop_lon": -97.795902, "parent_station": null, "route_id": "383", "stop_url": "http://www.capmetro.org/gismaps/stops/5653.html", "stop_sequence": 45, "stop_id": "5653", "stop_desc": "Northwest corner of LAKELINE MALL and LAKE CREEK - Mid-Block", "stop_name": "10818 LAKELINE MALL/LAKE CREEK", "location_type": null, "platform_code": null, "zone_id": null}, {"stop_lat": 30.472378, "stop_timezone": null, "wheelchair_boarding": 0, "stop_code": "5428", "direction_id": 0, "stop_lon": -97.801255, "parent_station": null, "route_id": "383", "stop_url": "http://www.capmetro.org/gismaps/stops/5428.html", "stop_sequence": 46, "stop_id": "5428", "stop_desc": "Northwest corner of LAKELINE MALL and PECAN PARK - Farside", "stop_name": "11020 LAKELINE MALL/PECAN PARK", "location_type": null, "platform_code": null, "zone_id": null}, {"stop_lat": 30.4727, "stop_timezone": null, "wheelchair_boarding": 0, "stop_code": "5222", "direction_id": 0, "stop_lon": -97.802246, "parent_station": null, "route_id": "383", "stop_url": "http://www.capmetro.org/gismaps/stops/5222.html", "stop_sequence": 47, "stop_id": "5222", "stop_desc": "Northeast corner of PECAN PARK and LAKELINE MALL - Farside", "stop_name": "11100 PECAN PARK/LAKELINE MALL", "location_type": null, "platform_code": null, "zone_id": null}, {"stop_lat": 30.478414, "stop_timezone": null, "wheelchair_boarding": 0, "stop_code": "5881", "direction_id": 0, "stop_lon": -97.804675, "parent_station": null, "route_id": "383", "stop_url": "http://www.capmetro.org/gismaps/stops/5881.html", "stop_sequence": 48, "stop_id": "5881", "stop_desc": "Southwest corner of LAKELINE and US 183 - Mid-Block", "stop_name": "LAKELINE/US 183", "location_type": null, "platform_code": null, "zone_id": null}, {"stop_lat": 30.480007, "stop_timezone": null, "wheelchair_boarding": 0, "stop_code": "5654", "direction_id": 0, "stop_lon": -97.800186, "parent_station": null, "route_id": "383", "stop_url": "http://www.capmetro.org/gismaps/stops/5654.html", "stop_sequence": 49, "stop_id": "5654", "stop_desc": "Southeast corner of LAKELINE and US 183 - Farside", "stop_name": "LAKELINE/US 183", "location_type": null, "platform_code": null, "zone_id": null}, {"stop_lat": 30.479846, "stop_timezone": null, "wheelchair_boarding": 0, "stop_code": "5805", "direction_id": 0, "stop_lon": -97.79749, "parent_station": null, "route_id": "383", "stop_url": "http://www.capmetro.org/gismaps/stops/5805.html", "stop_sequence": 50, "stop_id": "5805", "stop_desc": "Southwest corner of LAKELINE and NORTH LAKE CREEK - Mid-Block", "stop_name": "11101 LAKELINE/NORTH LAKE CREEK", "location_type": null, "platform_code": null, "zone_id": null}, {"stop_lat": 30.480562, "stop_timezone": null, "wheelchair_boarding": 0, "stop_code": "5229", "direction_id": 0, "stop_lon": -97.786668, "parent_station": null, "route_id": "383", "stop_url": "http://www.capmetro.org/gismaps/stops/5229.html", "stop_sequence": 51, "stop_id": "5229", "stop_desc": "Southwest corner of LYNDHURST and LAKELINE - Mid-Block", "stop_name": "LAKELINE STATION BAY H", "location_type": null, "platform_code": null, "zone_id": null}]
