[{"stop_lat": 30.286032, "stop_timezone": null, "wheelchair_boarding": 0, "stop_code": "5379", "direction_id": 0, "stop_lon": -97.733433, "parent_station": null, "route_id": "642", "stop_url": null, "stop_sequence": 1, "stop_id": "5379", "stop_desc": "002301 SAN JACINTO & 23RD", "stop_name": "SAN JACINTO/23RD MIDBLOCK", "location_type": null, "platform_code": null, "zone_id": null}, {"stop_lat": 30.28956, "stop_timezone": null, "wheelchair_boarding": 0, "stop_code": "2079", "direction_id": 0, "stop_lon": -97.73663, "parent_station": null, "route_id": "642", "stop_url": null, "stop_sequence": 2, "stop_id": "2079", "stop_desc": "000200 DEAN KEETON & SPEEDWAY", "stop_name": "DEAN KEETON/SPEEDWAY NE CORNER", "location_type": null, "platform_code": null, "zone_id": null}, {"stop_lat": 30.28972, "stop_timezone": null, "wheelchair_boarding": 0, "stop_code": "5024", "direction_id": 0, "stop_lon": -97.7388, "parent_station": null, "route_id": "642", "stop_url": null, "stop_sequence": 3, "stop_id": "5024", "stop_desc": "000116 DEAN KEETON & UNIVERSITY", "stop_name": "116 DEAN KEETON/UNIVERSITY", "location_type": null, "platform_code": null, "zone_id": null}, {"stop_lat": 30.292, "stop_timezone": null, "wheelchair_boarding": 0, "stop_code": "4096", "direction_id": 0, "stop_lon": -97.74022, "parent_station": null, "route_id": "642", "stop_url": null, "stop_sequence": 4, "stop_id": "4096", "stop_desc": "000300 27TH & WHITIS", "stop_name": "27TH/WHITIS", "location_type": null, "platform_code": null, "zone_id": null}, {"stop_lat": 30.291657, "stop_timezone": null, "wheelchair_boarding": 0, "stop_code": "5373", "direction_id": 0, "stop_lon": -97.742835, "parent_station": null, "route_id": "642", "stop_url": null, "stop_sequence": 5, "stop_id": "5373", "stop_desc": "000000 NUECES & 27TH", "stop_name": "NUECES/27TH", "location_type": null, "platform_code": null, "zone_id": null}, {"stop_lat": 30.290696, "stop_timezone": null, "wheelchair_boarding": 0, "stop_code": "4122", "direction_id": 0, "stop_lon": -97.744249, "parent_station": null, "route_id": "642", "stop_url": null, "stop_sequence": 6, "stop_id": "4122", "stop_desc": "000600 26TH & RIO GRANDE", "stop_name": "26TH/RIO GRANDE", "location_type": null, "platform_code": null, "zone_id": null}, {"stop_lat": 30.29086, "stop_timezone": null, "wheelchair_boarding": 0, "stop_code": "4123", "direction_id": 0, "stop_lon": -97.746437, "parent_station": null, "route_id": "642", "stop_url": null, "stop_sequence": 7, "stop_id": "4123", "stop_desc": "000800 26TH & PEARL", "stop_name": "26TH/PEARL", "location_type": null, "platform_code": null, "zone_id": null}, {"stop_lat": 30.28954, "stop_timezone": null, "wheelchair_boarding": 0, "stop_code": "3493", "direction_id": 0, "stop_lon": -97.74775, "parent_station": null, "route_id": "642", "stop_url": null, "stop_sequence": 8, "stop_id": "3493", "stop_desc": "00000 SAN GABRIEL & 25TH", "stop_name": "SAN GABRIEL / 25TH", "location_type": null, "platform_code": null, "zone_id": null}, {"stop_lat": 30.285874, "stop_timezone": null, "wheelchair_boarding": 0, "stop_code": "4979", "direction_id": 0, "stop_lon": -97.747959, "parent_station": null, "route_id": "642", "stop_url": null, "stop_sequence": 9, "stop_id": "4979", "stop_desc": "002212 SAN GABRIEL & 22ND HALF", "stop_name": "2212 SAN GABRIEL/22ND HALF", "location_type": null, "platform_code": null, "zone_id": null}, {"stop_lat": 30.285285, "stop_timezone": null, "wheelchair_boarding": 0, "stop_code": "4120", "direction_id": 0, "stop_lon": -97.746666, "parent_station": null, "route_id": "642", "stop_url": null, "stop_sequence": 10, "stop_id": "4120", "stop_desc": "000900 22ND & PEARL", "stop_name": "22ND/PEARL", "location_type": null, "platform_code": null, "zone_id": null}, {"stop_lat": 30.28513, "stop_timezone": null, "wheelchair_boarding": 0, "stop_code": "4099", "direction_id": 0, "stop_lon": -97.74453, "parent_station": null, "route_id": "642", "stop_url": null, "stop_sequence": 11, "stop_id": "4099", "stop_desc": "000611 22ND & RIO GRANDE", "stop_name": "22ND/RIO GRANDE", "location_type": null, "platform_code": null, "zone_id": null}, {"stop_lat": 30.283679, "stop_timezone": null, "wheelchair_boarding": 0, "stop_code": "4095", "direction_id": 0, "stop_lon": -97.74128, "parent_station": null, "route_id": "642", "stop_url": null, "stop_sequence": 12, "stop_id": "4095", "stop_desc": "000300 21ST & WHITIS", "stop_name": "21ST/WHITIS (DOBIE MALL)", "location_type": null, "platform_code": null, "zone_id": null}, {"stop_lat": 30.2834, "stop_timezone": null, "wheelchair_boarding": 0, "stop_code": "3494", "direction_id": 0, "stop_lon": -97.7377, "parent_station": null, "route_id": "642", "stop_url": null, "stop_sequence": 13, "stop_id": "3494", "stop_desc": "198 21ST & SPEEDWAY", "stop_name": "SPEEDWAY / 21ST", "location_type": null, "platform_code": null, "zone_id": null}, {"stop_lat": 30.28313, "stop_timezone": null, "wheelchair_boarding": 0, "stop_code": "4137", "direction_id": 0, "stop_lon": -97.73439, "parent_station": null, "route_id": "642", "stop_url": null, "stop_sequence": 14, "stop_id": "4137", "stop_desc": "000309 21ST & SAN JACINTO", "stop_name": "309 21ST/SAN JACINTO", "location_type": null, "platform_code": null, "zone_id": null}, {"stop_lat": 30.286032, "stop_timezone": null, "wheelchair_boarding": 0, "stop_code": "5379", "direction_id": 0, "stop_lon": -97.733433, "parent_station": null, "route_id": "642", "stop_url": null, "stop_sequence": 15, "stop_id": "5379", "stop_desc": "002301 SAN JACINTO & 23RD", "stop_name": "SAN JACINTO/23RD MIDBLOCK", "location_type": null, "platform_code": null, "zone_id": null}]
