[{"stop_timezone": "", "parent_station": "", "direction_id": "0", "stop_url": "https://www.capmetro.org/stopdetail/index.php?stop=5178", "stop_sequence": "1", "stop_id": "5178", "stop_desc": "000300 21ST & WHITIS", "location_type": "", "zone_id": "", "stop_lat": "30.283826", "wheelchair_boarding": "0", "stop_code": "5178", "stop_lon": "-97.740900", "route_id": "663", "stop_name": "21st/Whitis"}, {"stop_timezone": "", "parent_station": "", "direction_id": "0", "stop_url": "https://www.capmetro.org/stopdetail/index.php?stop=501", "stop_sequence": "2", "stop_id": "501", "stop_desc": "001600 GUADALUPE & 16TH", "location_type": "", "zone_id": "", "stop_lat": "30.278962", "wheelchair_boarding": "0", "stop_code": "501", "stop_lon": "-97.742708", "route_id": "663", "stop_name": "Guadalupe/16th Street"}, {"stop_timezone": "", "parent_station": "", "direction_id": "0", "stop_url": "https://www.capmetro.org/stopdetail/index.php?stop=1969", "stop_sequence": "3", "stop_id": "1969", "stop_desc": "000600 6TH & RIO GRANDE", "location_type": "", "zone_id": "", "stop_lat": "30.270016", "wheelchair_boarding": "0", "stop_code": "1969", "stop_lon": "-97.749390", "route_id": "663", "stop_name": "6th/Rio Grande"}, {"stop_timezone": "", "parent_station": "", "direction_id": "0", "stop_url": "https://www.capmetro.org/stopdetail/index.php?stop=1971", "stop_sequence": "4", "stop_id": "1971", "stop_desc": "001000 6TH & BAYLOR", "location_type": "", "zone_id": "", "stop_lat": "30.271955", "wheelchair_boarding": "0", "stop_code": "1971", "stop_lon": "-97.754879", "route_id": "663", "stop_name": "6th/Baylor"}, {"stop_timezone": "", "parent_station": "", "direction_id": "0", "stop_url": "https://www.capmetro.org/stopdetail/index.php?stop=1973", "stop_sequence": "5", "stop_id": "1973", "stop_desc": "001315 6TH & PRESSLER", "location_type": "", "zone_id": "", "stop_lat": "30.273935", "wheelchair_boarding": "0", "stop_code": "1973", "stop_lon": "-97.760118", "route_id": "663", "stop_name": "6th/Pressler"}, {"stop_timezone": "", "parent_station": "", "direction_id": "0", "stop_url": "https://www.capmetro.org/stopdetail/index.php?stop=3519", "stop_sequence": "6", "stop_id": "3519", "stop_desc": "001618 6TH & CAMPBELL", "location_type": "", "zone_id": "", "stop_lat": "30.276005", "wheelchair_boarding": "0", "stop_code": "3519", "stop_lon": "-97.764540", "route_id": "663", "stop_name": "6th/Campbell"}, {"stop_timezone": "", "parent_station": "", "direction_id": "0", "stop_url": "https://www.capmetro.org/stopdetail/index.php?stop=5825", "stop_sequence": "7", "stop_id": "5825", "stop_desc": "002530 LAKE AUSTIN & HEARN", "location_type": "", "zone_id": "", "stop_lat": "30.279419", "wheelchair_boarding": "0", "stop_code": "5825", "stop_lon": "-97.774048", "route_id": "663", "stop_name": "2530 Lake Austin/Hearn"}, {"stop_timezone": "", "parent_station": "", "direction_id": "0", "stop_url": "https://www.capmetro.org/stopdetail/index.php?stop=1981", "stop_sequence": "8", "stop_id": "1981", "stop_desc": "002800 LAKE AUSTIN & 7TH", "location_type": "", "zone_id": "", "stop_lat": "30.282319", "wheelchair_boarding": "0", "stop_code": "1981", "stop_lon": "-97.776058", "route_id": "663", "stop_name": "Lake Austin/7th"}, {"stop_timezone": "", "parent_station": "", "direction_id": "0", "stop_url": "https://www.capmetro.org/stopdetail/index.php?stop=4985", "stop_sequence": "9", "stop_id": "4985", "stop_desc": "003350 KERMIT & LUFKIN", "location_type": "", "zone_id": "", "stop_lat": "30.288949", "wheelchair_boarding": "0", "stop_code": "4985", "stop_lon": "-97.783344", "route_id": "663", "stop_name": "Kermit/Lufkin"}]
