[{"stop_timezone": "", "parent_station": "", "direction_id": "1", "stop_url": "https://www.capmetro.org/stopdetail/index.php?stop=1787", "stop_sequence": "1", "stop_id": "1787", "stop_desc": "004309 RED RIVER & 44TH", "location_type": "", "zone_id": "", "stop_lat": "30.303319", "wheelchair_boarding": "0", "stop_code": "1787", "stop_lon": "-97.720483", "route_id": "653", "stop_name": "4309 Red River/44th"}, {"stop_timezone": "", "parent_station": "", "direction_id": "1", "stop_url": "https://www.capmetro.org/stopdetail/index.php?stop=4143", "stop_sequence": "10", "stop_id": "4143", "stop_desc": "002400 ROBERT DEDMAN & TRINITY", "location_type": "", "zone_id": "", "stop_lat": "30.287351", "wheelchair_boarding": "0", "stop_code": "4143", "stop_lon": "-97.730075", "route_id": "653", "stop_name": "Robert Dedman/Trinity"}, {"stop_timezone": "", "parent_station": "", "direction_id": "1", "stop_url": "https://www.capmetro.org/stopdetail/index.php?stop=5173", "stop_sequence": "11", "stop_id": "5173", "stop_desc": "000500 23RD & TRINITY", "location_type": "", "zone_id": "", "stop_lat": "30.285315", "wheelchair_boarding": "0", "stop_code": "5173", "stop_lon": "-97.732661", "route_id": "653", "stop_name": "23rd/Trinity NE Corner"}, {"stop_timezone": "", "parent_station": "", "direction_id": "1", "stop_url": "https://www.capmetro.org/stopdetail/index.php?stop=3484", "stop_sequence": "2", "stop_id": "3484", "stop_desc": "000900 46TH & BENNETT", "location_type": "", "zone_id": "", "stop_lat": "30.305342", "wheelchair_boarding": "0", "stop_code": "3484", "stop_lon": "-97.717079", "route_id": "653", "stop_name": "46th/Bennett"}, {"stop_timezone": "", "parent_station": "", "direction_id": "1", "stop_url": "https://www.capmetro.org/stopdetail/index.php?stop=4837", "stop_sequence": "3", "stop_id": "4837", "stop_desc": "004500 BENNETT & 45TH", "location_type": "", "zone_id": "", "stop_lat": "30.304138", "wheelchair_boarding": "0", "stop_code": "4837", "stop_lon": "-97.717717", "route_id": "653", "stop_name": "4500 Bennett/45th"}, {"stop_timezone": "", "parent_station": "", "direction_id": "1", "stop_url": "https://www.capmetro.org/stopdetail/index.php?stop=1701", "stop_sequence": "4", "stop_id": "1701", "stop_desc": "004400 RED RIVER & 44TH", "location_type": "", "zone_id": "", "stop_lat": "30.303378", "wheelchair_boarding": "0", "stop_code": "1701", "stop_lon": "-97.720620", "route_id": "653", "stop_name": "4400 Red River/44th"}, {"stop_timezone": "", "parent_station": "", "direction_id": "1", "stop_url": "https://www.capmetro.org/stopdetail/index.php?stop=4149", "stop_sequence": "5", "stop_id": "4149", "stop_desc": "004210 RED RIVER & 43RD", "location_type": "", "zone_id": "", "stop_lat": "30.302281", "wheelchair_boarding": "0", "stop_code": "4149", "stop_lon": "-97.721279", "route_id": "653", "stop_name": "4210 Red River/43rd"}, {"stop_timezone": "", "parent_station": "", "direction_id": "1", "stop_url": "https://www.capmetro.org/stopdetail/index.php?stop=1703", "stop_sequence": "6", "stop_id": "1703", "stop_desc": "004000 RED RIVER & 40TH", "location_type": "", "zone_id": "", "stop_lat": "30.298607", "wheelchair_boarding": "0", "stop_code": "1703", "stop_lon": "-97.722783", "route_id": "653", "stop_name": "4000 Red River/40th"}, {"stop_timezone": "", "parent_station": "", "direction_id": "1", "stop_url": "https://www.capmetro.org/stopdetail/index.php?stop=1704", "stop_sequence": "7", "stop_id": "1704", "stop_desc": "003800 RED RIVER & 38TH", "location_type": "", "zone_id": "", "stop_lat": "30.295760", "wheelchair_boarding": "0", "stop_code": "1704", "stop_lon": "-97.723443", "route_id": "653", "stop_name": "Red River/38th"}, {"stop_timezone": "", "parent_station": "", "direction_id": "1", "stop_url": "https://www.capmetro.org/stopdetail/index.php?stop=5569", "stop_sequence": "8", "stop_id": "5569", "stop_desc": "003400 RED RIVER & HARRIS", "location_type": "", "zone_id": "", "stop_lat": "30.293324", "wheelchair_boarding": "0", "stop_code": "5569", "stop_lon": "-97.725492", "route_id": "653", "stop_name": "3400 Red River/Harris"}, {"stop_timezone": "", "parent_station": "", "direction_id": "1", "stop_url": "https://www.capmetro.org/stopdetail/index.php?stop=1706", "stop_sequence": "9", "stop_id": "1706", "stop_desc": "003100 RED RIVER & 32ND", "location_type": "", "zone_id": "", "stop_lat": "30.290572", "wheelchair_boarding": "0", "stop_code": "1706", "stop_lon": "-97.727389", "route_id": "653", "stop_name": "3100 Red River/32nd"}]
