[{"stop_lat": 30.586407, "stop_timezone": null, "wheelchair_boarding": 0, "stop_code": "5387", "direction_id": 0, "stop_lon": -97.855296, "parent_station": null, "route_id": "985", "stop_url": "http://www.capmetro.org/gismaps/stops/5387.html", "stop_sequence": 1, "stop_id": "5387", "stop_desc": "Northwest corner of US 183 and EVANS - Farside", "stop_name": "LEANDER STATION BAY D", "location_type": null, "platform_code": null, "zone_id": null}, {"stop_lat": 30.480719, "stop_timezone": null, "wheelchair_boarding": 0, "stop_code": "5230", "direction_id": 0, "stop_lon": -97.786775, "parent_station": null, "route_id": "985", "stop_url": "http://www.capmetro.org/gismaps/stops/5230.html", "stop_sequence": 2, "stop_id": "5230", "stop_desc": "Southwest corner of LYNDHURST and LAKELINE - Mid-Block", "stop_name": "LAKELINE STATION BAY G", "location_type": null, "platform_code": null, "zone_id": null}, {"stop_lat": 30.279309, "stop_timezone": null, "wheelchair_boarding": 0, "stop_code": "2761", "direction_id": 0, "stop_lon": -97.732951, "parent_station": null, "route_id": "985", "stop_url": "http://www.capmetro.org/gismaps/stops/2761.html", "stop_sequence": 3, "stop_id": "2761", "stop_desc": "Northwest corner of MARTIN LUTHER KING and RED RIVER - Farside", "stop_name": "500 MARTIN LUTHER KING/RED RIVER", "location_type": null, "platform_code": null, "zone_id": null}, {"stop_lat": 30.279508, "stop_timezone": null, "wheelchair_boarding": 0, "stop_code": "915", "direction_id": 0, "stop_lon": -97.736019, "parent_station": null, "route_id": "985", "stop_url": "http://www.capmetro.org/gismaps/stops/915.html", "stop_sequence": 4, "stop_id": "915", "stop_desc": "Southwest corner of SAN JACINTO and MARTIN LUTHER KING - Farside", "stop_name": "1806 SAN JACINTO/MARTIN LUTHER KING", "location_type": null, "platform_code": null, "zone_id": null}, {"stop_lat": 30.278165, "stop_timezone": null, "wheelchair_boarding": 0, "stop_code": "916", "direction_id": 0, "stop_lon": -97.736503, "parent_station": null, "route_id": "985", "stop_url": "http://www.capmetro.org/gismaps/stops/916.html", "stop_sequence": 5, "stop_id": "916", "stop_desc": "Northwest corner of SAN JACINTO and 17TH - Nearside", "stop_name": "SAN JACINTO/17TH", "location_type": null, "platform_code": null, "zone_id": null}, {"stop_lat": 30.276411, "stop_timezone": null, "wheelchair_boarding": 0, "stop_code": "918", "direction_id": 0, "stop_lon": -97.73718, "parent_station": null, "route_id": "985", "stop_url": "http://www.capmetro.org/gismaps/stops/918.html", "stop_sequence": 6, "stop_id": "918", "stop_desc": "Northwest corner of SAN JACINTO and 15TH - Nearside", "stop_name": "SAN JACINTO/15TH", "location_type": null, "platform_code": null, "zone_id": null}, {"stop_lat": 30.275022, "stop_timezone": null, "wheelchair_boarding": 0, "stop_code": "2738", "direction_id": 0, "stop_lon": -97.744169, "parent_station": null, "route_id": "985", "stop_url": "http://www.capmetro.org/gismaps/stops/2738.html", "stop_sequence": 7, "stop_id": "2738", "stop_desc": "Northwest corner of GUADALUPE and 12TH - Nearside", "stop_name": "CAPITOL STATION (SB)", "location_type": null, "platform_code": null, "zone_id": null}, {"stop_lat": 30.271503, "stop_timezone": null, "wheelchair_boarding": 0, "stop_code": "5950", "direction_id": 0, "stop_lon": -97.745478, "parent_station": null, "route_id": "985", "stop_url": "http://www.capmetro.org/gismaps/stops/5950.html", "stop_sequence": 8, "stop_id": "5950", "stop_desc": "Northwest corner of GUADALUPE and 8TH - Mid-Block", "stop_name": "GUADALUPE/8TH", "location_type": null, "platform_code": null, "zone_id": null}, {"stop_lat": 30.268253, "stop_timezone": null, "wheelchair_boarding": 0, "stop_code": "2612", "direction_id": 0, "stop_lon": -97.74669, "parent_station": null, "route_id": "985", "stop_url": "http://www.capmetro.org/gismaps/stops/2612.html", "stop_sequence": 9, "stop_id": "2612", "stop_desc": "Southwest corner of GUADALUPE and 5TH - Nearside", "stop_name": "500 GUADALUPE/5TH", "location_type": null, "platform_code": null, "zone_id": null}, {"stop_lat": 30.258767, "stop_timezone": null, "wheelchair_boarding": 0, "stop_code": "2763", "direction_id": 0, "stop_lon": -97.7487, "parent_station": null, "route_id": "985", "stop_url": "http://www.capmetro.org/gismaps/stops/2763.html", "stop_sequence": 10, "stop_id": "2763", "stop_desc": "Northwest corner of RIVERSIDE and BARTON SPRINGS - Nearside", "stop_name": "AUDITORIUM SHORES STATION (SB)", "location_type": null, "platform_code": null, "zone_id": null}, {"stop_lat": 30.256196, "stop_timezone": null, "wheelchair_boarding": 0, "stop_code": "3846", "direction_id": 0, "stop_lon": -97.746021, "parent_station": null, "route_id": "985", "stop_url": "http://www.capmetro.org/gismaps/stops/3846.html", "stop_sequence": 11, "stop_id": "3846", "stop_desc": "Southeast corner of RIVERSIDE and CONGRESS - Farside", "stop_name": "RIVERSIDE/CONGRESS FS", "location_type": null, "platform_code": null, "zone_id": null}, {"stop_lat": 30.254846, "stop_timezone": null, "wheelchair_boarding": 0, "stop_code": "3847", "direction_id": 0, "stop_lon": -97.744793, "parent_station": null, "route_id": "985", "stop_url": "http://www.capmetro.org/gismaps/stops/3847.html", "stop_sequence": 12, "stop_id": "3847", "stop_desc": "Southeast corner of RIVERSIDE and CONGRESS - Mid-Block", "stop_name": "205 RIVERSIDE/CONGRESS", "location_type": null, "platform_code": null, "zone_id": null}, {"stop_lat": 30.25359, "stop_timezone": null, "wheelchair_boarding": 1, "stop_code": "5023", "direction_id": 0, "stop_lon": -97.743972, "parent_station": null, "route_id": "985", "stop_url": "http://www.capmetro.org/gismaps/stops/5023.html", "stop_sequence": 13, "stop_id": "5023", "stop_desc": "Southwest corner of RIVERSIDE and NEWNING - Nearside", "stop_name": "325 RIVERSIDE/NEWNING", "location_type": null, "platform_code": null, "zone_id": null}, {"stop_lat": 30.248592, "stop_timezone": null, "wheelchair_boarding": 0, "stop_code": "1188", "direction_id": 0, "stop_lon": -97.736886, "parent_station": null, "route_id": "985", "stop_url": "http://www.capmetro.org/gismaps/stops/1188.html", "stop_sequence": 14, "stop_id": "1188", "stop_desc": "Southwest corner of RIVERSIDE and KENWOOD - Nearside", "stop_name": "RIVERSIDE/KENWOOD", "location_type": null, "platform_code": null, "zone_id": null}]
