[{"stop_timezone": "", "parent_station": "", "direction_id": "0", "stop_url": "https://www.capmetro.org/stopdetail/index.php?stop=5225", "stop_sequence": "1", "stop_id": "5225", "stop_desc": "07900C RESEARCH & LAMAR", "location_type": "", "zone_id": "", "stop_lat": "30.350016", "wheelchair_boarding": "0", "stop_code": "5225", "stop_lon": "-97.711960", "route_id": "383", "stop_name": "North Lamar Bay 1"}, {"stop_timezone": "", "parent_station": "", "direction_id": "0", "stop_url": "https://www.capmetro.org/stopdetail/index.php?stop=4757", "stop_sequence": "10", "stop_id": "4757", "stop_desc": "009525 BURNET & LONGHORN", "location_type": "", "zone_id": "", "stop_lat": "30.379497", "wheelchair_boarding": "0", "stop_code": "4757", "stop_lon": "-97.724857", "route_id": "383", "stop_name": "9525 Burnet/Longhorn"}, {"stop_timezone": "", "parent_station": "", "direction_id": "0", "stop_url": "https://www.capmetro.org/stopdetail/index.php?stop=4755", "stop_sequence": "11", "stop_id": "4755", "stop_desc": "009800 BURNET & MCNEIL", "location_type": "", "zone_id": "", "stop_lat": "30.382365", "wheelchair_boarding": "0", "stop_code": "4755", "stop_lon": "-97.724197", "route_id": "383", "stop_name": "Burnet/McNeil"}, {"stop_timezone": "", "parent_station": "", "direction_id": "0", "stop_url": "https://www.capmetro.org/stopdetail/index.php?stop=5719", "stop_sequence": "12", "stop_id": "5719", "stop_desc": "010401 BURNET & MC HALE", "location_type": "", "zone_id": "", "stop_lat": "30.387502", "wheelchair_boarding": "0", "stop_code": "5719", "stop_lon": "-97.722935", "route_id": "383", "stop_name": "10401 Burnet/Mc Hale"}, {"stop_timezone": "", "parent_station": "", "direction_id": "0", "stop_url": "https://www.capmetro.org/stopdetail/index.php?stop=4682", "stop_sequence": "13", "stop_id": "4682", "stop_desc": "002900 BRAKER & BURNET", "location_type": "", "zone_id": "", "stop_lat": "30.391615", "wheelchair_boarding": "0", "stop_code": "4682", "stop_lon": "-97.723148", "route_id": "383", "stop_name": "Braker/Burnet NW Corner"}, {"stop_timezone": "", "parent_station": "", "direction_id": "0", "stop_url": "https://www.capmetro.org/stopdetail/index.php?stop=3014", "stop_sequence": "14", "stop_id": "3014", "stop_desc": "003000 BRAKER & BURNET", "location_type": "", "zone_id": "", "stop_lat": "30.392667", "wheelchair_boarding": "0", "stop_code": "3014", "stop_lon": "-97.725958", "route_id": "383", "stop_name": "Braker/IBM"}, {"stop_timezone": "", "parent_station": "", "direction_id": "0", "stop_url": "https://www.capmetro.org/stopdetail/index.php?stop=5916", "stop_sequence": "15", "stop_id": "5916", "stop_desc": "010001 STONELAKE & CAPITAL OF TEXAS", "location_type": "", "zone_id": "", "stop_lat": "30.391198", "wheelchair_boarding": "0", "stop_code": "5916", "stop_lon": "-97.739283", "route_id": "383", "stop_name": "10001 Stonelake/Capital of Texas"}, {"stop_timezone": "", "parent_station": "", "direction_id": "0", "stop_url": "https://www.capmetro.org/stopdetail/index.php?stop=3016", "stop_sequence": "16", "stop_id": "3016", "stop_desc": "010050 GREAT HILLS & RESEARCH", "location_type": "", "zone_id": "", "stop_lat": "30.393703", "wheelchair_boarding": "0", "stop_code": "3016", "stop_lon": "-97.743884", "route_id": "383", "stop_name": "10050 Great Hills/Research"}, {"stop_timezone": "", "parent_station": "", "direction_id": "0", "stop_url": "https://www.capmetro.org/stopdetail/index.php?stop=2726", "stop_sequence": "17", "stop_id": "2726", "stop_desc": "009828 GREAT HILLS & RESEARCH", "location_type": "", "zone_id": "", "stop_lat": "30.394273", "wheelchair_boarding": "0", "stop_code": "2726", "stop_lon": "-97.748666", "route_id": "383", "stop_name": "9828 Great Hills/Research"}, {"stop_timezone": "", "parent_station": "", "direction_id": "0", "stop_url": "https://www.capmetro.org/stopdetail/index.php?stop=3804", "stop_sequence": "18", "stop_id": "3804", "stop_desc": "010201 JOLLYVILLE & GREAT HILLS", "location_type": "", "zone_id": "", "stop_lat": "30.395978", "wheelchair_boarding": "0", "stop_code": "3804", "stop_lon": "-97.749877", "route_id": "383", "stop_name": "10201 Jollyville/Great Hills"}, {"stop_timezone": "", "parent_station": "", "direction_id": "0", "stop_url": "https://www.capmetro.org/stopdetail/index.php?stop=3806", "stop_sequence": "19", "stop_id": "3806", "stop_desc": "004815 BRAKER & JOLLYVILLE", "location_type": "", "zone_id": "", "stop_lat": "30.400576", "wheelchair_boarding": "0", "stop_code": "3806", "stop_lon": "-97.748014", "route_id": "383", "stop_name": "4815 Braker/Jollyville"}, {"stop_timezone": "", "parent_station": "", "direction_id": "0", "stop_url": "https://www.capmetro.org/stopdetail/index.php?stop=5071", "stop_sequence": "2", "stop_id": "5071", "stop_desc": "007950 RESEARCH & LAMAR", "location_type": "", "zone_id": "", "stop_lat": "30.350323", "wheelchair_boarding": "0", "stop_code": "5071", "stop_lon": "-97.713047", "route_id": "383", "stop_name": "Research/Lamar"}, {"stop_timezone": "", "parent_station": "", "direction_id": "0", "stop_url": "https://www.capmetro.org/stopdetail/index.php?stop=4688", "stop_sequence": "20", "stop_id": "4688", "stop_desc": "010900 RESEARCH & HAMILTON", "location_type": "", "zone_id": "", "stop_lat": "30.401655", "wheelchair_boarding": "0", "stop_code": "4688", "stop_lon": "-97.745247", "route_id": "383", "stop_name": "Research/Hamilton"}, {"stop_timezone": "", "parent_station": "", "direction_id": "0", "stop_url": "https://www.capmetro.org/stopdetail/index.php?stop=5290", "stop_sequence": "21", "stop_id": "5290", "stop_desc": "011025 RESEARCH & SETON CENTER", "location_type": "", "zone_id": "", "stop_lat": "30.404485", "wheelchair_boarding": "0", "stop_code": "5290", "stop_lon": "-97.744959", "route_id": "383", "stop_name": "Research/Seton Center"}, {"stop_timezone": "", "parent_station": "", "direction_id": "0", "stop_url": "https://www.capmetro.org/stopdetail/index.php?stop=3809", "stop_sequence": "22", "stop_id": "3809", "stop_desc": "011215 RESEARCH & BALCONES WOODS", "location_type": "", "zone_id": "", "stop_lat": "30.408812", "wheelchair_boarding": "0", "stop_code": "3809", "stop_lon": "-97.744632", "route_id": "383", "stop_name": "11215 Research/Balcones Woods"}, {"stop_timezone": "", "parent_station": "", "direction_id": "0", "stop_url": "https://www.capmetro.org/stopdetail/index.php?stop=3810", "stop_sequence": "23", "stop_id": "3810", "stop_desc": "011411 RESEARCH & BALCONES WOODS", "location_type": "", "zone_id": "", "stop_lat": "30.412532", "wheelchair_boarding": "0", "stop_code": "3810", "stop_lon": "-97.745139", "route_id": "383", "stop_name": "11411 Research/Windriver Apts"}, {"stop_timezone": "", "parent_station": "", "direction_id": "0", "stop_url": "https://www.capmetro.org/stopdetail/index.php?stop=3811", "stop_sequence": "24", "stop_id": "3811", "stop_desc": "011689 RESEARCH & DUVAL", "location_type": "", "zone_id": "", "stop_lat": "30.417953", "wheelchair_boarding": "0", "stop_code": "3811", "stop_lon": "-97.746152", "route_id": "383", "stop_name": "11689 Research/Duval"}, {"stop_timezone": "", "parent_station": "", "direction_id": "0", "stop_url": "https://www.capmetro.org/stopdetail/index.php?stop=5432", "stop_sequence": "25", "stop_id": "5432", "stop_desc": "000000 RESEARCH & RIATA TRACE", "location_type": "", "zone_id": "", "stop_lat": "30.425929", "wheelchair_boarding": "0", "stop_code": "5432", "stop_lon": "-97.751640", "route_id": "383", "stop_name": "Research/Riata Trace"}, {"stop_timezone": "", "parent_station": "", "direction_id": "0", "stop_url": "https://www.capmetro.org/stopdetail/index.php?stop=3812", "stop_sequence": "26", "stop_id": "3812", "stop_desc": "12209 RESEARCH & RIATA APTS", "location_type": "", "zone_id": "", "stop_lat": "30.427020", "wheelchair_boarding": "0", "stop_code": "3812", "stop_lon": "-97.753870", "route_id": "383", "stop_name": "Research/Riata Apts"}, {"stop_timezone": "", "parent_station": "", "direction_id": "0", "stop_url": "https://www.capmetro.org/stopdetail/index.php?stop=2727", "stop_sequence": "27", "stop_id": "2727", "stop_desc": "000000 RESEARCH & PAVILION", "location_type": "", "zone_id": "", "stop_lat": "30.426817", "wheelchair_boarding": "0", "stop_code": "2727", "stop_lon": "-97.757476", "route_id": "383", "stop_name": "Pavilion Park and Ride"}, {"stop_timezone": "", "parent_station": "", "direction_id": "0", "stop_url": "https://www.capmetro.org/stopdetail/index.php?stop=5432", "stop_sequence": "28", "stop_id": "5432", "stop_desc": "000000 RESEARCH & RIATA TRACE", "location_type": "", "zone_id": "", "stop_lat": "30.425929", "wheelchair_boarding": "0", "stop_code": "5432", "stop_lon": "-97.751640", "route_id": "383", "stop_name": "Research/Riata Trace"}, {"stop_timezone": "", "parent_station": "", "direction_id": "0", "stop_url": "https://www.capmetro.org/stopdetail/index.php?stop=3812", "stop_sequence": "29", "stop_id": "3812", "stop_desc": "12209 RESEARCH & RIATA APTS", "location_type": "", "zone_id": "", "stop_lat": "30.427020", "wheelchair_boarding": "0", "stop_code": "3812", "stop_lon": "-97.753870", "route_id": "383", "stop_name": "Research/Riata Apts"}, {"stop_timezone": "", "parent_station": "", "direction_id": "0", "stop_url": "https://www.capmetro.org/stopdetail/index.php?stop=3795", "stop_sequence": "3", "stop_id": "3795", "stop_desc": "008200 RESEARCH & JAMESTOWN", "location_type": "", "zone_id": "", "stop_lat": "30.355308", "wheelchair_boarding": "0", "stop_code": "3795", "stop_lon": "-97.714862", "route_id": "383", "stop_name": "Research/Jamestown"}, {"stop_timezone": "", "parent_station": "", "direction_id": "0", "stop_url": "https://www.capmetro.org/stopdetail/index.php?stop=3813", "stop_sequence": "30", "stop_id": "3813", "stop_desc": "012550 RESEARCH & OAK KNOLL", "location_type": "", "zone_id": "", "stop_lat": "30.430240", "wheelchair_boarding": "0", "stop_code": "3813", "stop_lon": "-97.760440", "route_id": "383", "stop_name": "12550 Research/Oak Knoll"}, {"stop_timezone": "", "parent_station": "", "direction_id": "0", "stop_url": "https://www.capmetro.org/stopdetail/index.php?stop=4690", "stop_sequence": "31", "stop_id": "4690", "stop_desc": "12655 RESEARCH & TECHNOLOGY", "location_type": "", "zone_id": "", "stop_lat": "30.432660", "wheelchair_boarding": "0", "stop_code": "4690", "stop_lon": "-97.765360", "route_id": "383", "stop_name": "Research/Technology"}, {"stop_timezone": "", "parent_station": "", "direction_id": "0", "stop_url": "https://www.capmetro.org/stopdetail/index.php?stop=5671", "stop_sequence": "32", "stop_id": "5671", "stop_desc": "000000 RESEARCH & MC NEIL", "location_type": "", "zone_id": "", "stop_lat": "30.434391", "wheelchair_boarding": "0", "stop_code": "5671", "stop_lon": "-97.768725", "route_id": "383", "stop_name": "Research/Mc Neil"}, {"stop_timezone": "", "parent_station": "", "direction_id": "0", "stop_url": "https://www.capmetro.org/stopdetail/index.php?stop=5649", "stop_sequence": "33", "stop_id": "5649", "stop_desc": "013175 POND SPRINGS & TURTLE ROCK", "location_type": "", "zone_id": "", "stop_lat": "30.444876", "wheelchair_boarding": "0", "stop_code": "5649", "stop_lon": "-97.777674", "route_id": "383", "stop_name": "13175 Pond Springs/Turtle Rock"}, {"stop_timezone": "", "parent_station": "", "direction_id": "0", "stop_url": "https://www.capmetro.org/stopdetail/index.php?stop=5673", "stop_sequence": "34", "stop_id": "5673", "stop_desc": "009514 ANDERSON MILL & US 183", "location_type": "", "zone_id": "", "stop_lat": "30.449535", "wheelchair_boarding": "0", "stop_code": "5673", "stop_lon": "-97.788219", "route_id": "383", "stop_name": "9514 Anderson Mill/US 183"}, {"stop_timezone": "", "parent_station": "", "direction_id": "0", "stop_url": "https://www.capmetro.org/stopdetail/index.php?stop=4952", "stop_sequence": "35", "stop_id": "4952", "stop_desc": "009700 ANDERSON MILL & US 183", "location_type": "", "zone_id": "", "stop_lat": "30.448048", "wheelchair_boarding": "0", "stop_code": "4952", "stop_lon": "-97.793240", "route_id": "383", "stop_name": "9700 Anderson Mill/US 183"}, {"stop_timezone": "", "parent_station": "", "direction_id": "0", "stop_url": "https://www.capmetro.org/stopdetail/index.php?stop=4953", "stop_sequence": "36", "stop_id": "4953", "stop_desc": "011807 MILLWRIGHT & MISSEL THRUSH", "location_type": "", "zone_id": "", "stop_lat": "30.447549", "wheelchair_boarding": "0", "stop_code": "4953", "stop_lon": "-97.803914", "route_id": "383", "stop_name": "11807 Millwright/Missel Thrush"}, {"stop_timezone": "", "parent_station": "", "direction_id": "0", "stop_url": "https://www.capmetro.org/stopdetail/index.php?stop=4954", "stop_sequence": "37", "stop_id": "4954", "stop_desc": "012103 MILLWRIGHT & OLD STAGE TRAIL", "location_type": "", "zone_id": "", "stop_lat": "30.452086", "wheelchair_boarding": "0", "stop_code": "4954", "stop_lon": "-97.802828", "route_id": "383", "stop_name": "12103 Millwright/Old Stage Trail"}, {"stop_timezone": "", "parent_station": "", "direction_id": "0", "stop_url": "https://www.capmetro.org/stopdetail/index.php?stop=4955", "stop_sequence": "38", "stop_id": "4955", "stop_desc": "012221 MILLWRIGHT & WENDTS WAY", "location_type": "", "zone_id": "", "stop_lat": "30.455338", "wheelchair_boarding": "0", "stop_code": "4955", "stop_lon": "-97.803750", "route_id": "383", "stop_name": "12221 Millwright/Wendts Way"}, {"stop_timezone": "", "parent_station": "", "direction_id": "0", "stop_url": "https://www.capmetro.org/stopdetail/index.php?stop=4956", "stop_sequence": "39", "stop_id": "4956", "stop_desc": "010621 LAKE CREEK & MILLWRIGHT", "location_type": "", "zone_id": "", "stop_lat": "30.457116", "wheelchair_boarding": "0", "stop_code": "4956", "stop_lon": "-97.803597", "route_id": "383", "stop_name": "10621 Lake Creek/Millwright"}, {"stop_timezone": "", "parent_station": "", "direction_id": "0", "stop_url": "https://www.capmetro.org/stopdetail/index.php?stop=3796", "stop_sequence": "4", "stop_id": "3796", "stop_desc": "008400 RESEARCH & CLEARFIELD", "location_type": "", "zone_id": "", "stop_lat": "30.357316", "wheelchair_boarding": "0", "stop_code": "3796", "stop_lon": "-97.715514", "route_id": "383", "stop_name": "Research/Clearfield"}, {"stop_timezone": "", "parent_station": "", "direction_id": "0", "stop_url": "https://www.capmetro.org/stopdetail/index.php?stop=4957", "stop_sequence": "40", "stop_id": "4957", "stop_desc": "010505 LAKE CREEK & HICKORY STICK", "location_type": "", "zone_id": "", "stop_lat": "30.458877", "wheelchair_boarding": "0", "stop_code": "4957", "stop_lon": "-97.799056", "route_id": "383", "stop_name": "10505 Lake Creek/Hickory Stick"}, {"stop_timezone": "", "parent_station": "", "direction_id": "0", "stop_url": "https://www.capmetro.org/stopdetail/index.php?stop=3818", "stop_sequence": "41", "stop_id": "3818", "stop_desc": "010409 LAKE CREEK & MELLOW MEADOWS", "location_type": "", "zone_id": "", "stop_lat": "30.460640", "wheelchair_boarding": "0", "stop_code": "3818", "stop_lon": "-97.797040", "route_id": "383", "stop_name": "10409 Lake Creek/Mellow Meadows"}, {"stop_timezone": "", "parent_station": "", "direction_id": "0", "stop_url": "https://www.capmetro.org/stopdetail/index.php?stop=4654", "stop_sequence": "42", "stop_id": "4654", "stop_desc": "010135 LAKE CREEK & US 183", "location_type": "", "zone_id": "", "stop_lat": "30.462312", "wheelchair_boarding": "0", "stop_code": "4654", "stop_lon": "-97.791684", "route_id": "383", "stop_name": "10135 Lake Creek/US 183"}, {"stop_timezone": "", "parent_station": "", "direction_id": "0", "stop_url": "https://www.capmetro.org/stopdetail/index.php?stop=5785", "stop_sequence": "43", "stop_id": "5785", "stop_desc": "000000 LAKE CREEK & HYMEADOW", "location_type": "", "zone_id": "", "stop_lat": "30.463646", "wheelchair_boarding": "0", "stop_code": "5785", "stop_lon": "-97.789238", "route_id": "383", "stop_name": "Lake Creek/Hymeadow"}, {"stop_timezone": "", "parent_station": "", "direction_id": "0", "stop_url": "https://www.capmetro.org/stopdetail/index.php?stop=4655", "stop_sequence": "44", "stop_id": "4655", "stop_desc": "010007 LAKE CREEK & PECAN PARK", "location_type": "", "zone_id": "", "stop_lat": "30.467978", "wheelchair_boarding": "0", "stop_code": "4655", "stop_lon": "-97.787873", "route_id": "383", "stop_name": "10007 Lake Creek/Pecan Park"}, {"stop_timezone": "", "parent_station": "", "direction_id": "0", "stop_url": "https://www.capmetro.org/stopdetail/index.php?stop=5653", "stop_sequence": "45", "stop_id": "5653", "stop_desc": "010818 LAKELINE MALL & LAKE CREEK", "location_type": "", "zone_id": "", "stop_lat": "30.474728", "wheelchair_boarding": "0", "stop_code": "5653", "stop_lon": "-97.795902", "route_id": "383", "stop_name": "10818 Lakeline Mall/Lake Creek"}, {"stop_timezone": "", "parent_station": "", "direction_id": "0", "stop_url": "https://www.capmetro.org/stopdetail/index.php?stop=5428", "stop_sequence": "46", "stop_id": "5428", "stop_desc": "011020 LAKELINE MALL & PECAN PARK", "location_type": "", "zone_id": "", "stop_lat": "30.472378", "wheelchair_boarding": "0", "stop_code": "5428", "stop_lon": "-97.801255", "route_id": "383", "stop_name": "11020 Lakeline Mall/Pecan Park"}, {"stop_timezone": "", "parent_station": "", "direction_id": "0", "stop_url": "https://www.capmetro.org/stopdetail/index.php?stop=5222", "stop_sequence": "47", "stop_id": "5222", "stop_desc": "011100 PECAN PARK & LAKELINE MALL", "location_type": "", "zone_id": "", "stop_lat": "30.472700", "wheelchair_boarding": "0", "stop_code": "5222", "stop_lon": "-97.802246", "route_id": "383", "stop_name": "11100 Pecan Park/Lakeline Mall"}, {"stop_timezone": "", "parent_station": "", "direction_id": "0", "stop_url": "https://www.capmetro.org/stopdetail/index.php?stop=5881", "stop_sequence": "48", "stop_id": "5881", "stop_desc": "000000 LAKELINE & US 183", "location_type": "", "zone_id": "", "stop_lat": "30.478414", "wheelchair_boarding": "0", "stop_code": "5881", "stop_lon": "-97.804675", "route_id": "383", "stop_name": "Lakeline/US 183"}, {"stop_timezone": "", "parent_station": "", "direction_id": "0", "stop_url": "https://www.capmetro.org/stopdetail/index.php?stop=5654", "stop_sequence": "49", "stop_id": "5654", "stop_desc": "000000 LAKELINE & US 183", "location_type": "", "zone_id": "", "stop_lat": "30.480007", "wheelchair_boarding": "0", "stop_code": "5654", "stop_lon": "-97.800186", "route_id": "383", "stop_name": "Lakeline/US 183"}, {"stop_timezone": "", "parent_station": "", "direction_id": "0", "stop_url": "https://www.capmetro.org/stopdetail/index.php?stop=3797", "stop_sequence": "5", "stop_id": "3797", "stop_desc": "008523 RESEARCH & FAIRFIELD", "location_type": "", "zone_id": "", "stop_lat": "30.359988", "wheelchair_boarding": "0", "stop_code": "3797", "stop_lon": "-97.716313", "route_id": "383", "stop_name": "8523 Research/Fairfield"}, {"stop_timezone": "", "parent_station": "", "direction_id": "0", "stop_url": "https://www.capmetro.org/stopdetail/index.php?stop=5805", "stop_sequence": "50", "stop_id": "5805", "stop_desc": "011101 LAKELINE & NORTH LAKE CREEK", "location_type": "", "zone_id": "", "stop_lat": "30.479846", "wheelchair_boarding": "0", "stop_code": "5805", "stop_lon": "-97.797490", "route_id": "383", "stop_name": "11101 Lakeline/North Lake Creek"}, {"stop_timezone": "", "parent_station": "", "direction_id": "0", "stop_url": "https://www.capmetro.org/stopdetail/index.php?stop=5229", "stop_sequence": "51", "stop_id": "5229", "stop_desc": "10900H LYNDHURST & LAKELINE", "location_type": "", "zone_id": "", "stop_lat": "30.480562", "wheelchair_boarding": "0", "stop_code": "5229", "stop_lon": "-97.786668", "route_id": "383", "stop_name": "Lakeline Station Bay H"}, {"stop_timezone": "", "parent_station": "", "direction_id": "0", "stop_url": "https://www.capmetro.org/stopdetail/index.php?stop=3798", "stop_sequence": "6", "stop_id": "3798", "stop_desc": "008601 RESEARCH & OHLEN", "location_type": "", "zone_id": "", "stop_lat": "30.362273", "wheelchair_boarding": "0", "stop_code": "3798", "stop_lon": "-97.716941", "route_id": "383", "stop_name": "8601 Research/Ohlen"}, {"stop_timezone": "", "parent_station": "", "direction_id": "0", "stop_url": "https://www.capmetro.org/stopdetail/index.php?stop=3799", "stop_sequence": "7", "stop_id": "3799", "stop_desc": "008800 RESEARCH & NORTHGATE", "location_type": "", "zone_id": "", "stop_lat": "30.368858", "wheelchair_boarding": "0", "stop_code": "3799", "stop_lon": "-97.718513", "route_id": "383", "stop_name": "Research/Northgate"}, {"stop_timezone": "", "parent_station": "", "direction_id": "0", "stop_url": "https://www.capmetro.org/stopdetail/index.php?stop=3800", "stop_sequence": "8", "stop_id": "3800", "stop_desc": "008900 RESEARCH & METRIC", "location_type": "", "zone_id": "", "stop_lat": "30.371864", "wheelchair_boarding": "0", "stop_code": "3800", "stop_lon": "-97.722558", "route_id": "383", "stop_name": "Research/Metric"}, {"stop_timezone": "", "parent_station": "", "direction_id": "0", "stop_url": "https://www.capmetro.org/stopdetail/index.php?stop=4753", "stop_sequence": "9", "stop_id": "4753", "stop_desc": "009101 BURNET & RESEARCH", "location_type": "", "zone_id": "", "stop_lat": "30.374709", "wheelchair_boarding": "0", "stop_code": "4753", "stop_lon": "-97.725908", "route_id": "383", "stop_name": "9101 Burnet/Research"}]
