[{"stop_timezone": "", "parent_station": "", "direction_id": "1", "stop_url": "https://www.capmetro.org/stopdetail/index.php?stop=2597", "stop_sequence": "1", "stop_id": "2597", "stop_desc": "007101 SH 71 & US 290", "location_type": "", "zone_id": "", "stop_lat": "30.234966", "wheelchair_boarding": "0", "stop_code": "2597", "stop_lon": "-97.876940", "route_id": "333", "stop_name": "Oak Hill Plaza"}, {"stop_timezone": "", "parent_station": "", "direction_id": "1", "stop_url": "https://www.capmetro.org/stopdetail/index.php?stop=4446", "stop_sequence": "1", "stop_id": "4446", "stop_desc": "005125 CONVICT HILL & WOODCREEK", "location_type": "", "zone_id": "", "stop_lat": "30.218895", "wheelchair_boarding": "0", "stop_code": "4446", "stop_lon": "-97.854694", "route_id": "333", "stop_name": "5125 Convict Hill/Woodcreek"}, {"stop_timezone": "", "parent_station": "", "direction_id": "1", "stop_url": "https://www.capmetro.org/stopdetail/index.php?stop=5703", "stop_sequence": "1", "stop_id": "5703", "stop_desc": "001626 WILLIAM CANNON & BLUFF SPRINGS", "location_type": "", "zone_id": "", "stop_lat": "30.189223", "wheelchair_boarding": "0", "stop_code": "5703", "stop_lon": "-97.768461", "route_id": "333", "stop_name": "1626 William Cannon/Bluff Springs"}, {"stop_timezone": "", "parent_station": "", "direction_id": "1", "stop_url": "https://www.capmetro.org/stopdetail/index.php?stop=5731", "stop_sequence": "1", "stop_id": "5731", "stop_desc": "000000 PINNACLE TURNOFF & US 290", "location_type": "", "zone_id": "", "stop_lat": "30.231484", "wheelchair_boarding": "0", "stop_code": "5731", "stop_lon": "-97.883441", "route_id": "333", "stop_name": "ACC Pinnacle South Entrance"}, {"stop_timezone": "", "parent_station": "", "direction_id": "1", "stop_url": "https://www.capmetro.org/stopdetail/index.php?stop=5902", "stop_sequence": "1", "stop_id": "5902", "stop_desc": "006703 BRUSH COUNTRY & WILLIAM CANNON", "location_type": "", "zone_id": "", "stop_lat": "30.222951", "wheelchair_boarding": "0", "stop_code": "5902", "stop_lon": "-97.841813", "route_id": "333", "stop_name": "6703 Brush Country/William Cannon"}, {"stop_timezone": "", "parent_station": "", "direction_id": "1", "stop_url": "https://www.capmetro.org/stopdetail/index.php?stop=3213", "stop_sequence": "10", "stop_id": "3213", "stop_desc": "007814 COPANO & SARASOTA", "location_type": "", "zone_id": "", "stop_lat": "30.210949", "wheelchair_boarding": "0", "stop_code": "3213", "stop_lon": "-97.849580", "route_id": "333", "stop_name": "7814 Copano/Sarasota"}, {"stop_timezone": "", "parent_station": "", "direction_id": "1", "stop_url": "https://www.capmetro.org/stopdetail/index.php?stop=3230", "stop_sequence": "10", "stop_id": "3230", "stop_desc": "001107 WILLIAM CANNON & MOUNT CARRELL", "location_type": "", "zone_id": "", "stop_lat": "30.199251", "wheelchair_boarding": "0", "stop_code": "3230", "stop_lon": "-97.795196", "route_id": "333", "stop_name": "1107 William Cannon/Mount Carrell"}, {"stop_timezone": "", "parent_station": "", "direction_id": "1", "stop_url": "https://www.capmetro.org/stopdetail/index.php?stop=3887", "stop_sequence": "10", "stop_id": "3887", "stop_desc": "004600 CONVICT HILL & LATTA", "location_type": "", "zone_id": "", "stop_lat": "30.216888", "wheelchair_boarding": "0", "stop_code": "3887", "stop_lon": "-97.846068", "route_id": "333", "stop_name": "Convict Hill/Latta/Brush Country"}, {"stop_timezone": "", "parent_station": "", "direction_id": "1", "stop_url": "https://www.capmetro.org/stopdetail/index.php?stop=4446", "stop_sequence": "10", "stop_id": "4446", "stop_desc": "005125 CONVICT HILL & WOODCREEK", "location_type": "", "zone_id": "", "stop_lat": "30.218895", "wheelchair_boarding": "0", "stop_code": "4446", "stop_lon": "-97.854694", "route_id": "333", "stop_name": "5125 Convict Hill/Woodcreek"}, {"stop_timezone": "", "parent_station": "", "direction_id": "1", "stop_url": "https://www.capmetro.org/stopdetail/index.php?stop=5594", "stop_sequence": "10", "stop_id": "5594", "stop_desc": "003508 ESKEW & LEAFIELD", "location_type": "", "zone_id": "", "stop_lat": "30.203863", "wheelchair_boarding": "0", "stop_code": "5594", "stop_lon": "-97.838309", "route_id": "333", "stop_name": "3508 Eskew/Leafield"}, {"stop_timezone": "", "parent_station": "", "direction_id": "1", "stop_url": "https://www.capmetro.org/stopdetail/index.php?stop=3212", "stop_sequence": "11", "stop_id": "3212", "stop_desc": "007704 COPANO & COPPERAS", "location_type": "", "zone_id": "", "stop_lat": "30.213341", "wheelchair_boarding": "0", "stop_code": "3212", "stop_lon": "-97.850551", "route_id": "333", "stop_name": "7704 Copano/Copperas"}, {"stop_timezone": "", "parent_station": "", "direction_id": "1", "stop_url": "https://www.capmetro.org/stopdetail/index.php?stop=3214", "stop_sequence": "11", "stop_id": "3214", "stop_desc": "004403 ESKEW & COPANO", "location_type": "", "zone_id": "", "stop_lat": "30.209294", "wheelchair_boarding": "0", "stop_code": "3214", "stop_lon": "-97.848453", "route_id": "333", "stop_name": "4403 Eskew/Copano"}, {"stop_timezone": "", "parent_station": "", "direction_id": "1", "stop_url": "https://www.capmetro.org/stopdetail/index.php?stop=3220", "stop_sequence": "11", "stop_id": "3220", "stop_desc": "007613 BRODIE & HARPERS FERRY", "location_type": "", "zone_id": "", "stop_lat": "30.206736", "wheelchair_boarding": "0", "stop_code": "3220", "stop_lon": "-97.834965", "route_id": "333", "stop_name": "7613 Brodie/Harpers Ferry"}, {"stop_timezone": "", "parent_station": "", "direction_id": "1", "stop_url": "https://www.capmetro.org/stopdetail/index.php?stop=3231", "stop_sequence": "11", "stop_id": "3231", "stop_desc": "001011 WILLIAM CANNON & EMERALD FOREST", "location_type": "", "zone_id": "", "stop_lat": "30.199075", "wheelchair_boarding": "0", "stop_code": "3231", "stop_lon": "-97.793338", "route_id": "333", "stop_name": "1011 William Cannon/Emerald Forest"}, {"stop_timezone": "", "parent_station": "", "direction_id": "1", "stop_url": "https://www.capmetro.org/stopdetail/index.php?stop=4445", "stop_sequence": "11", "stop_id": "4445", "stop_desc": "004923 CONVICT HILL & FLAMING OAK", "location_type": "", "zone_id": "", "stop_lat": "30.217966", "wheelchair_boarding": "0", "stop_code": "4445", "stop_lon": "-97.852755", "route_id": "333", "stop_name": "4923 Convict Hill/Flaming Oak"}, {"stop_timezone": "", "parent_station": "", "direction_id": "1", "stop_url": "https://www.capmetro.org/stopdetail/index.php?stop=2917", "stop_sequence": "12", "stop_id": "2917", "stop_desc": "000801 WILLIAM CANNON & COOPER", "location_type": "", "zone_id": "", "stop_lat": "30.197943", "wheelchair_boarding": "0", "stop_code": "2917", "stop_lon": "-97.790054", "route_id": "333", "stop_name": "801 William Cannon/Cooper"}, {"stop_timezone": "", "parent_station": "", "direction_id": "1", "stop_url": "https://www.capmetro.org/stopdetail/index.php?stop=3213", "stop_sequence": "12", "stop_id": "3213", "stop_desc": "007814 COPANO & SARASOTA", "location_type": "", "zone_id": "", "stop_lat": "30.210949", "wheelchair_boarding": "0", "stop_code": "3213", "stop_lon": "-97.849580", "route_id": "333", "stop_name": "7814 Copano/Sarasota"}, {"stop_timezone": "", "parent_station": "", "direction_id": "1", "stop_url": "https://www.capmetro.org/stopdetail/index.php?stop=3215", "stop_sequence": "12", "stop_id": "3215", "stop_desc": "004200 ESKEW & MAUAI", "location_type": "", "zone_id": "", "stop_lat": "30.207733", "wheelchair_boarding": "0", "stop_code": "3215", "stop_lon": "-97.846601", "route_id": "333", "stop_name": "Eskew/Mauai"}, {"stop_timezone": "", "parent_station": "", "direction_id": "1", "stop_url": "https://www.capmetro.org/stopdetail/index.php?stop=3221", "stop_sequence": "12", "stop_id": "3221", "stop_desc": "007201 BRODIE & CONVICT HILL", "location_type": "", "zone_id": "", "stop_lat": "30.211188", "wheelchair_boarding": "0", "stop_code": "3221", "stop_lon": "-97.831853", "route_id": "333", "stop_name": "7201 Brodie/Convict Hill"}, {"stop_timezone": "", "parent_station": "", "direction_id": "1", "stop_url": "https://www.capmetro.org/stopdetail/index.php?stop=3887", "stop_sequence": "12", "stop_id": "3887", "stop_desc": "004600 CONVICT HILL & LATTA", "location_type": "", "zone_id": "", "stop_lat": "30.216888", "wheelchair_boarding": "0", "stop_code": "3887", "stop_lon": "-97.846068", "route_id": "333", "stop_name": "Convict Hill/Latta/Brush Country"}, {"stop_timezone": "", "parent_station": "", "direction_id": "1", "stop_url": "https://www.capmetro.org/stopdetail/index.php?stop=2918", "stop_sequence": "13", "stop_id": "2918", "stop_desc": "000701 WILLIAM CANNON & 1ST", "location_type": "", "zone_id": "", "stop_lat": "30.197073", "wheelchair_boarding": "0", "stop_code": "2918", "stop_lon": "-97.788053", "route_id": "333", "stop_name": "701 William Cannon/1st"}, {"stop_timezone": "", "parent_station": "", "direction_id": "1", "stop_url": "https://www.capmetro.org/stopdetail/index.php?stop=3212", "stop_sequence": "13", "stop_id": "3212", "stop_desc": "007704 COPANO & COPPERAS", "location_type": "", "zone_id": "", "stop_lat": "30.213341", "wheelchair_boarding": "0", "stop_code": "3212", "stop_lon": "-97.850551", "route_id": "333", "stop_name": "7704 Copano/Copperas"}, {"stop_timezone": "", "parent_station": "", "direction_id": "1", "stop_url": "https://www.capmetro.org/stopdetail/index.php?stop=3214", "stop_sequence": "13", "stop_id": "3214", "stop_desc": "004403 ESKEW & COPANO", "location_type": "", "zone_id": "", "stop_lat": "30.209294", "wheelchair_boarding": "0", "stop_code": "3214", "stop_lon": "-97.848453", "route_id": "333", "stop_name": "4403 Eskew/Copano"}, {"stop_timezone": "", "parent_station": "", "direction_id": "1", "stop_url": "https://www.capmetro.org/stopdetail/index.php?stop=3216", "stop_sequence": "13", "stop_id": "3216", "stop_desc": "003911 ESKEW & TREE HOUSE", "location_type": "", "zone_id": "", "stop_lat": "30.205755", "wheelchair_boarding": "0", "stop_code": "3216", "stop_lon": "-97.843159", "route_id": "333", "stop_name": "3911 Eskew/Tree House"}, {"stop_timezone": "", "parent_station": "", "direction_id": "1", "stop_url": "https://www.capmetro.org/stopdetail/index.php?stop=3223", "stop_sequence": "13", "stop_id": "3223", "stop_desc": "003421 WILLIAM CANNON & BRODIE", "location_type": "", "zone_id": "", "stop_lat": "30.213228", "wheelchair_boarding": "0", "stop_code": "3223", "stop_lon": "-97.829451", "route_id": "333", "stop_name": "3421 William Cannon/Brodie"}, {"stop_timezone": "", "parent_station": "", "direction_id": "1", "stop_url": "https://www.capmetro.org/stopdetail/index.php?stop=3213", "stop_sequence": "14", "stop_id": "3213", "stop_desc": "007814 COPANO & SARASOTA", "location_type": "", "zone_id": "", "stop_lat": "30.210949", "wheelchair_boarding": "0", "stop_code": "3213", "stop_lon": "-97.849580", "route_id": "333", "stop_name": "7814 Copano/Sarasota"}, {"stop_timezone": "", "parent_station": "", "direction_id": "1", "stop_url": "https://www.capmetro.org/stopdetail/index.php?stop=3215", "stop_sequence": "14", "stop_id": "3215", "stop_desc": "004200 ESKEW & MAUAI", "location_type": "", "zone_id": "", "stop_lat": "30.207733", "wheelchair_boarding": "0", "stop_code": "3215", "stop_lon": "-97.846601", "route_id": "333", "stop_name": "Eskew/Mauai"}, {"stop_timezone": "", "parent_station": "", "direction_id": "1", "stop_url": "https://www.capmetro.org/stopdetail/index.php?stop=3217", "stop_sequence": "14", "stop_id": "3217", "stop_desc": "003709 ESKEW & CROFTWOOD", "location_type": "", "zone_id": "", "stop_lat": "30.204892", "wheelchair_boarding": "0", "stop_code": "3217", "stop_lon": "-97.840165", "route_id": "333", "stop_name": "3709 Eskew/Croftwood"}, {"stop_timezone": "", "parent_station": "", "direction_id": "1", "stop_url": "https://www.capmetro.org/stopdetail/index.php?stop=3224", "stop_sequence": "14", "stop_id": "3224", "stop_desc": "003207 WILLIAM CANNON & STAGECOACH", "location_type": "", "zone_id": "", "stop_lat": "30.210924", "wheelchair_boarding": "0", "stop_code": "3224", "stop_lon": "-97.824515", "route_id": "333", "stop_name": "3207 William Cannon/Stagecoach"}, {"stop_timezone": "", "parent_station": "", "direction_id": "1", "stop_url": "https://www.capmetro.org/stopdetail/index.php?stop=3234", "stop_sequence": "14", "stop_id": "3234", "stop_desc": "000401 WILLIAM CANNON & BILL HUGHES", "location_type": "", "zone_id": "", "stop_lat": "30.195674", "wheelchair_boarding": "0", "stop_code": "3234", "stop_lon": "-97.785337", "route_id": "333", "stop_name": "401 William Cannon/Bill Hughes"}, {"stop_timezone": "", "parent_station": "", "direction_id": "1", "stop_url": "https://www.capmetro.org/stopdetail/index.php?stop=3214", "stop_sequence": "15", "stop_id": "3214", "stop_desc": "004403 ESKEW & COPANO", "location_type": "", "zone_id": "", "stop_lat": "30.209294", "wheelchair_boarding": "0", "stop_code": "3214", "stop_lon": "-97.848453", "route_id": "333", "stop_name": "4403 Eskew/Copano"}, {"stop_timezone": "", "parent_station": "", "direction_id": "1", "stop_url": "https://www.capmetro.org/stopdetail/index.php?stop=3216", "stop_sequence": "15", "stop_id": "3216", "stop_desc": "003911 ESKEW & TREE HOUSE", "location_type": "", "zone_id": "", "stop_lat": "30.205755", "wheelchair_boarding": "0", "stop_code": "3216", "stop_lon": "-97.843159", "route_id": "333", "stop_name": "3911 Eskew/Tree House"}, {"stop_timezone": "", "parent_station": "", "direction_id": "1", "stop_url": "https://www.capmetro.org/stopdetail/index.php?stop=4384", "stop_sequence": "15", "stop_id": "4384", "stop_desc": "000117 WILLIAM CANNON & SKYNOOK", "location_type": "", "zone_id": "", "stop_lat": "30.193479", "wheelchair_boarding": "0", "stop_code": "4384", "stop_lon": "-97.780305", "route_id": "333", "stop_name": "William Cannon/Skynook"}, {"stop_timezone": "", "parent_station": "", "direction_id": "1", "stop_url": "https://www.capmetro.org/stopdetail/index.php?stop=4436", "stop_sequence": "15", "stop_id": "4436", "stop_desc": "003101 WILLIAM CANNON & RANCH", "location_type": "", "zone_id": "", "stop_lat": "30.209995", "wheelchair_boarding": "0", "stop_code": "4436", "stop_lon": "-97.822172", "route_id": "333", "stop_name": "3101 William Cannon/Ranch"}, {"stop_timezone": "", "parent_station": "", "direction_id": "1", "stop_url": "https://www.capmetro.org/stopdetail/index.php?stop=5594", "stop_sequence": "15", "stop_id": "5594", "stop_desc": "003508 ESKEW & LEAFIELD", "location_type": "", "zone_id": "", "stop_lat": "30.203863", "wheelchair_boarding": "0", "stop_code": "5594", "stop_lon": "-97.838309", "route_id": "333", "stop_name": "3508 Eskew/Leafield"}, {"stop_timezone": "", "parent_station": "", "direction_id": "1", "stop_url": "https://www.capmetro.org/stopdetail/index.php?stop=3215", "stop_sequence": "16", "stop_id": "3215", "stop_desc": "004200 ESKEW & MAUAI", "location_type": "", "zone_id": "", "stop_lat": "30.207733", "wheelchair_boarding": "0", "stop_code": "3215", "stop_lon": "-97.846601", "route_id": "333", "stop_name": "Eskew/Mauai"}, {"stop_timezone": "", "parent_station": "", "direction_id": "1", "stop_url": "https://www.capmetro.org/stopdetail/index.php?stop=3217", "stop_sequence": "16", "stop_id": "3217", "stop_desc": "003709 ESKEW & CROFTWOOD", "location_type": "", "zone_id": "", "stop_lat": "30.204892", "wheelchair_boarding": "0", "stop_code": "3217", "stop_lon": "-97.840165", "route_id": "333", "stop_name": "3709 Eskew/Croftwood"}, {"stop_timezone": "", "parent_station": "", "direction_id": "1", "stop_url": "https://www.capmetro.org/stopdetail/index.php?stop=3220", "stop_sequence": "16", "stop_id": "3220", "stop_desc": "007613 BRODIE & HARPERS FERRY", "location_type": "", "zone_id": "", "stop_lat": "30.206736", "wheelchair_boarding": "0", "stop_code": "3220", "stop_lon": "-97.834965", "route_id": "333", "stop_name": "7613 Brodie/Harpers Ferry"}, {"stop_timezone": "", "parent_station": "", "direction_id": "1", "stop_url": "https://www.capmetro.org/stopdetail/index.php?stop=4428", "stop_sequence": "16", "stop_id": "4428", "stop_desc": "002809 WILLIAM CANNON & DEATON HILL", "location_type": "", "zone_id": "", "stop_lat": "30.207901", "wheelchair_boarding": "0", "stop_code": "4428", "stop_lon": "-97.817777", "route_id": "333", "stop_name": "William Cannon/Deaton Hill"}, {"stop_timezone": "", "parent_station": "", "direction_id": "1", "stop_url": "https://www.capmetro.org/stopdetail/index.php?stop=550", "stop_sequence": "16", "stop_id": "550", "stop_desc": "000115 WILLIAM CANNON & CIRCLE S", "location_type": "", "zone_id": "", "stop_lat": "30.192663", "wheelchair_boarding": "0", "stop_code": "550", "stop_lon": "-97.777841", "route_id": "333", "stop_name": "115 William Cannon/Circle S"}, {"stop_timezone": "", "parent_station": "", "direction_id": "1", "stop_url": "https://www.capmetro.org/stopdetail/index.php?stop=3216", "stop_sequence": "17", "stop_id": "3216", "stop_desc": "003911 ESKEW & TREE HOUSE", "location_type": "", "zone_id": "", "stop_lat": "30.205755", "wheelchair_boarding": "0", "stop_code": "3216", "stop_lon": "-97.843159", "route_id": "333", "stop_name": "3911 Eskew/Tree House"}, {"stop_timezone": "", "parent_station": "", "direction_id": "1", "stop_url": "https://www.capmetro.org/stopdetail/index.php?stop=3221", "stop_sequence": "17", "stop_id": "3221", "stop_desc": "007201 BRODIE & CONVICT HILL", "location_type": "", "zone_id": "", "stop_lat": "30.211188", "wheelchair_boarding": "0", "stop_code": "3221", "stop_lon": "-97.831853", "route_id": "333", "stop_name": "7201 Brodie/Convict Hill"}, {"stop_timezone": "", "parent_station": "", "direction_id": "1", "stop_url": "https://www.capmetro.org/stopdetail/index.php?stop=3226", "stop_sequence": "17", "stop_id": "3226", "stop_desc": "002701 WILLIAM CANNON & WEST GATE", "location_type": "", "zone_id": "", "stop_lat": "30.207197", "wheelchair_boarding": "0", "stop_code": "3226", "stop_lon": "-97.815778", "route_id": "333", "stop_name": "2701 William Cannon/West Gate"}, {"stop_timezone": "", "parent_station": "", "direction_id": "1", "stop_url": "https://www.capmetro.org/stopdetail/index.php?stop=551", "stop_sequence": "17", "stop_id": "551", "stop_desc": "000409 WILLIAM CANNON & CIRCLE S", "location_type": "", "zone_id": "", "stop_lat": "30.192082", "wheelchair_boarding": "0", "stop_code": "551", "stop_lon": "-97.776037", "route_id": "333", "stop_name": "409 William Cannon/Circle S"}, {"stop_timezone": "", "parent_station": "", "direction_id": "1", "stop_url": "https://www.capmetro.org/stopdetail/index.php?stop=5594", "stop_sequence": "17", "stop_id": "5594", "stop_desc": "003508 ESKEW & LEAFIELD", "location_type": "", "zone_id": "", "stop_lat": "30.203863", "wheelchair_boarding": "0", "stop_code": "5594", "stop_lon": "-97.838309", "route_id": "333", "stop_name": "3508 Eskew/Leafield"}, {"stop_timezone": "", "parent_station": "", "direction_id": "1", "stop_url": "https://www.capmetro.org/stopdetail/index.php?stop=3217", "stop_sequence": "18", "stop_id": "3217", "stop_desc": "003709 ESKEW & CROFTWOOD", "location_type": "", "zone_id": "", "stop_lat": "30.204892", "wheelchair_boarding": "0", "stop_code": "3217", "stop_lon": "-97.840165", "route_id": "333", "stop_name": "3709 Eskew/Croftwood"}, {"stop_timezone": "", "parent_station": "", "direction_id": "1", "stop_url": "https://www.capmetro.org/stopdetail/index.php?stop=3220", "stop_sequence": "18", "stop_id": "3220", "stop_desc": "007613 BRODIE & HARPERS FERRY", "location_type": "", "zone_id": "", "stop_lat": "30.206736", "wheelchair_boarding": "0", "stop_code": "3220", "stop_lon": "-97.834965", "route_id": "333", "stop_name": "7613 Brodie/Harpers Ferry"}, {"stop_timezone": "", "parent_station": "", "direction_id": "1", "stop_url": "https://www.capmetro.org/stopdetail/index.php?stop=3223", "stop_sequence": "18", "stop_id": "3223", "stop_desc": "003421 WILLIAM CANNON & BRODIE", "location_type": "", "zone_id": "", "stop_lat": "30.213228", "wheelchair_boarding": "0", "stop_code": "3223", "stop_lon": "-97.829451", "route_id": "333", "stop_name": "3421 William Cannon/Brodie"}, {"stop_timezone": "", "parent_station": "", "direction_id": "1", "stop_url": "https://www.capmetro.org/stopdetail/index.php?stop=4424", "stop_sequence": "18", "stop_id": "4424", "stop_desc": "002200 WILLIAM CANNON & WHISPERING OAKS", "location_type": "", "zone_id": "", "stop_lat": "30.203663", "wheelchair_boarding": "0", "stop_code": "4424", "stop_lon": "-97.809228", "route_id": "333", "stop_name": "William Cannon/Whispering Oaks"}, {"stop_timezone": "", "parent_station": "", "direction_id": "1", "stop_url": "https://www.capmetro.org/stopdetail/index.php?stop=552", "stop_sequence": "18", "stop_id": "552", "stop_desc": "000601 WILLIAM CANNON & CIRCLE S", "location_type": "", "zone_id": "", "stop_lat": "30.191387", "wheelchair_boarding": "0", "stop_code": "552", "stop_lon": "-97.773530", "route_id": "333", "stop_name": "601 William Cannon/Circle S"}, {"stop_timezone": "", "parent_station": "", "direction_id": "1", "stop_url": "https://www.capmetro.org/stopdetail/index.php?stop=3221", "stop_sequence": "19", "stop_id": "3221", "stop_desc": "007201 BRODIE & CONVICT HILL", "location_type": "", "zone_id": "", "stop_lat": "30.211188", "wheelchair_boarding": "0", "stop_code": "3221", "stop_lon": "-97.831853", "route_id": "333", "stop_name": "7201 Brodie/Convict Hill"}, {"stop_timezone": "", "parent_station": "", "direction_id": "1", "stop_url": "https://www.capmetro.org/stopdetail/index.php?stop=3224", "stop_sequence": "19", "stop_id": "3224", "stop_desc": "003207 WILLIAM CANNON & STAGECOACH", "location_type": "", "zone_id": "", "stop_lat": "30.210924", "wheelchair_boarding": "0", "stop_code": "3224", "stop_lon": "-97.824515", "route_id": "333", "stop_name": "3207 William Cannon/Stagecoach"}, {"stop_timezone": "", "parent_station": "", "direction_id": "1", "stop_url": "https://www.capmetro.org/stopdetail/index.php?stop=3228", "stop_sequence": "19", "stop_id": "3228", "stop_desc": "001945 WILLIAM CANNON & MANCHACA", "location_type": "", "zone_id": "", "stop_lat": "30.202716", "wheelchair_boarding": "0", "stop_code": "3228", "stop_lon": "-97.806233", "route_id": "333", "stop_name": "1945 William Cannon/Manchaca"}, {"stop_timezone": "", "parent_station": "", "direction_id": "1", "stop_url": "https://www.capmetro.org/stopdetail/index.php?stop=5594", "stop_sequence": "19", "stop_id": "5594", "stop_desc": "003508 ESKEW & LEAFIELD", "location_type": "", "zone_id": "", "stop_lat": "30.203863", "wheelchair_boarding": "0", "stop_code": "5594", "stop_lon": "-97.838309", "route_id": "333", "stop_name": "3508 Eskew/Leafield"}, {"stop_timezone": "", "parent_station": "", "direction_id": "1", "stop_url": "https://www.capmetro.org/stopdetail/index.php?stop=5703", "stop_sequence": "19", "stop_id": "5703", "stop_desc": "001626 WILLIAM CANNON & BLUFF SPRINGS", "location_type": "", "zone_id": "", "stop_lat": "30.189223", "wheelchair_boarding": "0", "stop_code": "5703", "stop_lon": "-97.768461", "route_id": "333", "stop_name": "1626 William Cannon/Bluff Springs"}, {"stop_timezone": "", "parent_station": "", "direction_id": "1", "stop_url": "https://www.capmetro.org/stopdetail/index.php?stop=2478", "stop_sequence": "2", "stop_id": "2478", "stop_desc": "001901 BLUE MEADOW & BLUFF SPRINGS", "location_type": "", "zone_id": "", "stop_lat": "30.183426", "wheelchair_boarding": "0", "stop_code": "2478", "stop_lon": "-97.768629", "route_id": "333", "stop_name": "1901 Blue Meadow/Bluff Springs"}, {"stop_timezone": "", "parent_station": "", "direction_id": "1", "stop_url": "https://www.capmetro.org/stopdetail/index.php?stop=3203", "stop_sequence": "2", "stop_id": "3203", "stop_desc": "006301 WILLIAM CANNON & US 290", "location_type": "", "zone_id": "", "stop_lat": "30.232994", "wheelchair_boarding": "0", "stop_code": "3203", "stop_lon": "-97.864575", "route_id": "333", "stop_name": "6301 William Cannon/US 290"}, {"stop_timezone": "", "parent_station": "", "direction_id": "1", "stop_url": "https://www.capmetro.org/stopdetail/index.php?stop=3205", "stop_sequence": "2", "stop_id": "3205", "stop_desc": "006115 CONVICT HILL & OLIVER LOVING", "location_type": "", "zone_id": "", "stop_lat": "30.224964", "wheelchair_boarding": "0", "stop_code": "3205", "stop_lon": "-97.867167", "route_id": "333", "stop_name": "6115 Convict Hill/Oliver Loving"}, {"stop_timezone": "", "parent_station": "", "direction_id": "1", "stop_url": "https://www.capmetro.org/stopdetail/index.php?stop=3223", "stop_sequence": "2", "stop_id": "3223", "stop_desc": "003421 WILLIAM CANNON & BRODIE", "location_type": "", "zone_id": "", "stop_lat": "30.213228", "wheelchair_boarding": "0", "stop_code": "3223", "stop_lon": "-97.829451", "route_id": "333", "stop_name": "3421 William Cannon/Brodie"}, {"stop_timezone": "", "parent_station": "", "direction_id": "1", "stop_url": "https://www.capmetro.org/stopdetail/index.php?stop=4445", "stop_sequence": "2", "stop_id": "4445", "stop_desc": "004923 CONVICT HILL & FLAMING OAK", "location_type": "", "zone_id": "", "stop_lat": "30.217966", "wheelchair_boarding": "0", "stop_code": "4445", "stop_lon": "-97.852755", "route_id": "333", "stop_name": "4923 Convict Hill/Flaming Oak"}, {"stop_timezone": "", "parent_station": "", "direction_id": "1", "stop_url": "https://www.capmetro.org/stopdetail/index.php?stop=5562", "stop_sequence": "2", "stop_id": "5562", "stop_desc": "000000 SH 71 & COVERED BRIDGE", "location_type": "", "zone_id": "", "stop_lat": "30.251247", "wheelchair_boarding": "0", "stop_code": "5562", "stop_lon": "-97.893733", "route_id": "333", "stop_name": "SH 71/Covered Bridge"}, {"stop_timezone": "", "parent_station": "", "direction_id": "1", "stop_url": "https://www.capmetro.org/stopdetail/index.php?stop=2478", "stop_sequence": "20", "stop_id": "2478", "stop_desc": "001901 BLUE MEADOW & BLUFF SPRINGS", "location_type": "", "zone_id": "", "stop_lat": "30.183426", "wheelchair_boarding": "0", "stop_code": "2478", "stop_lon": "-97.768629", "route_id": "333", "stop_name": "1901 Blue Meadow/Bluff Springs"}, {"stop_timezone": "", "parent_station": "", "direction_id": "1", "stop_url": "https://www.capmetro.org/stopdetail/index.php?stop=3220", "stop_sequence": "20", "stop_id": "3220", "stop_desc": "007613 BRODIE & HARPERS FERRY", "location_type": "", "zone_id": "", "stop_lat": "30.206736", "wheelchair_boarding": "0", "stop_code": "3220", "stop_lon": "-97.834965", "route_id": "333", "stop_name": "7613 Brodie/Harpers Ferry"}, {"stop_timezone": "", "parent_station": "", "direction_id": "1", "stop_url": "https://www.capmetro.org/stopdetail/index.php?stop=3223", "stop_sequence": "20", "stop_id": "3223", "stop_desc": "003421 WILLIAM CANNON & BRODIE", "location_type": "", "zone_id": "", "stop_lat": "30.213228", "wheelchair_boarding": "0", "stop_code": "3223", "stop_lon": "-97.829451", "route_id": "333", "stop_name": "3421 William Cannon/Brodie"}, {"stop_timezone": "", "parent_station": "", "direction_id": "1", "stop_url": "https://www.capmetro.org/stopdetail/index.php?stop=3229", "stop_sequence": "20", "stop_id": "3229", "stop_desc": "001401 WILLIAM CANNON & WOODHUE", "location_type": "", "zone_id": "", "stop_lat": "30.200295", "wheelchair_boarding": "0", "stop_code": "3229", "stop_lon": "-97.799002", "route_id": "333", "stop_name": "1401 William Cannon/Woodhue"}, {"stop_timezone": "", "parent_station": "", "direction_id": "1", "stop_url": "https://www.capmetro.org/stopdetail/index.php?stop=4436", "stop_sequence": "20", "stop_id": "4436", "stop_desc": "003101 WILLIAM CANNON & RANCH", "location_type": "", "zone_id": "", "stop_lat": "30.209995", "wheelchair_boarding": "0", "stop_code": "4436", "stop_lon": "-97.822172", "route_id": "333", "stop_name": "3101 William Cannon/Ranch"}, {"stop_timezone": "", "parent_station": "", "direction_id": "1", "stop_url": "https://www.capmetro.org/stopdetail/index.php?stop=3221", "stop_sequence": "21", "stop_id": "3221", "stop_desc": "007201 BRODIE & CONVICT HILL", "location_type": "", "zone_id": "", "stop_lat": "30.211188", "wheelchair_boarding": "0", "stop_code": "3221", "stop_lon": "-97.831853", "route_id": "333", "stop_name": "7201 Brodie/Convict Hill"}, {"stop_timezone": "", "parent_station": "", "direction_id": "1", "stop_url": "https://www.capmetro.org/stopdetail/index.php?stop=3224", "stop_sequence": "21", "stop_id": "3224", "stop_desc": "003207 WILLIAM CANNON & STAGECOACH", "location_type": "", "zone_id": "", "stop_lat": "30.210924", "wheelchair_boarding": "0", "stop_code": "3224", "stop_lon": "-97.824515", "route_id": "333", "stop_name": "3207 William Cannon/Stagecoach"}, {"stop_timezone": "", "parent_station": "", "direction_id": "1", "stop_url": "https://www.capmetro.org/stopdetail/index.php?stop=3230", "stop_sequence": "21", "stop_id": "3230", "stop_desc": "001107 WILLIAM CANNON & MOUNT CARRELL", "location_type": "", "zone_id": "", "stop_lat": "30.199251", "wheelchair_boarding": "0", "stop_code": "3230", "stop_lon": "-97.795196", "route_id": "333", "stop_name": "1107 William Cannon/Mount Carrell"}, {"stop_timezone": "", "parent_station": "", "direction_id": "1", "stop_url": "https://www.capmetro.org/stopdetail/index.php?stop=4355", "stop_sequence": "21", "stop_id": "4355", "stop_desc": "002203 BLUE MEADOW & BLUE DAWN", "location_type": "", "zone_id": "", "stop_lat": "30.181535", "wheelchair_boarding": "0", "stop_code": "4355", "stop_lon": "-97.764310", "route_id": "333", "stop_name": "2203 Blue Meadow/Blue Dawn"}, {"stop_timezone": "", "parent_station": "", "direction_id": "1", "stop_url": "https://www.capmetro.org/stopdetail/index.php?stop=4428", "stop_sequence": "21", "stop_id": "4428", "stop_desc": "002809 WILLIAM CANNON & DEATON HILL", "location_type": "", "zone_id": "", "stop_lat": "30.207901", "wheelchair_boarding": "0", "stop_code": "4428", "stop_lon": "-97.817777", "route_id": "333", "stop_name": "William Cannon/Deaton Hill"}, {"stop_timezone": "", "parent_station": "", "direction_id": "1", "stop_url": "https://www.capmetro.org/stopdetail/index.php?stop=3223", "stop_sequence": "22", "stop_id": "3223", "stop_desc": "003421 WILLIAM CANNON & BRODIE", "location_type": "", "zone_id": "", "stop_lat": "30.213228", "wheelchair_boarding": "0", "stop_code": "3223", "stop_lon": "-97.829451", "route_id": "333", "stop_name": "3421 William Cannon/Brodie"}, {"stop_timezone": "", "parent_station": "", "direction_id": "1", "stop_url": "https://www.capmetro.org/stopdetail/index.php?stop=3226", "stop_sequence": "22", "stop_id": "3226", "stop_desc": "002701 WILLIAM CANNON & WEST GATE", "location_type": "", "zone_id": "", "stop_lat": "30.207197", "wheelchair_boarding": "0", "stop_code": "3226", "stop_lon": "-97.815778", "route_id": "333", "stop_name": "2701 William Cannon/West Gate"}, {"stop_timezone": "", "parent_station": "", "direction_id": "1", "stop_url": "https://www.capmetro.org/stopdetail/index.php?stop=3231", "stop_sequence": "22", "stop_id": "3231", "stop_desc": "001011 WILLIAM CANNON & EMERALD FOREST", "location_type": "", "zone_id": "", "stop_lat": "30.199075", "wheelchair_boarding": "0", "stop_code": "3231", "stop_lon": "-97.793338", "route_id": "333", "stop_name": "1011 William Cannon/Emerald Forest"}, {"stop_timezone": "", "parent_station": "", "direction_id": "1", "stop_url": "https://www.capmetro.org/stopdetail/index.php?stop=4436", "stop_sequence": "22", "stop_id": "4436", "stop_desc": "003101 WILLIAM CANNON & RANCH", "location_type": "", "zone_id": "", "stop_lat": "30.209995", "wheelchair_boarding": "0", "stop_code": "4436", "stop_lon": "-97.822172", "route_id": "333", "stop_name": "3101 William Cannon/Ranch"}, {"stop_timezone": "", "parent_station": "", "direction_id": "1", "stop_url": "https://www.capmetro.org/stopdetail/index.php?stop=5121", "stop_sequence": "22", "stop_id": "5121", "stop_desc": "004415 BLUE MEADOW & DEEP", "location_type": "", "zone_id": "", "stop_lat": "30.179440", "wheelchair_boarding": "0", "stop_code": "5121", "stop_lon": "-97.758205", "route_id": "333", "stop_name": "4415 Blue Meadow/Deep"}, {"stop_timezone": "", "parent_station": "", "direction_id": "1", "stop_url": "https://www.capmetro.org/stopdetail/index.php?stop=2917", "stop_sequence": "23", "stop_id": "2917", "stop_desc": "000801 WILLIAM CANNON & COOPER", "location_type": "", "zone_id": "", "stop_lat": "30.197943", "wheelchair_boarding": "0", "stop_code": "2917", "stop_lon": "-97.790054", "route_id": "333", "stop_name": "801 William Cannon/Cooper"}, {"stop_timezone": "", "parent_station": "", "direction_id": "1", "stop_url": "https://www.capmetro.org/stopdetail/index.php?stop=3224", "stop_sequence": "23", "stop_id": "3224", "stop_desc": "003207 WILLIAM CANNON & STAGECOACH", "location_type": "", "zone_id": "", "stop_lat": "30.210924", "wheelchair_boarding": "0", "stop_code": "3224", "stop_lon": "-97.824515", "route_id": "333", "stop_name": "3207 William Cannon/Stagecoach"}, {"stop_timezone": "", "parent_station": "", "direction_id": "1", "stop_url": "https://www.capmetro.org/stopdetail/index.php?stop=4424", "stop_sequence": "23", "stop_id": "4424", "stop_desc": "002200 WILLIAM CANNON & WHISPERING OAKS", "location_type": "", "zone_id": "", "stop_lat": "30.203663", "wheelchair_boarding": "0", "stop_code": "4424", "stop_lon": "-97.809228", "route_id": "333", "stop_name": "William Cannon/Whispering Oaks"}, {"stop_timezone": "", "parent_station": "", "direction_id": "1", "stop_url": "https://www.capmetro.org/stopdetail/index.php?stop=4428", "stop_sequence": "23", "stop_id": "4428", "stop_desc": "002809 WILLIAM CANNON & DEATON HILL", "location_type": "", "zone_id": "", "stop_lat": "30.207901", "wheelchair_boarding": "0", "stop_code": "4428", "stop_lon": "-97.817777", "route_id": "333", "stop_name": "William Cannon/Deaton Hill"}, {"stop_timezone": "", "parent_station": "", "direction_id": "1", "stop_url": "https://www.capmetro.org/stopdetail/index.php?stop=5159", "stop_sequence": "23", "stop_id": "5159", "stop_desc": "004500 BLUE MEADOW & GRANGER", "location_type": "", "zone_id": "", "stop_lat": "30.178217", "wheelchair_boarding": "0", "stop_code": "5159", "stop_lon": "-97.755781", "route_id": "333", "stop_name": "Blue Meadow/Granger"}, {"stop_timezone": "", "parent_station": "", "direction_id": "1", "stop_url": "https://www.capmetro.org/stopdetail/index.php?stop=2918", "stop_sequence": "24", "stop_id": "2918", "stop_desc": "000701 WILLIAM CANNON & 1ST", "location_type": "", "zone_id": "", "stop_lat": "30.197073", "wheelchair_boarding": "0", "stop_code": "2918", "stop_lon": "-97.788053", "route_id": "333", "stop_name": "701 William Cannon/1st"}, {"stop_timezone": "", "parent_station": "", "direction_id": "1", "stop_url": "https://www.capmetro.org/stopdetail/index.php?stop=3226", "stop_sequence": "24", "stop_id": "3226", "stop_desc": "002701 WILLIAM CANNON & WEST GATE", "location_type": "", "zone_id": "", "stop_lat": "30.207197", "wheelchair_boarding": "0", "stop_code": "3226", "stop_lon": "-97.815778", "route_id": "333", "stop_name": "2701 William Cannon/West Gate"}, {"stop_timezone": "", "parent_station": "", "direction_id": "1", "stop_url": "https://www.capmetro.org/stopdetail/index.php?stop=3228", "stop_sequence": "24", "stop_id": "3228", "stop_desc": "001945 WILLIAM CANNON & MANCHACA", "location_type": "", "zone_id": "", "stop_lat": "30.202716", "wheelchair_boarding": "0", "stop_code": "3228", "stop_lon": "-97.806233", "route_id": "333", "stop_name": "1945 William Cannon/Manchaca"}, {"stop_timezone": "", "parent_station": "", "direction_id": "1", "stop_url": "https://www.capmetro.org/stopdetail/index.php?stop=4436", "stop_sequence": "24", "stop_id": "4436", "stop_desc": "003101 WILLIAM CANNON & RANCH", "location_type": "", "zone_id": "", "stop_lat": "30.209995", "wheelchair_boarding": "0", "stop_code": "4436", "stop_lon": "-97.822172", "route_id": "333", "stop_name": "3101 William Cannon/Ranch"}, {"stop_timezone": "", "parent_station": "", "direction_id": "1", "stop_url": "https://www.capmetro.org/stopdetail/index.php?stop=5136", "stop_sequence": "24", "stop_id": "5136", "stop_desc": "006930 MEADOW LAKE & BLUE MEADOW", "location_type": "", "zone_id": "", "stop_lat": "30.178206", "wheelchair_boarding": "0", "stop_code": "5136", "stop_lon": "-97.754762", "route_id": "333", "stop_name": "Meadow Lake/Blue Meadow"}, {"stop_timezone": "", "parent_station": "", "direction_id": "1", "stop_url": "https://www.capmetro.org/stopdetail/index.php?stop=2482", "stop_sequence": "25", "stop_id": "2482", "stop_desc": "006805 MEADOW LAKE & BUCKS RUN", "location_type": "", "zone_id": "", "stop_lat": "30.179042", "wheelchair_boarding": "0", "stop_code": "2482", "stop_lon": "-97.753083", "route_id": "333", "stop_name": "6805 Meadow Lake/Bucks Run"}, {"stop_timezone": "", "parent_station": "", "direction_id": "1", "stop_url": "https://www.capmetro.org/stopdetail/index.php?stop=3229", "stop_sequence": "25", "stop_id": "3229", "stop_desc": "001401 WILLIAM CANNON & WOODHUE", "location_type": "", "zone_id": "", "stop_lat": "30.200295", "wheelchair_boarding": "0", "stop_code": "3229", "stop_lon": "-97.799002", "route_id": "333", "stop_name": "1401 William Cannon/Woodhue"}, {"stop_timezone": "", "parent_station": "", "direction_id": "1", "stop_url": "https://www.capmetro.org/stopdetail/index.php?stop=3234", "stop_sequence": "25", "stop_id": "3234", "stop_desc": "000401 WILLIAM CANNON & BILL HUGHES", "location_type": "", "zone_id": "", "stop_lat": "30.195674", "wheelchair_boarding": "0", "stop_code": "3234", "stop_lon": "-97.785337", "route_id": "333", "stop_name": "401 William Cannon/Bill Hughes"}, {"stop_timezone": "", "parent_station": "", "direction_id": "1", "stop_url": "https://www.capmetro.org/stopdetail/index.php?stop=4424", "stop_sequence": "25", "stop_id": "4424", "stop_desc": "002200 WILLIAM CANNON & WHISPERING OAKS", "location_type": "", "zone_id": "", "stop_lat": "30.203663", "wheelchair_boarding": "0", "stop_code": "4424", "stop_lon": "-97.809228", "route_id": "333", "stop_name": "William Cannon/Whispering Oaks"}, {"stop_timezone": "", "parent_station": "", "direction_id": "1", "stop_url": "https://www.capmetro.org/stopdetail/index.php?stop=4428", "stop_sequence": "25", "stop_id": "4428", "stop_desc": "002809 WILLIAM CANNON & DEATON HILL", "location_type": "", "zone_id": "", "stop_lat": "30.207901", "wheelchair_boarding": "0", "stop_code": "4428", "stop_lon": "-97.817777", "route_id": "333", "stop_name": "William Cannon/Deaton Hill"}, {"stop_timezone": "", "parent_station": "", "direction_id": "1", "stop_url": "https://www.capmetro.org/stopdetail/index.php?stop=2483", "stop_sequence": "26", "stop_id": "2483", "stop_desc": "006601 MEADOW LAKE & WILLIAM CANNON", "location_type": "", "zone_id": "", "stop_lat": "30.180708", "wheelchair_boarding": "0", "stop_code": "2483", "stop_lon": "-97.750278", "route_id": "333", "stop_name": "6601 Meadow Lake/William Cannon"}, {"stop_timezone": "", "parent_station": "", "direction_id": "1", "stop_url": "https://www.capmetro.org/stopdetail/index.php?stop=3226", "stop_sequence": "26", "stop_id": "3226", "stop_desc": "002701 WILLIAM CANNON & WEST GATE", "location_type": "", "zone_id": "", "stop_lat": "30.207197", "wheelchair_boarding": "0", "stop_code": "3226", "stop_lon": "-97.815778", "route_id": "333", "stop_name": "2701 William Cannon/West Gate"}, {"stop_timezone": "", "parent_station": "", "direction_id": "1", "stop_url": "https://www.capmetro.org/stopdetail/index.php?stop=3228", "stop_sequence": "26", "stop_id": "3228", "stop_desc": "001945 WILLIAM CANNON & MANCHACA", "location_type": "", "zone_id": "", "stop_lat": "30.202716", "wheelchair_boarding": "0", "stop_code": "3228", "stop_lon": "-97.806233", "route_id": "333", "stop_name": "1945 William Cannon/Manchaca"}, {"stop_timezone": "", "parent_station": "", "direction_id": "1", "stop_url": "https://www.capmetro.org/stopdetail/index.php?stop=3230", "stop_sequence": "26", "stop_id": "3230", "stop_desc": "001107 WILLIAM CANNON & MOUNT CARRELL", "location_type": "", "zone_id": "", "stop_lat": "30.199251", "wheelchair_boarding": "0", "stop_code": "3230", "stop_lon": "-97.795196", "route_id": "333", "stop_name": "1107 William Cannon/Mount Carrell"}, {"stop_timezone": "", "parent_station": "", "direction_id": "1", "stop_url": "https://www.capmetro.org/stopdetail/index.php?stop=4384", "stop_sequence": "26", "stop_id": "4384", "stop_desc": "000117 WILLIAM CANNON & SKYNOOK", "location_type": "", "zone_id": "", "stop_lat": "30.193479", "wheelchair_boarding": "0", "stop_code": "4384", "stop_lon": "-97.780305", "route_id": "333", "stop_name": "William Cannon/Skynook"}, {"stop_timezone": "", "parent_station": "", "direction_id": "1", "stop_url": "https://www.capmetro.org/stopdetail/index.php?stop=3229", "stop_sequence": "27", "stop_id": "3229", "stop_desc": "001401 WILLIAM CANNON & WOODHUE", "location_type": "", "zone_id": "", "stop_lat": "30.200295", "wheelchair_boarding": "0", "stop_code": "3229", "stop_lon": "-97.799002", "route_id": "333", "stop_name": "1401 William Cannon/Woodhue"}, {"stop_timezone": "", "parent_station": "", "direction_id": "1", "stop_url": "https://www.capmetro.org/stopdetail/index.php?stop=3231", "stop_sequence": "27", "stop_id": "3231", "stop_desc": "001011 WILLIAM CANNON & EMERALD FOREST", "location_type": "", "zone_id": "", "stop_lat": "30.199075", "wheelchair_boarding": "0", "stop_code": "3231", "stop_lon": "-97.793338", "route_id": "333", "stop_name": "1011 William Cannon/Emerald Forest"}, {"stop_timezone": "", "parent_station": "", "direction_id": "1", "stop_url": "https://www.capmetro.org/stopdetail/index.php?stop=4424", "stop_sequence": "27", "stop_id": "4424", "stop_desc": "002200 WILLIAM CANNON & WHISPERING OAKS", "location_type": "", "zone_id": "", "stop_lat": "30.203663", "wheelchair_boarding": "0", "stop_code": "4424", "stop_lon": "-97.809228", "route_id": "333", "stop_name": "William Cannon/Whispering Oaks"}, {"stop_timezone": "", "parent_station": "", "direction_id": "1", "stop_url": "https://www.capmetro.org/stopdetail/index.php?stop=5398", "stop_sequence": "27", "stop_id": "5398", "stop_desc": "005201 WILLIAM CANNON & PLEASANT VALLEY", "location_type": "", "zone_id": "", "stop_lat": "30.179893", "wheelchair_boarding": "0", "stop_code": "5398", "stop_lon": "-97.747991", "route_id": "333", "stop_name": "5201 William Cannon/Pleasant Valley"}, {"stop_timezone": "", "parent_station": "", "direction_id": "1", "stop_url": "https://www.capmetro.org/stopdetail/index.php?stop=550", "stop_sequence": "27", "stop_id": "550", "stop_desc": "000115 WILLIAM CANNON & CIRCLE S", "location_type": "", "zone_id": "", "stop_lat": "30.192663", "wheelchair_boarding": "0", "stop_code": "550", "stop_lon": "-97.777841", "route_id": "333", "stop_name": "115 William Cannon/Circle S"}, {"stop_timezone": "", "parent_station": "", "direction_id": "1", "stop_url": "https://www.capmetro.org/stopdetail/index.php?stop=2917", "stop_sequence": "28", "stop_id": "2917", "stop_desc": "000801 WILLIAM CANNON & COOPER", "location_type": "", "zone_id": "", "stop_lat": "30.197943", "wheelchair_boarding": "0", "stop_code": "2917", "stop_lon": "-97.790054", "route_id": "333", "stop_name": "801 William Cannon/Cooper"}, {"stop_timezone": "", "parent_station": "", "direction_id": "1", "stop_url": "https://www.capmetro.org/stopdetail/index.php?stop=3228", "stop_sequence": "28", "stop_id": "3228", "stop_desc": "001945 WILLIAM CANNON & MANCHACA", "location_type": "", "zone_id": "", "stop_lat": "30.202716", "wheelchair_boarding": "0", "stop_code": "3228", "stop_lon": "-97.806233", "route_id": "333", "stop_name": "1945 William Cannon/Manchaca"}, {"stop_timezone": "", "parent_station": "", "direction_id": "1", "stop_url": "https://www.capmetro.org/stopdetail/index.php?stop=3230", "stop_sequence": "28", "stop_id": "3230", "stop_desc": "001107 WILLIAM CANNON & MOUNT CARRELL", "location_type": "", "zone_id": "", "stop_lat": "30.199251", "wheelchair_boarding": "0", "stop_code": "3230", "stop_lon": "-97.795196", "route_id": "333", "stop_name": "1107 William Cannon/Mount Carrell"}, {"stop_timezone": "", "parent_station": "", "direction_id": "1", "stop_url": "https://www.capmetro.org/stopdetail/index.php?stop=4357", "stop_sequence": "28", "stop_id": "4357", "stop_desc": "007200 SALT SPRINGS & ORLEANS", "location_type": "", "zone_id": "", "stop_lat": "30.168548", "wheelchair_boarding": "0", "stop_code": "4357", "stop_lon": "-97.739677", "route_id": "333", "stop_name": "7200 Salt Springs/Orleans"}, {"stop_timezone": "", "parent_station": "", "direction_id": "1", "stop_url": "https://www.capmetro.org/stopdetail/index.php?stop=551", "stop_sequence": "28", "stop_id": "551", "stop_desc": "000409 WILLIAM CANNON & CIRCLE S", "location_type": "", "zone_id": "", "stop_lat": "30.192082", "wheelchair_boarding": "0", "stop_code": "551", "stop_lon": "-97.776037", "route_id": "333", "stop_name": "409 William Cannon/Circle S"}, {"stop_timezone": "", "parent_station": "", "direction_id": "1", "stop_url": "https://www.capmetro.org/stopdetail/index.php?stop=2918", "stop_sequence": "29", "stop_id": "2918", "stop_desc": "000701 WILLIAM CANNON & 1ST", "location_type": "", "zone_id": "", "stop_lat": "30.197073", "wheelchair_boarding": "0", "stop_code": "2918", "stop_lon": "-97.788053", "route_id": "333", "stop_name": "701 William Cannon/1st"}, {"stop_timezone": "", "parent_station": "", "direction_id": "1", "stop_url": "https://www.capmetro.org/stopdetail/index.php?stop=3229", "stop_sequence": "29", "stop_id": "3229", "stop_desc": "001401 WILLIAM CANNON & WOODHUE", "location_type": "", "zone_id": "", "stop_lat": "30.200295", "wheelchair_boarding": "0", "stop_code": "3229", "stop_lon": "-97.799002", "route_id": "333", "stop_name": "1401 William Cannon/Woodhue"}, {"stop_timezone": "", "parent_station": "", "direction_id": "1", "stop_url": "https://www.capmetro.org/stopdetail/index.php?stop=3231", "stop_sequence": "29", "stop_id": "3231", "stop_desc": "001011 WILLIAM CANNON & EMERALD FOREST", "location_type": "", "zone_id": "", "stop_lat": "30.199075", "wheelchair_boarding": "0", "stop_code": "3231", "stop_lon": "-97.793338", "route_id": "333", "stop_name": "1011 William Cannon/Emerald Forest"}, {"stop_timezone": "", "parent_station": "", "direction_id": "1", "stop_url": "https://www.capmetro.org/stopdetail/index.php?stop=4359", "stop_sequence": "29", "stop_id": "4359", "stop_desc": "007400 SALT SPRINGS & ASA", "location_type": "", "zone_id": "", "stop_lat": "30.165280", "wheelchair_boarding": "0", "stop_code": "4359", "stop_lon": "-97.741884", "route_id": "333", "stop_name": "Salt Springs/Asa"}, {"stop_timezone": "", "parent_station": "", "direction_id": "1", "stop_url": "https://www.capmetro.org/stopdetail/index.php?stop=552", "stop_sequence": "29", "stop_id": "552", "stop_desc": "000601 WILLIAM CANNON & CIRCLE S", "location_type": "", "zone_id": "", "stop_lat": "30.191387", "wheelchair_boarding": "0", "stop_code": "552", "stop_lon": "-97.773530", "route_id": "333", "stop_name": "601 William Cannon/Circle S"}, {"stop_timezone": "", "parent_station": "", "direction_id": "1", "stop_url": "https://www.capmetro.org/stopdetail/index.php?stop=2597", "stop_sequence": "3", "stop_id": "2597", "stop_desc": "007101 SH 71 & US 290", "location_type": "", "zone_id": "", "stop_lat": "30.234966", "wheelchair_boarding": "0", "stop_code": "2597", "stop_lon": "-97.876940", "route_id": "333", "stop_name": "Oak Hill Plaza"}, {"stop_timezone": "", "parent_station": "", "direction_id": "1", "stop_url": "https://www.capmetro.org/stopdetail/index.php?stop=3204", "stop_sequence": "3", "stop_id": "3204", "stop_desc": "007000 ESCARPMENT & KENOSHA", "location_type": "", "zone_id": "", "stop_lat": "30.229281", "wheelchair_boarding": "0", "stop_code": "3204", "stop_lon": "-97.866266", "route_id": "333", "stop_name": "Escarpment/Kenosha"}, {"stop_timezone": "", "parent_station": "", "direction_id": "1", "stop_url": "https://www.capmetro.org/stopdetail/index.php?stop=3206", "stop_sequence": "3", "stop_id": "3206", "stop_desc": "005801 CONVICT HILL & CANNON MOUNTAIN", "location_type": "", "zone_id": "", "stop_lat": "30.223318", "wheelchair_boarding": "0", "stop_code": "3206", "stop_lon": "-97.863788", "route_id": "333", "stop_name": "5801 Convict Hill/Cannon Mountain"}, {"stop_timezone": "", "parent_station": "", "direction_id": "1", "stop_url": "https://www.capmetro.org/stopdetail/index.php?stop=3224", "stop_sequence": "3", "stop_id": "3224", "stop_desc": "003207 WILLIAM CANNON & STAGECOACH", "location_type": "", "zone_id": "", "stop_lat": "30.210924", "wheelchair_boarding": "0", "stop_code": "3224", "stop_lon": "-97.824515", "route_id": "333", "stop_name": "3207 William Cannon/Stagecoach"}, {"stop_timezone": "", "parent_station": "", "direction_id": "1", "stop_url": "https://www.capmetro.org/stopdetail/index.php?stop=3887", "stop_sequence": "3", "stop_id": "3887", "stop_desc": "004600 CONVICT HILL & LATTA", "location_type": "", "zone_id": "", "stop_lat": "30.216888", "wheelchair_boarding": "0", "stop_code": "3887", "stop_lon": "-97.846068", "route_id": "333", "stop_name": "Convict Hill/Latta/Brush Country"}, {"stop_timezone": "", "parent_station": "", "direction_id": "1", "stop_url": "https://www.capmetro.org/stopdetail/index.php?stop=4355", "stop_sequence": "3", "stop_id": "4355", "stop_desc": "002203 BLUE MEADOW & BLUE DAWN", "location_type": "", "zone_id": "", "stop_lat": "30.181535", "wheelchair_boarding": "0", "stop_code": "4355", "stop_lon": "-97.764310", "route_id": "333", "stop_name": "2203 Blue Meadow/Blue Dawn"}, {"stop_timezone": "", "parent_station": "", "direction_id": "1", "stop_url": "https://www.capmetro.org/stopdetail/index.php?stop=2917", "stop_sequence": "30", "stop_id": "2917", "stop_desc": "000801 WILLIAM CANNON & COOPER", "location_type": "", "zone_id": "", "stop_lat": "30.197943", "wheelchair_boarding": "0", "stop_code": "2917", "stop_lon": "-97.790054", "route_id": "333", "stop_name": "801 William Cannon/Cooper"}, {"stop_timezone": "", "parent_station": "", "direction_id": "1", "stop_url": "https://www.capmetro.org/stopdetail/index.php?stop=3230", "stop_sequence": "30", "stop_id": "3230", "stop_desc": "001107 WILLIAM CANNON & MOUNT CARRELL", "location_type": "", "zone_id": "", "stop_lat": "30.199251", "wheelchair_boarding": "0", "stop_code": "3230", "stop_lon": "-97.795196", "route_id": "333", "stop_name": "1107 William Cannon/Mount Carrell"}, {"stop_timezone": "", "parent_station": "", "direction_id": "1", "stop_url": "https://www.capmetro.org/stopdetail/index.php?stop=3234", "stop_sequence": "30", "stop_id": "3234", "stop_desc": "000401 WILLIAM CANNON & BILL HUGHES", "location_type": "", "zone_id": "", "stop_lat": "30.195674", "wheelchair_boarding": "0", "stop_code": "3234", "stop_lon": "-97.785337", "route_id": "333", "stop_name": "401 William Cannon/Bill Hughes"}, {"stop_timezone": "", "parent_station": "", "direction_id": "1", "stop_url": "https://www.capmetro.org/stopdetail/index.php?stop=3901", "stop_sequence": "30", "stop_id": "3901", "stop_desc": "007615 SALT SPRINGS & TARA", "location_type": "", "zone_id": "", "stop_lat": "30.163611", "wheelchair_boarding": "0", "stop_code": "3901", "stop_lon": "-97.742899", "route_id": "333", "stop_name": "Salt Springs/Tara"}, {"stop_timezone": "", "parent_station": "", "direction_id": "1", "stop_url": "https://www.capmetro.org/stopdetail/index.php?stop=5703", "stop_sequence": "30", "stop_id": "5703", "stop_desc": "001626 WILLIAM CANNON & BLUFF SPRINGS", "location_type": "", "zone_id": "", "stop_lat": "30.189223", "wheelchair_boarding": "0", "stop_code": "5703", "stop_lon": "-97.768461", "route_id": "333", "stop_name": "1626 William Cannon/Bluff Springs"}, {"stop_timezone": "", "parent_station": "", "direction_id": "1", "stop_url": "https://www.capmetro.org/stopdetail/index.php?stop=2478", "stop_sequence": "31", "stop_id": "2478", "stop_desc": "001901 BLUE MEADOW & BLUFF SPRINGS", "location_type": "", "zone_id": "", "stop_lat": "30.183426", "wheelchair_boarding": "0", "stop_code": "2478", "stop_lon": "-97.768629", "route_id": "333", "stop_name": "1901 Blue Meadow/Bluff Springs"}, {"stop_timezone": "", "parent_station": "", "direction_id": "1", "stop_url": "https://www.capmetro.org/stopdetail/index.php?stop=2918", "stop_sequence": "31", "stop_id": "2918", "stop_desc": "000701 WILLIAM CANNON & 1ST", "location_type": "", "zone_id": "", "stop_lat": "30.197073", "wheelchair_boarding": "0", "stop_code": "2918", "stop_lon": "-97.788053", "route_id": "333", "stop_name": "701 William Cannon/1st"}, {"stop_timezone": "", "parent_station": "", "direction_id": "1", "stop_url": "https://www.capmetro.org/stopdetail/index.php?stop=3231", "stop_sequence": "31", "stop_id": "3231", "stop_desc": "001011 WILLIAM CANNON & EMERALD FOREST", "location_type": "", "zone_id": "", "stop_lat": "30.199075", "wheelchair_boarding": "0", "stop_code": "3231", "stop_lon": "-97.793338", "route_id": "333", "stop_name": "1011 William Cannon/Emerald Forest"}, {"stop_timezone": "", "parent_station": "", "direction_id": "1", "stop_url": "https://www.capmetro.org/stopdetail/index.php?stop=4384", "stop_sequence": "31", "stop_id": "4384", "stop_desc": "000117 WILLIAM CANNON & SKYNOOK", "location_type": "", "zone_id": "", "stop_lat": "30.193479", "wheelchair_boarding": "0", "stop_code": "4384", "stop_lon": "-97.780305", "route_id": "333", "stop_name": "William Cannon/Skynook"}, {"stop_timezone": "", "parent_station": "", "direction_id": "1", "stop_url": "https://www.capmetro.org/stopdetail/index.php?stop=5700", "stop_sequence": "31", "stop_id": "5700", "stop_desc": "008022 THAXTON & RUNNING WATER", "location_type": "", "zone_id": "", "stop_lat": "30.157548", "wheelchair_boarding": "0", "stop_code": "5700", "stop_lon": "-97.742243", "route_id": "333", "stop_name": "8022 Thaxton/Running Water"}, {"stop_timezone": "", "parent_station": "", "direction_id": "1", "stop_url": "https://www.capmetro.org/stopdetail/index.php?stop=2917", "stop_sequence": "32", "stop_id": "2917", "stop_desc": "000801 WILLIAM CANNON & COOPER", "location_type": "", "zone_id": "", "stop_lat": "30.197943", "wheelchair_boarding": "0", "stop_code": "2917", "stop_lon": "-97.790054", "route_id": "333", "stop_name": "801 William Cannon/Cooper"}, {"stop_timezone": "", "parent_station": "", "direction_id": "1", "stop_url": "https://www.capmetro.org/stopdetail/index.php?stop=3234", "stop_sequence": "32", "stop_id": "3234", "stop_desc": "000401 WILLIAM CANNON & BILL HUGHES", "location_type": "", "zone_id": "", "stop_lat": "30.195674", "wheelchair_boarding": "0", "stop_code": "3234", "stop_lon": "-97.785337", "route_id": "333", "stop_name": "401 William Cannon/Bill Hughes"}, {"stop_timezone": "", "parent_station": "", "direction_id": "1", "stop_url": "https://www.capmetro.org/stopdetail/index.php?stop=4355", "stop_sequence": "32", "stop_id": "4355", "stop_desc": "002203 BLUE MEADOW & BLUE DAWN", "location_type": "", "zone_id": "", "stop_lat": "30.181535", "wheelchair_boarding": "0", "stop_code": "4355", "stop_lon": "-97.764310", "route_id": "333", "stop_name": "2203 Blue Meadow/Blue Dawn"}, {"stop_timezone": "", "parent_station": "", "direction_id": "1", "stop_url": "https://www.capmetro.org/stopdetail/index.php?stop=550", "stop_sequence": "32", "stop_id": "550", "stop_desc": "000115 WILLIAM CANNON & CIRCLE S", "location_type": "", "zone_id": "", "stop_lat": "30.192663", "wheelchair_boarding": "0", "stop_code": "550", "stop_lon": "-97.777841", "route_id": "333", "stop_name": "115 William Cannon/Circle S"}, {"stop_timezone": "", "parent_station": "", "direction_id": "1", "stop_url": "https://www.capmetro.org/stopdetail/index.php?stop=5798", "stop_sequence": "32", "stop_id": "5798", "stop_desc": "008208 ALUM ROCK & BROAD BROOK", "location_type": "", "zone_id": "", "stop_lat": "30.154079", "wheelchair_boarding": "0", "stop_code": "5798", "stop_lon": "-97.736716", "route_id": "333", "stop_name": "8208 Alum Rock/Broad Brook"}, {"stop_timezone": "", "parent_station": "", "direction_id": "1", "stop_url": "https://www.capmetro.org/stopdetail/index.php?stop=2918", "stop_sequence": "33", "stop_id": "2918", "stop_desc": "000701 WILLIAM CANNON & 1ST", "location_type": "", "zone_id": "", "stop_lat": "30.197073", "wheelchair_boarding": "0", "stop_code": "2918", "stop_lon": "-97.788053", "route_id": "333", "stop_name": "701 William Cannon/1st"}, {"stop_timezone": "", "parent_station": "", "direction_id": "1", "stop_url": "https://www.capmetro.org/stopdetail/index.php?stop=4384", "stop_sequence": "33", "stop_id": "4384", "stop_desc": "000117 WILLIAM CANNON & SKYNOOK", "location_type": "", "zone_id": "", "stop_lat": "30.193479", "wheelchair_boarding": "0", "stop_code": "4384", "stop_lon": "-97.780305", "route_id": "333", "stop_name": "William Cannon/Skynook"}, {"stop_timezone": "", "parent_station": "", "direction_id": "1", "stop_url": "https://www.capmetro.org/stopdetail/index.php?stop=5121", "stop_sequence": "33", "stop_id": "5121", "stop_desc": "004415 BLUE MEADOW & DEEP", "location_type": "", "zone_id": "", "stop_lat": "30.179440", "wheelchair_boarding": "0", "stop_code": "5121", "stop_lon": "-97.758205", "route_id": "333", "stop_name": "4415 Blue Meadow/Deep"}, {"stop_timezone": "", "parent_station": "", "direction_id": "1", "stop_url": "https://www.capmetro.org/stopdetail/index.php?stop=551", "stop_sequence": "33", "stop_id": "551", "stop_desc": "000409 WILLIAM CANNON & CIRCLE S", "location_type": "", "zone_id": "", "stop_lat": "30.192082", "wheelchair_boarding": "0", "stop_code": "551", "stop_lon": "-97.776037", "route_id": "333", "stop_name": "409 William Cannon/Circle S"}, {"stop_timezone": "", "parent_station": "", "direction_id": "1", "stop_url": "https://www.capmetro.org/stopdetail/index.php?stop=5701", "stop_sequence": "33", "stop_id": "5701", "stop_desc": "006501 ALUM ROCK & FALL MEADOW", "location_type": "", "zone_id": "", "stop_lat": "30.155447", "wheelchair_boarding": "0", "stop_code": "5701", "stop_lon": "-97.742240", "route_id": "333", "stop_name": "6501 Alum Rock/Fall Meadow"}, {"stop_timezone": "", "parent_station": "", "direction_id": "1", "stop_url": "https://www.capmetro.org/stopdetail/index.php?stop=3234", "stop_sequence": "34", "stop_id": "3234", "stop_desc": "000401 WILLIAM CANNON & BILL HUGHES", "location_type": "", "zone_id": "", "stop_lat": "30.195674", "wheelchair_boarding": "0", "stop_code": "3234", "stop_lon": "-97.785337", "route_id": "333", "stop_name": "401 William Cannon/Bill Hughes"}, {"stop_timezone": "", "parent_station": "", "direction_id": "1", "stop_url": "https://www.capmetro.org/stopdetail/index.php?stop=5159", "stop_sequence": "34", "stop_id": "5159", "stop_desc": "004500 BLUE MEADOW & GRANGER", "location_type": "", "zone_id": "", "stop_lat": "30.178217", "wheelchair_boarding": "0", "stop_code": "5159", "stop_lon": "-97.755781", "route_id": "333", "stop_name": "Blue Meadow/Granger"}, {"stop_timezone": "", "parent_station": "", "direction_id": "1", "stop_url": "https://www.capmetro.org/stopdetail/index.php?stop=550", "stop_sequence": "34", "stop_id": "550", "stop_desc": "000115 WILLIAM CANNON & CIRCLE S", "location_type": "", "zone_id": "", "stop_lat": "30.192663", "wheelchair_boarding": "0", "stop_code": "550", "stop_lon": "-97.777841", "route_id": "333", "stop_name": "115 William Cannon/Circle S"}, {"stop_timezone": "", "parent_station": "", "direction_id": "1", "stop_url": "https://www.capmetro.org/stopdetail/index.php?stop=552", "stop_sequence": "34", "stop_id": "552", "stop_desc": "000601 WILLIAM CANNON & CIRCLE S", "location_type": "", "zone_id": "", "stop_lat": "30.191387", "wheelchair_boarding": "0", "stop_code": "552", "stop_lon": "-97.773530", "route_id": "333", "stop_name": "601 William Cannon/Circle S"}, {"stop_timezone": "", "parent_station": "", "direction_id": "1", "stop_url": "https://www.capmetro.org/stopdetail/index.php?stop=5702", "stop_sequence": "34", "stop_id": "5702", "stop_desc": "008213 PANADERO & ALUM ROCK", "location_type": "", "zone_id": "", "stop_lat": "30.157067", "wheelchair_boarding": "0", "stop_code": "5702", "stop_lon": "-97.743627", "route_id": "333", "stop_name": "8213 Panadero/Alum Rock"}, {"stop_timezone": "", "parent_station": "", "direction_id": "1", "stop_url": "https://www.capmetro.org/stopdetail/index.php?stop=4384", "stop_sequence": "35", "stop_id": "4384", "stop_desc": "000117 WILLIAM CANNON & SKYNOOK", "location_type": "", "zone_id": "", "stop_lat": "30.193479", "wheelchair_boarding": "0", "stop_code": "4384", "stop_lon": "-97.780305", "route_id": "333", "stop_name": "William Cannon/Skynook"}, {"stop_timezone": "", "parent_station": "", "direction_id": "1", "stop_url": "https://www.capmetro.org/stopdetail/index.php?stop=5136", "stop_sequence": "35", "stop_id": "5136", "stop_desc": "006930 MEADOW LAKE & BLUE MEADOW", "location_type": "", "zone_id": "", "stop_lat": "30.178206", "wheelchair_boarding": "0", "stop_code": "5136", "stop_lon": "-97.754762", "route_id": "333", "stop_name": "Meadow Lake/Blue Meadow"}, {"stop_timezone": "", "parent_station": "", "direction_id": "1", "stop_url": "https://www.capmetro.org/stopdetail/index.php?stop=551", "stop_sequence": "35", "stop_id": "551", "stop_desc": "000409 WILLIAM CANNON & CIRCLE S", "location_type": "", "zone_id": "", "stop_lat": "30.192082", "wheelchair_boarding": "0", "stop_code": "551", "stop_lon": "-97.776037", "route_id": "333", "stop_name": "409 William Cannon/Circle S"}, {"stop_timezone": "", "parent_station": "", "direction_id": "1", "stop_url": "https://www.capmetro.org/stopdetail/index.php?stop=5703", "stop_sequence": "35", "stop_id": "5703", "stop_desc": "001626 WILLIAM CANNON & BLUFF SPRINGS", "location_type": "", "zone_id": "", "stop_lat": "30.189223", "wheelchair_boarding": "0", "stop_code": "5703", "stop_lon": "-97.768461", "route_id": "333", "stop_name": "1626 William Cannon/Bluff Springs"}, {"stop_timezone": "", "parent_station": "", "direction_id": "1", "stop_url": "https://www.capmetro.org/stopdetail/index.php?stop=2478", "stop_sequence": "36", "stop_id": "2478", "stop_desc": "001901 BLUE MEADOW & BLUFF SPRINGS", "location_type": "", "zone_id": "", "stop_lat": "30.183426", "wheelchair_boarding": "0", "stop_code": "2478", "stop_lon": "-97.768629", "route_id": "333", "stop_name": "1901 Blue Meadow/Bluff Springs"}, {"stop_timezone": "", "parent_station": "", "direction_id": "1", "stop_url": "https://www.capmetro.org/stopdetail/index.php?stop=2482", "stop_sequence": "36", "stop_id": "2482", "stop_desc": "006805 MEADOW LAKE & BUCKS RUN", "location_type": "", "zone_id": "", "stop_lat": "30.179042", "wheelchair_boarding": "0", "stop_code": "2482", "stop_lon": "-97.753083", "route_id": "333", "stop_name": "6805 Meadow Lake/Bucks Run"}, {"stop_timezone": "", "parent_station": "", "direction_id": "1", "stop_url": "https://www.capmetro.org/stopdetail/index.php?stop=550", "stop_sequence": "36", "stop_id": "550", "stop_desc": "000115 WILLIAM CANNON & CIRCLE S", "location_type": "", "zone_id": "", "stop_lat": "30.192663", "wheelchair_boarding": "0", "stop_code": "550", "stop_lon": "-97.777841", "route_id": "333", "stop_name": "115 William Cannon/Circle S"}, {"stop_timezone": "", "parent_station": "", "direction_id": "1", "stop_url": "https://www.capmetro.org/stopdetail/index.php?stop=552", "stop_sequence": "36", "stop_id": "552", "stop_desc": "000601 WILLIAM CANNON & CIRCLE S", "location_type": "", "zone_id": "", "stop_lat": "30.191387", "wheelchair_boarding": "0", "stop_code": "552", "stop_lon": "-97.773530", "route_id": "333", "stop_name": "601 William Cannon/Circle S"}, {"stop_timezone": "", "parent_station": "", "direction_id": "1", "stop_url": "https://www.capmetro.org/stopdetail/index.php?stop=2483", "stop_sequence": "37", "stop_id": "2483", "stop_desc": "006601 MEADOW LAKE & WILLIAM CANNON", "location_type": "", "zone_id": "", "stop_lat": "30.180708", "wheelchair_boarding": "0", "stop_code": "2483", "stop_lon": "-97.750278", "route_id": "333", "stop_name": "6601 Meadow Lake/William Cannon"}, {"stop_timezone": "", "parent_station": "", "direction_id": "1", "stop_url": "https://www.capmetro.org/stopdetail/index.php?stop=4355", "stop_sequence": "37", "stop_id": "4355", "stop_desc": "002203 BLUE MEADOW & BLUE DAWN", "location_type": "", "zone_id": "", "stop_lat": "30.181535", "wheelchair_boarding": "0", "stop_code": "4355", "stop_lon": "-97.764310", "route_id": "333", "stop_name": "2203 Blue Meadow/Blue Dawn"}, {"stop_timezone": "", "parent_station": "", "direction_id": "1", "stop_url": "https://www.capmetro.org/stopdetail/index.php?stop=551", "stop_sequence": "37", "stop_id": "551", "stop_desc": "000409 WILLIAM CANNON & CIRCLE S", "location_type": "", "zone_id": "", "stop_lat": "30.192082", "wheelchair_boarding": "0", "stop_code": "551", "stop_lon": "-97.776037", "route_id": "333", "stop_name": "409 William Cannon/Circle S"}, {"stop_timezone": "", "parent_station": "", "direction_id": "1", "stop_url": "https://www.capmetro.org/stopdetail/index.php?stop=5703", "stop_sequence": "37", "stop_id": "5703", "stop_desc": "001626 WILLIAM CANNON & BLUFF SPRINGS", "location_type": "", "zone_id": "", "stop_lat": "30.189223", "wheelchair_boarding": "0", "stop_code": "5703", "stop_lon": "-97.768461", "route_id": "333", "stop_name": "1626 William Cannon/Bluff Springs"}, {"stop_timezone": "", "parent_station": "", "direction_id": "1", "stop_url": "https://www.capmetro.org/stopdetail/index.php?stop=2478", "stop_sequence": "38", "stop_id": "2478", "stop_desc": "001901 BLUE MEADOW & BLUFF SPRINGS", "location_type": "", "zone_id": "", "stop_lat": "30.183426", "wheelchair_boarding": "0", "stop_code": "2478", "stop_lon": "-97.768629", "route_id": "333", "stop_name": "1901 Blue Meadow/Bluff Springs"}, {"stop_timezone": "", "parent_station": "", "direction_id": "1", "stop_url": "https://www.capmetro.org/stopdetail/index.php?stop=5121", "stop_sequence": "38", "stop_id": "5121", "stop_desc": "004415 BLUE MEADOW & DEEP", "location_type": "", "zone_id": "", "stop_lat": "30.179440", "wheelchair_boarding": "0", "stop_code": "5121", "stop_lon": "-97.758205", "route_id": "333", "stop_name": "4415 Blue Meadow/Deep"}, {"stop_timezone": "", "parent_station": "", "direction_id": "1", "stop_url": "https://www.capmetro.org/stopdetail/index.php?stop=5398", "stop_sequence": "38", "stop_id": "5398", "stop_desc": "005201 WILLIAM CANNON & PLEASANT VALLEY", "location_type": "", "zone_id": "", "stop_lat": "30.179893", "wheelchair_boarding": "0", "stop_code": "5398", "stop_lon": "-97.747991", "route_id": "333", "stop_name": "5201 William Cannon/Pleasant Valley"}, {"stop_timezone": "", "parent_station": "", "direction_id": "1", "stop_url": "https://www.capmetro.org/stopdetail/index.php?stop=552", "stop_sequence": "38", "stop_id": "552", "stop_desc": "000601 WILLIAM CANNON & CIRCLE S", "location_type": "", "zone_id": "", "stop_lat": "30.191387", "wheelchair_boarding": "0", "stop_code": "552", "stop_lon": "-97.773530", "route_id": "333", "stop_name": "601 William Cannon/Circle S"}, {"stop_timezone": "", "parent_station": "", "direction_id": "1", "stop_url": "https://www.capmetro.org/stopdetail/index.php?stop=4355", "stop_sequence": "39", "stop_id": "4355", "stop_desc": "002203 BLUE MEADOW & BLUE DAWN", "location_type": "", "zone_id": "", "stop_lat": "30.181535", "wheelchair_boarding": "0", "stop_code": "4355", "stop_lon": "-97.764310", "route_id": "333", "stop_name": "2203 Blue Meadow/Blue Dawn"}, {"stop_timezone": "", "parent_station": "", "direction_id": "1", "stop_url": "https://www.capmetro.org/stopdetail/index.php?stop=4357", "stop_sequence": "39", "stop_id": "4357", "stop_desc": "007200 SALT SPRINGS & ORLEANS", "location_type": "", "zone_id": "", "stop_lat": "30.168548", "wheelchair_boarding": "0", "stop_code": "4357", "stop_lon": "-97.739677", "route_id": "333", "stop_name": "7200 Salt Springs/Orleans"}, {"stop_timezone": "", "parent_station": "", "direction_id": "1", "stop_url": "https://www.capmetro.org/stopdetail/index.php?stop=5159", "stop_sequence": "39", "stop_id": "5159", "stop_desc": "004500 BLUE MEADOW & GRANGER", "location_type": "", "zone_id": "", "stop_lat": "30.178217", "wheelchair_boarding": "0", "stop_code": "5159", "stop_lon": "-97.755781", "route_id": "333", "stop_name": "Blue Meadow/Granger"}, {"stop_timezone": "", "parent_station": "", "direction_id": "1", "stop_url": "https://www.capmetro.org/stopdetail/index.php?stop=5703", "stop_sequence": "39", "stop_id": "5703", "stop_desc": "001626 WILLIAM CANNON & BLUFF SPRINGS", "location_type": "", "zone_id": "", "stop_lat": "30.189223", "wheelchair_boarding": "0", "stop_code": "5703", "stop_lon": "-97.768461", "route_id": "333", "stop_name": "1626 William Cannon/Bluff Springs"}, {"stop_timezone": "", "parent_station": "", "direction_id": "1", "stop_url": "https://www.capmetro.org/stopdetail/index.php?stop=3203", "stop_sequence": "4", "stop_id": "3203", "stop_desc": "006301 WILLIAM CANNON & US 290", "location_type": "", "zone_id": "", "stop_lat": "30.232994", "wheelchair_boarding": "0", "stop_code": "3203", "stop_lon": "-97.864575", "route_id": "333", "stop_name": "6301 William Cannon/US 290"}, {"stop_timezone": "", "parent_station": "", "direction_id": "1", "stop_url": "https://www.capmetro.org/stopdetail/index.php?stop=3205", "stop_sequence": "4", "stop_id": "3205", "stop_desc": "006115 CONVICT HILL & OLIVER LOVING", "location_type": "", "zone_id": "", "stop_lat": "30.224964", "wheelchair_boarding": "0", "stop_code": "3205", "stop_lon": "-97.867167", "route_id": "333", "stop_name": "6115 Convict Hill/Oliver Loving"}, {"stop_timezone": "", "parent_station": "", "direction_id": "1", "stop_url": "https://www.capmetro.org/stopdetail/index.php?stop=3207", "stop_sequence": "4", "stop_id": "3207", "stop_desc": "005701 CONVICT HILL & WAGON TRAIN", "location_type": "", "zone_id": "", "stop_lat": "30.222491", "wheelchair_boarding": "0", "stop_code": "3207", "stop_lon": "-97.862056", "route_id": "333", "stop_name": "5701 Convict Hill/Wagon Train"}, {"stop_timezone": "", "parent_station": "", "direction_id": "1", "stop_url": "https://www.capmetro.org/stopdetail/index.php?stop=3212", "stop_sequence": "4", "stop_id": "3212", "stop_desc": "007704 COPANO & COPPERAS", "location_type": "", "zone_id": "", "stop_lat": "30.213341", "wheelchair_boarding": "0", "stop_code": "3212", "stop_lon": "-97.850551", "route_id": "333", "stop_name": "7704 Copano/Copperas"}, {"stop_timezone": "", "parent_station": "", "direction_id": "1", "stop_url": "https://www.capmetro.org/stopdetail/index.php?stop=4436", "stop_sequence": "4", "stop_id": "4436", "stop_desc": "003101 WILLIAM CANNON & RANCH", "location_type": "", "zone_id": "", "stop_lat": "30.209995", "wheelchair_boarding": "0", "stop_code": "4436", "stop_lon": "-97.822172", "route_id": "333", "stop_name": "3101 William Cannon/Ranch"}, {"stop_timezone": "", "parent_station": "", "direction_id": "1", "stop_url": "https://www.capmetro.org/stopdetail/index.php?stop=5121", "stop_sequence": "4", "stop_id": "5121", "stop_desc": "004415 BLUE MEADOW & DEEP", "location_type": "", "zone_id": "", "stop_lat": "30.179440", "wheelchair_boarding": "0", "stop_code": "5121", "stop_lon": "-97.758205", "route_id": "333", "stop_name": "4415 Blue Meadow/Deep"}, {"stop_timezone": "", "parent_station": "", "direction_id": "1", "stop_url": "https://www.capmetro.org/stopdetail/index.php?stop=2478", "stop_sequence": "40", "stop_id": "2478", "stop_desc": "001901 BLUE MEADOW & BLUFF SPRINGS", "location_type": "", "zone_id": "", "stop_lat": "30.183426", "wheelchair_boarding": "0", "stop_code": "2478", "stop_lon": "-97.768629", "route_id": "333", "stop_name": "1901 Blue Meadow/Bluff Springs"}, {"stop_timezone": "", "parent_station": "", "direction_id": "1", "stop_url": "https://www.capmetro.org/stopdetail/index.php?stop=4359", "stop_sequence": "40", "stop_id": "4359", "stop_desc": "007400 SALT SPRINGS & ASA", "location_type": "", "zone_id": "", "stop_lat": "30.165280", "wheelchair_boarding": "0", "stop_code": "4359", "stop_lon": "-97.741884", "route_id": "333", "stop_name": "Salt Springs/Asa"}, {"stop_timezone": "", "parent_station": "", "direction_id": "1", "stop_url": "https://www.capmetro.org/stopdetail/index.php?stop=5121", "stop_sequence": "40", "stop_id": "5121", "stop_desc": "004415 BLUE MEADOW & DEEP", "location_type": "", "zone_id": "", "stop_lat": "30.179440", "wheelchair_boarding": "0", "stop_code": "5121", "stop_lon": "-97.758205", "route_id": "333", "stop_name": "4415 Blue Meadow/Deep"}, {"stop_timezone": "", "parent_station": "", "direction_id": "1", "stop_url": "https://www.capmetro.org/stopdetail/index.php?stop=5136", "stop_sequence": "40", "stop_id": "5136", "stop_desc": "006930 MEADOW LAKE & BLUE MEADOW", "location_type": "", "zone_id": "", "stop_lat": "30.178206", "wheelchair_boarding": "0", "stop_code": "5136", "stop_lon": "-97.754762", "route_id": "333", "stop_name": "Meadow Lake/Blue Meadow"}, {"stop_timezone": "", "parent_station": "", "direction_id": "1", "stop_url": "https://www.capmetro.org/stopdetail/index.php?stop=2482", "stop_sequence": "41", "stop_id": "2482", "stop_desc": "006805 MEADOW LAKE & BUCKS RUN", "location_type": "", "zone_id": "", "stop_lat": "30.179042", "wheelchair_boarding": "0", "stop_code": "2482", "stop_lon": "-97.753083", "route_id": "333", "stop_name": "6805 Meadow Lake/Bucks Run"}, {"stop_timezone": "", "parent_station": "", "direction_id": "1", "stop_url": "https://www.capmetro.org/stopdetail/index.php?stop=3901", "stop_sequence": "41", "stop_id": "3901", "stop_desc": "007615 SALT SPRINGS & TARA", "location_type": "", "zone_id": "", "stop_lat": "30.163611", "wheelchair_boarding": "0", "stop_code": "3901", "stop_lon": "-97.742899", "route_id": "333", "stop_name": "Salt Springs/Tara"}, {"stop_timezone": "", "parent_station": "", "direction_id": "1", "stop_url": "https://www.capmetro.org/stopdetail/index.php?stop=4355", "stop_sequence": "41", "stop_id": "4355", "stop_desc": "002203 BLUE MEADOW & BLUE DAWN", "location_type": "", "zone_id": "", "stop_lat": "30.181535", "wheelchair_boarding": "0", "stop_code": "4355", "stop_lon": "-97.764310", "route_id": "333", "stop_name": "2203 Blue Meadow/Blue Dawn"}, {"stop_timezone": "", "parent_station": "", "direction_id": "1", "stop_url": "https://www.capmetro.org/stopdetail/index.php?stop=5159", "stop_sequence": "41", "stop_id": "5159", "stop_desc": "004500 BLUE MEADOW & GRANGER", "location_type": "", "zone_id": "", "stop_lat": "30.178217", "wheelchair_boarding": "0", "stop_code": "5159", "stop_lon": "-97.755781", "route_id": "333", "stop_name": "Blue Meadow/Granger"}, {"stop_timezone": "", "parent_station": "", "direction_id": "1", "stop_url": "https://www.capmetro.org/stopdetail/index.php?stop=2483", "stop_sequence": "42", "stop_id": "2483", "stop_desc": "006601 MEADOW LAKE & WILLIAM CANNON", "location_type": "", "zone_id": "", "stop_lat": "30.180708", "wheelchair_boarding": "0", "stop_code": "2483", "stop_lon": "-97.750278", "route_id": "333", "stop_name": "6601 Meadow Lake/William Cannon"}, {"stop_timezone": "", "parent_station": "", "direction_id": "1", "stop_url": "https://www.capmetro.org/stopdetail/index.php?stop=5121", "stop_sequence": "42", "stop_id": "5121", "stop_desc": "004415 BLUE MEADOW & DEEP", "location_type": "", "zone_id": "", "stop_lat": "30.179440", "wheelchair_boarding": "0", "stop_code": "5121", "stop_lon": "-97.758205", "route_id": "333", "stop_name": "4415 Blue Meadow/Deep"}, {"stop_timezone": "", "parent_station": "", "direction_id": "1", "stop_url": "https://www.capmetro.org/stopdetail/index.php?stop=5136", "stop_sequence": "42", "stop_id": "5136", "stop_desc": "006930 MEADOW LAKE & BLUE MEADOW", "location_type": "", "zone_id": "", "stop_lat": "30.178206", "wheelchair_boarding": "0", "stop_code": "5136", "stop_lon": "-97.754762", "route_id": "333", "stop_name": "Meadow Lake/Blue Meadow"}, {"stop_timezone": "", "parent_station": "", "direction_id": "1", "stop_url": "https://www.capmetro.org/stopdetail/index.php?stop=5700", "stop_sequence": "42", "stop_id": "5700", "stop_desc": "008022 THAXTON & RUNNING WATER", "location_type": "", "zone_id": "", "stop_lat": "30.157548", "wheelchair_boarding": "0", "stop_code": "5700", "stop_lon": "-97.742243", "route_id": "333", "stop_name": "8022 Thaxton/Running Water"}, {"stop_timezone": "", "parent_station": "", "direction_id": "1", "stop_url": "https://www.capmetro.org/stopdetail/index.php?stop=2482", "stop_sequence": "43", "stop_id": "2482", "stop_desc": "006805 MEADOW LAKE & BUCKS RUN", "location_type": "", "zone_id": "", "stop_lat": "30.179042", "wheelchair_boarding": "0", "stop_code": "2482", "stop_lon": "-97.753083", "route_id": "333", "stop_name": "6805 Meadow Lake/Bucks Run"}, {"stop_timezone": "", "parent_station": "", "direction_id": "1", "stop_url": "https://www.capmetro.org/stopdetail/index.php?stop=5159", "stop_sequence": "43", "stop_id": "5159", "stop_desc": "004500 BLUE MEADOW & GRANGER", "location_type": "", "zone_id": "", "stop_lat": "30.178217", "wheelchair_boarding": "0", "stop_code": "5159", "stop_lon": "-97.755781", "route_id": "333", "stop_name": "Blue Meadow/Granger"}, {"stop_timezone": "", "parent_station": "", "direction_id": "1", "stop_url": "https://www.capmetro.org/stopdetail/index.php?stop=5398", "stop_sequence": "43", "stop_id": "5398", "stop_desc": "005201 WILLIAM CANNON & PLEASANT VALLEY", "location_type": "", "zone_id": "", "stop_lat": "30.179893", "wheelchair_boarding": "0", "stop_code": "5398", "stop_lon": "-97.747991", "route_id": "333", "stop_name": "5201 William Cannon/Pleasant Valley"}, {"stop_timezone": "", "parent_station": "", "direction_id": "1", "stop_url": "https://www.capmetro.org/stopdetail/index.php?stop=5798", "stop_sequence": "43", "stop_id": "5798", "stop_desc": "008208 ALUM ROCK & BROAD BROOK", "location_type": "", "zone_id": "", "stop_lat": "30.154079", "wheelchair_boarding": "0", "stop_code": "5798", "stop_lon": "-97.736716", "route_id": "333", "stop_name": "8208 Alum Rock/Broad Brook"}, {"stop_timezone": "", "parent_station": "", "direction_id": "1", "stop_url": "https://www.capmetro.org/stopdetail/index.php?stop=2483", "stop_sequence": "44", "stop_id": "2483", "stop_desc": "006601 MEADOW LAKE & WILLIAM CANNON", "location_type": "", "zone_id": "", "stop_lat": "30.180708", "wheelchair_boarding": "0", "stop_code": "2483", "stop_lon": "-97.750278", "route_id": "333", "stop_name": "6601 Meadow Lake/William Cannon"}, {"stop_timezone": "", "parent_station": "", "direction_id": "1", "stop_url": "https://www.capmetro.org/stopdetail/index.php?stop=4357", "stop_sequence": "44", "stop_id": "4357", "stop_desc": "007200 SALT SPRINGS & ORLEANS", "location_type": "", "zone_id": "", "stop_lat": "30.168548", "wheelchair_boarding": "0", "stop_code": "4357", "stop_lon": "-97.739677", "route_id": "333", "stop_name": "7200 Salt Springs/Orleans"}, {"stop_timezone": "", "parent_station": "", "direction_id": "1", "stop_url": "https://www.capmetro.org/stopdetail/index.php?stop=5136", "stop_sequence": "44", "stop_id": "5136", "stop_desc": "006930 MEADOW LAKE & BLUE MEADOW", "location_type": "", "zone_id": "", "stop_lat": "30.178206", "wheelchair_boarding": "0", "stop_code": "5136", "stop_lon": "-97.754762", "route_id": "333", "stop_name": "Meadow Lake/Blue Meadow"}, {"stop_timezone": "", "parent_station": "", "direction_id": "1", "stop_url": "https://www.capmetro.org/stopdetail/index.php?stop=5701", "stop_sequence": "44", "stop_id": "5701", "stop_desc": "006501 ALUM ROCK & FALL MEADOW", "location_type": "", "zone_id": "", "stop_lat": "30.155447", "wheelchair_boarding": "0", "stop_code": "5701", "stop_lon": "-97.742240", "route_id": "333", "stop_name": "6501 Alum Rock/Fall Meadow"}, {"stop_timezone": "", "parent_station": "", "direction_id": "1", "stop_url": "https://www.capmetro.org/stopdetail/index.php?stop=2482", "stop_sequence": "45", "stop_id": "2482", "stop_desc": "006805 MEADOW LAKE & BUCKS RUN", "location_type": "", "zone_id": "", "stop_lat": "30.179042", "wheelchair_boarding": "0", "stop_code": "2482", "stop_lon": "-97.753083", "route_id": "333", "stop_name": "6805 Meadow Lake/Bucks Run"}, {"stop_timezone": "", "parent_station": "", "direction_id": "1", "stop_url": "https://www.capmetro.org/stopdetail/index.php?stop=4359", "stop_sequence": "45", "stop_id": "4359", "stop_desc": "007400 SALT SPRINGS & ASA", "location_type": "", "zone_id": "", "stop_lat": "30.165280", "wheelchair_boarding": "0", "stop_code": "4359", "stop_lon": "-97.741884", "route_id": "333", "stop_name": "Salt Springs/Asa"}, {"stop_timezone": "", "parent_station": "", "direction_id": "1", "stop_url": "https://www.capmetro.org/stopdetail/index.php?stop=5398", "stop_sequence": "45", "stop_id": "5398", "stop_desc": "005201 WILLIAM CANNON & PLEASANT VALLEY", "location_type": "", "zone_id": "", "stop_lat": "30.179893", "wheelchair_boarding": "0", "stop_code": "5398", "stop_lon": "-97.747991", "route_id": "333", "stop_name": "5201 William Cannon/Pleasant Valley"}, {"stop_timezone": "", "parent_station": "", "direction_id": "1", "stop_url": "https://www.capmetro.org/stopdetail/index.php?stop=5702", "stop_sequence": "45", "stop_id": "5702", "stop_desc": "008213 PANADERO & ALUM ROCK", "location_type": "", "zone_id": "", "stop_lat": "30.157067", "wheelchair_boarding": "0", "stop_code": "5702", "stop_lon": "-97.743627", "route_id": "333", "stop_name": "8213 Panadero/Alum Rock"}, {"stop_timezone": "", "parent_station": "", "direction_id": "1", "stop_url": "https://www.capmetro.org/stopdetail/index.php?stop=2483", "stop_sequence": "46", "stop_id": "2483", "stop_desc": "006601 MEADOW LAKE & WILLIAM CANNON", "location_type": "", "zone_id": "", "stop_lat": "30.180708", "wheelchair_boarding": "0", "stop_code": "2483", "stop_lon": "-97.750278", "route_id": "333", "stop_name": "6601 Meadow Lake/William Cannon"}, {"stop_timezone": "", "parent_station": "", "direction_id": "1", "stop_url": "https://www.capmetro.org/stopdetail/index.php?stop=3237", "stop_sequence": "46", "stop_id": "3237", "stop_desc": "006800 PLEASANT VALLEY & SAND HILL", "location_type": "", "zone_id": "", "stop_lat": "30.176975", "wheelchair_boarding": "0", "stop_code": "3237", "stop_lon": "-97.748721", "route_id": "333", "stop_name": "6800 Pleasant Valley/Sand Hill"}, {"stop_timezone": "", "parent_station": "", "direction_id": "1", "stop_url": "https://www.capmetro.org/stopdetail/index.php?stop=3901", "stop_sequence": "46", "stop_id": "3901", "stop_desc": "007615 SALT SPRINGS & TARA", "location_type": "", "zone_id": "", "stop_lat": "30.163611", "wheelchair_boarding": "0", "stop_code": "3901", "stop_lon": "-97.742899", "route_id": "333", "stop_name": "Salt Springs/Tara"}, {"stop_timezone": "", "parent_station": "", "direction_id": "1", "stop_url": "https://www.capmetro.org/stopdetail/index.php?stop=4357", "stop_sequence": "46", "stop_id": "4357", "stop_desc": "007200 SALT SPRINGS & ORLEANS", "location_type": "", "zone_id": "", "stop_lat": "30.168548", "wheelchair_boarding": "0", "stop_code": "4357", "stop_lon": "-97.739677", "route_id": "333", "stop_name": "7200 Salt Springs/Orleans"}, {"stop_timezone": "", "parent_station": "", "direction_id": "1", "stop_url": "https://www.capmetro.org/stopdetail/index.php?stop=3673", "stop_sequence": "47", "stop_id": "3673", "stop_desc": "007106 PLEASANT VALLEY & SPRINGVILLE", "location_type": "", "zone_id": "", "stop_lat": "30.173491", "wheelchair_boarding": "0", "stop_code": "3673", "stop_lon": "-97.751556", "route_id": "333", "stop_name": "7106 Pleasant Valley/Springville"}, {"stop_timezone": "", "parent_station": "", "direction_id": "1", "stop_url": "https://www.capmetro.org/stopdetail/index.php?stop=4359", "stop_sequence": "47", "stop_id": "4359", "stop_desc": "007400 SALT SPRINGS & ASA", "location_type": "", "zone_id": "", "stop_lat": "30.165280", "wheelchair_boarding": "0", "stop_code": "4359", "stop_lon": "-97.741884", "route_id": "333", "stop_name": "Salt Springs/Asa"}, {"stop_timezone": "", "parent_station": "", "direction_id": "1", "stop_url": "https://www.capmetro.org/stopdetail/index.php?stop=5398", "stop_sequence": "47", "stop_id": "5398", "stop_desc": "005201 WILLIAM CANNON & PLEASANT VALLEY", "location_type": "", "zone_id": "", "stop_lat": "30.179893", "wheelchair_boarding": "0", "stop_code": "5398", "stop_lon": "-97.747991", "route_id": "333", "stop_name": "5201 William Cannon/Pleasant Valley"}, {"stop_timezone": "", "parent_station": "", "direction_id": "1", "stop_url": "https://www.capmetro.org/stopdetail/index.php?stop=5700", "stop_sequence": "47", "stop_id": "5700", "stop_desc": "008022 THAXTON & RUNNING WATER", "location_type": "", "zone_id": "", "stop_lat": "30.157548", "wheelchair_boarding": "0", "stop_code": "5700", "stop_lon": "-97.742243", "route_id": "333", "stop_name": "8022 Thaxton/Running Water"}, {"stop_timezone": "", "parent_station": "", "direction_id": "1", "stop_url": "https://www.capmetro.org/stopdetail/index.php?stop=3161", "stop_sequence": "48", "stop_id": "3161", "stop_desc": "007455 ONION CREEK & PLEASANT VALLEY", "location_type": "", "zone_id": "", "stop_lat": "30.170484", "wheelchair_boarding": "0", "stop_code": "3161", "stop_lon": "-97.752802", "route_id": "333", "stop_name": "7455 Onion Creek/Pleasant Valley"}, {"stop_timezone": "", "parent_station": "", "direction_id": "1", "stop_url": "https://www.capmetro.org/stopdetail/index.php?stop=3237", "stop_sequence": "48", "stop_id": "3237", "stop_desc": "006800 PLEASANT VALLEY & SAND HILL", "location_type": "", "zone_id": "", "stop_lat": "30.176975", "wheelchair_boarding": "0", "stop_code": "3237", "stop_lon": "-97.748721", "route_id": "333", "stop_name": "6800 Pleasant Valley/Sand Hill"}, {"stop_timezone": "", "parent_station": "", "direction_id": "1", "stop_url": "https://www.capmetro.org/stopdetail/index.php?stop=3901", "stop_sequence": "48", "stop_id": "3901", "stop_desc": "007615 SALT SPRINGS & TARA", "location_type": "", "zone_id": "", "stop_lat": "30.163611", "wheelchair_boarding": "0", "stop_code": "3901", "stop_lon": "-97.742899", "route_id": "333", "stop_name": "Salt Springs/Tara"}, {"stop_timezone": "", "parent_station": "", "direction_id": "1", "stop_url": "https://www.capmetro.org/stopdetail/index.php?stop=4357", "stop_sequence": "48", "stop_id": "4357", "stop_desc": "007200 SALT SPRINGS & ORLEANS", "location_type": "", "zone_id": "", "stop_lat": "30.168548", "wheelchair_boarding": "0", "stop_code": "4357", "stop_lon": "-97.739677", "route_id": "333", "stop_name": "7200 Salt Springs/Orleans"}, {"stop_timezone": "", "parent_station": "", "direction_id": "1", "stop_url": "https://www.capmetro.org/stopdetail/index.php?stop=5798", "stop_sequence": "48", "stop_id": "5798", "stop_desc": "008208 ALUM ROCK & BROAD BROOK", "location_type": "", "zone_id": "", "stop_lat": "30.154079", "wheelchair_boarding": "0", "stop_code": "5798", "stop_lon": "-97.736716", "route_id": "333", "stop_name": "8208 Alum Rock/Broad Brook"}, {"stop_timezone": "", "parent_station": "", "direction_id": "1", "stop_url": "https://www.capmetro.org/stopdetail/index.php?stop=3164", "stop_sequence": "49", "stop_id": "3164", "stop_desc": "007105 PLEASANT VALLEY & SPRINGVILLE", "location_type": "", "zone_id": "", "stop_lat": "30.173817", "wheelchair_boarding": "0", "stop_code": "3164", "stop_lon": "-97.751071", "route_id": "333", "stop_name": "7105 Pleasant Valley/Springville"}, {"stop_timezone": "", "parent_station": "", "direction_id": "1", "stop_url": "https://www.capmetro.org/stopdetail/index.php?stop=3673", "stop_sequence": "49", "stop_id": "3673", "stop_desc": "007106 PLEASANT VALLEY & SPRINGVILLE", "location_type": "", "zone_id": "", "stop_lat": "30.173491", "wheelchair_boarding": "0", "stop_code": "3673", "stop_lon": "-97.751556", "route_id": "333", "stop_name": "7106 Pleasant Valley/Springville"}, {"stop_timezone": "", "parent_station": "", "direction_id": "1", "stop_url": "https://www.capmetro.org/stopdetail/index.php?stop=4359", "stop_sequence": "49", "stop_id": "4359", "stop_desc": "007400 SALT SPRINGS & ASA", "location_type": "", "zone_id": "", "stop_lat": "30.165280", "wheelchair_boarding": "0", "stop_code": "4359", "stop_lon": "-97.741884", "route_id": "333", "stop_name": "Salt Springs/Asa"}, {"stop_timezone": "", "parent_station": "", "direction_id": "1", "stop_url": "https://www.capmetro.org/stopdetail/index.php?stop=5700", "stop_sequence": "49", "stop_id": "5700", "stop_desc": "008022 THAXTON & RUNNING WATER", "location_type": "", "zone_id": "", "stop_lat": "30.157548", "wheelchair_boarding": "0", "stop_code": "5700", "stop_lon": "-97.742243", "route_id": "333", "stop_name": "8022 Thaxton/Running Water"}, {"stop_timezone": "", "parent_station": "", "direction_id": "1", "stop_url": "https://www.capmetro.org/stopdetail/index.php?stop=5701", "stop_sequence": "49", "stop_id": "5701", "stop_desc": "006501 ALUM ROCK & FALL MEADOW", "location_type": "", "zone_id": "", "stop_lat": "30.155447", "wheelchair_boarding": "0", "stop_code": "5701", "stop_lon": "-97.742240", "route_id": "333", "stop_name": "6501 Alum Rock/Fall Meadow"}, {"stop_timezone": "", "parent_station": "", "direction_id": "1", "stop_url": "https://www.capmetro.org/stopdetail/index.php?stop=3204", "stop_sequence": "5", "stop_id": "3204", "stop_desc": "007000 ESCARPMENT & KENOSHA", "location_type": "", "zone_id": "", "stop_lat": "30.229281", "wheelchair_boarding": "0", "stop_code": "3204", "stop_lon": "-97.866266", "route_id": "333", "stop_name": "Escarpment/Kenosha"}, {"stop_timezone": "", "parent_station": "", "direction_id": "1", "stop_url": "https://www.capmetro.org/stopdetail/index.php?stop=3206", "stop_sequence": "5", "stop_id": "3206", "stop_desc": "005801 CONVICT HILL & CANNON MOUNTAIN", "location_type": "", "zone_id": "", "stop_lat": "30.223318", "wheelchair_boarding": "0", "stop_code": "3206", "stop_lon": "-97.863788", "route_id": "333", "stop_name": "5801 Convict Hill/Cannon Mountain"}, {"stop_timezone": "", "parent_station": "", "direction_id": "1", "stop_url": "https://www.capmetro.org/stopdetail/index.php?stop=3208", "stop_sequence": "5", "stop_id": "3208", "stop_desc": "005401 CONVICT HILL & BECKETT", "location_type": "", "zone_id": "", "stop_lat": "30.220475", "wheelchair_boarding": "0", "stop_code": "3208", "stop_lon": "-97.857980", "route_id": "333", "stop_name": "5401 Convict Hill/Beckett"}, {"stop_timezone": "", "parent_station": "", "direction_id": "1", "stop_url": "https://www.capmetro.org/stopdetail/index.php?stop=3213", "stop_sequence": "5", "stop_id": "3213", "stop_desc": "007814 COPANO & SARASOTA", "location_type": "", "zone_id": "", "stop_lat": "30.210949", "wheelchair_boarding": "0", "stop_code": "3213", "stop_lon": "-97.849580", "route_id": "333", "stop_name": "7814 Copano/Sarasota"}, {"stop_timezone": "", "parent_station": "", "direction_id": "1", "stop_url": "https://www.capmetro.org/stopdetail/index.php?stop=4428", "stop_sequence": "5", "stop_id": "4428", "stop_desc": "002809 WILLIAM CANNON & DEATON HILL", "location_type": "", "zone_id": "", "stop_lat": "30.207901", "wheelchair_boarding": "0", "stop_code": "4428", "stop_lon": "-97.817777", "route_id": "333", "stop_name": "William Cannon/Deaton Hill"}, {"stop_timezone": "", "parent_station": "", "direction_id": "1", "stop_url": "https://www.capmetro.org/stopdetail/index.php?stop=5159", "stop_sequence": "5", "stop_id": "5159", "stop_desc": "004500 BLUE MEADOW & GRANGER", "location_type": "", "zone_id": "", "stop_lat": "30.178217", "wheelchair_boarding": "0", "stop_code": "5159", "stop_lon": "-97.755781", "route_id": "333", "stop_name": "Blue Meadow/Granger"}, {"stop_timezone": "", "parent_station": "", "direction_id": "1", "stop_url": "https://www.capmetro.org/stopdetail/index.php?stop=3161", "stop_sequence": "50", "stop_id": "3161", "stop_desc": "007455 ONION CREEK & PLEASANT VALLEY", "location_type": "", "zone_id": "", "stop_lat": "30.170484", "wheelchair_boarding": "0", "stop_code": "3161", "stop_lon": "-97.752802", "route_id": "333", "stop_name": "7455 Onion Creek/Pleasant Valley"}, {"stop_timezone": "", "parent_station": "", "direction_id": "1", "stop_url": "https://www.capmetro.org/stopdetail/index.php?stop=3165", "stop_sequence": "50", "stop_id": "3165", "stop_desc": "006803 PLEASANT VALLEY & SAND HILL", "location_type": "", "zone_id": "", "stop_lat": "30.176846", "wheelchair_boarding": "0", "stop_code": "3165", "stop_lon": "-97.748540", "route_id": "333", "stop_name": "6803 Pleasant Valley/Sand Hill"}, {"stop_timezone": "", "parent_station": "", "direction_id": "1", "stop_url": "https://www.capmetro.org/stopdetail/index.php?stop=3901", "stop_sequence": "50", "stop_id": "3901", "stop_desc": "007615 SALT SPRINGS & TARA", "location_type": "", "zone_id": "", "stop_lat": "30.163611", "wheelchair_boarding": "0", "stop_code": "3901", "stop_lon": "-97.742899", "route_id": "333", "stop_name": "Salt Springs/Tara"}, {"stop_timezone": "", "parent_station": "", "direction_id": "1", "stop_url": "https://www.capmetro.org/stopdetail/index.php?stop=5702", "stop_sequence": "50", "stop_id": "5702", "stop_desc": "008213 PANADERO & ALUM ROCK", "location_type": "", "zone_id": "", "stop_lat": "30.157067", "wheelchair_boarding": "0", "stop_code": "5702", "stop_lon": "-97.743627", "route_id": "333", "stop_name": "8213 Panadero/Alum Rock"}, {"stop_timezone": "", "parent_station": "", "direction_id": "1", "stop_url": "https://www.capmetro.org/stopdetail/index.php?stop=5798", "stop_sequence": "50", "stop_id": "5798", "stop_desc": "008208 ALUM ROCK & BROAD BROOK", "location_type": "", "zone_id": "", "stop_lat": "30.154079", "wheelchair_boarding": "0", "stop_code": "5798", "stop_lon": "-97.736716", "route_id": "333", "stop_name": "8208 Alum Rock/Broad Brook"}, {"stop_timezone": "", "parent_station": "", "direction_id": "1", "stop_url": "https://www.capmetro.org/stopdetail/index.php?stop=3164", "stop_sequence": "51", "stop_id": "3164", "stop_desc": "007105 PLEASANT VALLEY & SPRINGVILLE", "location_type": "", "zone_id": "", "stop_lat": "30.173817", "wheelchair_boarding": "0", "stop_code": "3164", "stop_lon": "-97.751071", "route_id": "333", "stop_name": "7105 Pleasant Valley/Springville"}, {"stop_timezone": "", "parent_station": "", "direction_id": "1", "stop_url": "https://www.capmetro.org/stopdetail/index.php?stop=5399", "stop_sequence": "51", "stop_id": "5399", "stop_desc": "006607 PLEASANT VALLEY & WILLIAM CANNON", "location_type": "", "zone_id": "", "stop_lat": "30.178937", "wheelchair_boarding": "0", "stop_code": "5399", "stop_lon": "-97.746926", "route_id": "333", "stop_name": "Pleasant Valley/William Cannon"}, {"stop_timezone": "", "parent_station": "", "direction_id": "1", "stop_url": "https://www.capmetro.org/stopdetail/index.php?stop=5700", "stop_sequence": "51", "stop_id": "5700", "stop_desc": "008022 THAXTON & RUNNING WATER", "location_type": "", "zone_id": "", "stop_lat": "30.157548", "wheelchair_boarding": "0", "stop_code": "5700", "stop_lon": "-97.742243", "route_id": "333", "stop_name": "8022 Thaxton/Running Water"}, {"stop_timezone": "", "parent_station": "", "direction_id": "1", "stop_url": "https://www.capmetro.org/stopdetail/index.php?stop=5701", "stop_sequence": "51", "stop_id": "5701", "stop_desc": "006501 ALUM ROCK & FALL MEADOW", "location_type": "", "zone_id": "", "stop_lat": "30.155447", "wheelchair_boarding": "0", "stop_code": "5701", "stop_lon": "-97.742240", "route_id": "333", "stop_name": "6501 Alum Rock/Fall Meadow"}, {"stop_timezone": "", "parent_station": "", "direction_id": "1", "stop_url": "https://www.capmetro.org/stopdetail/index.php?stop=3165", "stop_sequence": "52", "stop_id": "3165", "stop_desc": "006803 PLEASANT VALLEY & SAND HILL", "location_type": "", "zone_id": "", "stop_lat": "30.176846", "wheelchair_boarding": "0", "stop_code": "3165", "stop_lon": "-97.748540", "route_id": "333", "stop_name": "6803 Pleasant Valley/Sand Hill"}, {"stop_timezone": "", "parent_station": "", "direction_id": "1", "stop_url": "https://www.capmetro.org/stopdetail/index.php?stop=4357", "stop_sequence": "52", "stop_id": "4357", "stop_desc": "007200 SALT SPRINGS & ORLEANS", "location_type": "", "zone_id": "", "stop_lat": "30.168548", "wheelchair_boarding": "0", "stop_code": "4357", "stop_lon": "-97.739677", "route_id": "333", "stop_name": "7200 Salt Springs/Orleans"}, {"stop_timezone": "", "parent_station": "", "direction_id": "1", "stop_url": "https://www.capmetro.org/stopdetail/index.php?stop=5702", "stop_sequence": "52", "stop_id": "5702", "stop_desc": "008213 PANADERO & ALUM ROCK", "location_type": "", "zone_id": "", "stop_lat": "30.157067", "wheelchair_boarding": "0", "stop_code": "5702", "stop_lon": "-97.743627", "route_id": "333", "stop_name": "8213 Panadero/Alum Rock"}, {"stop_timezone": "", "parent_station": "", "direction_id": "1", "stop_url": "https://www.capmetro.org/stopdetail/index.php?stop=5798", "stop_sequence": "52", "stop_id": "5798", "stop_desc": "008208 ALUM ROCK & BROAD BROOK", "location_type": "", "zone_id": "", "stop_lat": "30.154079", "wheelchair_boarding": "0", "stop_code": "5798", "stop_lon": "-97.736716", "route_id": "333", "stop_name": "8208 Alum Rock/Broad Brook"}, {"stop_timezone": "", "parent_station": "", "direction_id": "1", "stop_url": "https://www.capmetro.org/stopdetail/index.php?stop=4359", "stop_sequence": "53", "stop_id": "4359", "stop_desc": "007400 SALT SPRINGS & ASA", "location_type": "", "zone_id": "", "stop_lat": "30.165280", "wheelchair_boarding": "0", "stop_code": "4359", "stop_lon": "-97.741884", "route_id": "333", "stop_name": "Salt Springs/Asa"}, {"stop_timezone": "", "parent_station": "", "direction_id": "1", "stop_url": "https://www.capmetro.org/stopdetail/index.php?stop=5399", "stop_sequence": "53", "stop_id": "5399", "stop_desc": "006607 PLEASANT VALLEY & WILLIAM CANNON", "location_type": "", "zone_id": "", "stop_lat": "30.178937", "wheelchair_boarding": "0", "stop_code": "5399", "stop_lon": "-97.746926", "route_id": "333", "stop_name": "Pleasant Valley/William Cannon"}, {"stop_timezone": "", "parent_station": "", "direction_id": "1", "stop_url": "https://www.capmetro.org/stopdetail/index.php?stop=5701", "stop_sequence": "53", "stop_id": "5701", "stop_desc": "006501 ALUM ROCK & FALL MEADOW", "location_type": "", "zone_id": "", "stop_lat": "30.155447", "wheelchair_boarding": "0", "stop_code": "5701", "stop_lon": "-97.742240", "route_id": "333", "stop_name": "6501 Alum Rock/Fall Meadow"}, {"stop_timezone": "", "parent_station": "", "direction_id": "1", "stop_url": "https://www.capmetro.org/stopdetail/index.php?stop=3901", "stop_sequence": "54", "stop_id": "3901", "stop_desc": "007615 SALT SPRINGS & TARA", "location_type": "", "zone_id": "", "stop_lat": "30.163611", "wheelchair_boarding": "0", "stop_code": "3901", "stop_lon": "-97.742899", "route_id": "333", "stop_name": "Salt Springs/Tara"}, {"stop_timezone": "", "parent_station": "", "direction_id": "1", "stop_url": "https://www.capmetro.org/stopdetail/index.php?stop=4357", "stop_sequence": "54", "stop_id": "4357", "stop_desc": "007200 SALT SPRINGS & ORLEANS", "location_type": "", "zone_id": "", "stop_lat": "30.168548", "wheelchair_boarding": "0", "stop_code": "4357", "stop_lon": "-97.739677", "route_id": "333", "stop_name": "7200 Salt Springs/Orleans"}, {"stop_timezone": "", "parent_station": "", "direction_id": "1", "stop_url": "https://www.capmetro.org/stopdetail/index.php?stop=5702", "stop_sequence": "54", "stop_id": "5702", "stop_desc": "008213 PANADERO & ALUM ROCK", "location_type": "", "zone_id": "", "stop_lat": "30.157067", "wheelchair_boarding": "0", "stop_code": "5702", "stop_lon": "-97.743627", "route_id": "333", "stop_name": "8213 Panadero/Alum Rock"},