[{"stop_timezone": "", "parent_station": "", "direction_id": "1", "stop_url": "https://www.capmetro.org/stopdetail/index.php?stop=2079", "stop_sequence": "1", "stop_id": "2079", "stop_desc": "000200 DEAN KEETON & SPEEDWAY", "location_type": "", "zone_id": "", "stop_lat": "30.289563", "wheelchair_boarding": "0", "stop_code": "2079", "stop_lon": "-97.736629", "route_id": "980", "stop_name": "Dean Keeton/Speedway NE Corner"}, {"stop_timezone": "", "parent_station": "", "direction_id": "1", "stop_url": "https://www.capmetro.org/stopdetail/index.php?stop=6094", "stop_sequence": "10", "stop_id": "6094", "stop_desc": "000000 BAGDAD & BROWN", "location_type": "", "zone_id": "", "stop_lat": "30.507342", "wheelchair_boarding": "0", "stop_code": "6094", "stop_lon": "-97.680964", "route_id": "980", "stop_name": "Bagdad/Brown"}, {"stop_timezone": "", "parent_station": "", "direction_id": "1", "stop_url": "https://www.capmetro.org/stopdetail/index.php?stop=497", "stop_sequence": "2", "stop_id": "497", "stop_desc": "002246 GUADALUPE & 23RD", "location_type": "", "zone_id": "", "stop_lat": "30.286064", "wheelchair_boarding": "0", "stop_code": "497", "stop_lon": "-97.741815", "route_id": "980", "stop_name": "UT West Mall Station (SB)"}, {"stop_timezone": "", "parent_station": "", "direction_id": "1", "stop_url": "https://www.capmetro.org/stopdetail/index.php?stop=498", "stop_sequence": "3", "stop_id": "498", "stop_desc": "002026 GUADALUPE & 21ST", "location_type": "", "zone_id": "", "stop_lat": "30.283384", "wheelchair_boarding": "0", "stop_code": "498", "stop_lon": "-97.742081", "route_id": "980", "stop_name": "Guadalupe/W. 21st Street"}, {"stop_timezone": "", "parent_station": "", "direction_id": "1", "stop_url": "https://www.capmetro.org/stopdetail/index.php?stop=501", "stop_sequence": "4", "stop_id": "501", "stop_desc": "001600 GUADALUPE & 16TH", "location_type": "", "zone_id": "", "stop_lat": "30.278962", "wheelchair_boarding": "0", "stop_code": "501", "stop_lon": "-97.742708", "route_id": "980", "stop_name": "Guadalupe/16th Street"}, {"stop_timezone": "", "parent_station": "", "direction_id": "1", "stop_url": "https://www.capmetro.org/stopdetail/index.php?stop=2738", "stop_sequence": "5", "stop_id": "2738", "stop_desc": "001200 GUADALUPE & 12TH", "location_type": "", "zone_id": "", "stop_lat": "30.275022", "wheelchair_boarding": "0", "stop_code": "2738", "stop_lon": "-97.744169", "route_id": "980", "stop_name": "Capitol Station (SB)"}, {"stop_timezone": "", "parent_station": "", "direction_id": "1", "stop_url": "https://www.capmetro.org/stopdetail/index.php?stop=5950", "stop_sequence": "6", "stop_id": "5950", "stop_desc": "000000 GUADALUPE & 8TH", "location_type": "", "zone_id": "", "stop_lat": "30.271503", "wheelchair_boarding": "0", "stop_code": "5950", "stop_lon": "-97.745478", "route_id": "980", "stop_name": "Guadalupe/8th"}, {"stop_timezone": "", "parent_station": "", "direction_id": "1", "stop_url": "https://www.capmetro.org/stopdetail/index.php?stop=2612", "stop_sequence": "7", "stop_id": "2612", "stop_desc": "000500 GUADALUPE & 5TH", "location_type": "", "zone_id": "", "stop_lat": "30.268253", "wheelchair_boarding": "0", "stop_code": "2612", "stop_lon": "-97.746690", "route_id": "980", "stop_name": "500 Guadalupe/5th"}, {"stop_timezone": "", "parent_station": "", "direction_id": "1", "stop_url": "https://www.capmetro.org/stopdetail/index.php?stop=716", "stop_sequence": "8", "stop_id": "716", "stop_desc": "000800 CESAR CHAVEZ & WEST", "location_type": "", "zone_id": "", "stop_lat": "30.265741", "wheelchair_boarding": "0", "stop_code": "716", "stop_lon": "-97.752406", "route_id": "980", "stop_name": "800 Cesar Chavez/West"}, {"stop_timezone": "", "parent_station": "", "direction_id": "1", "stop_url": "https://www.capmetro.org/stopdetail/index.php?stop=6095", "stop_sequence": "9", "stop_id": "6095", "stop_desc": "000000 Century Park & Ida Ridge", "location_type": "", "zone_id": "", "stop_lat": "30.435217", "wheelchair_boarding": "0", "stop_code": "6095", "stop_lon": "-97.697402", "route_id": "980", "stop_name": "1 Century Park/Ida Ridge"}]
