[{"stop_lat": 30.249906, "stop_timezone": null, "wheelchair_boarding": 0, "stop_code": "1246", "direction_id": 1, "stop_lon": -97.738594, "parent_station": null, "route_id": "985", "stop_url": "http://www.capmetro.org/gismaps/stops/1246.html", "stop_sequence": 1, "stop_id": "1246", "stop_desc": "Northeast corner of RIVERSIDE and TRAVIS HEIGHTS - Nearside", "stop_name": "1000 EAST RIVERSIDE/TRAVIS HEIGHTS", "location_type": null, "platform_code": null, "zone_id": null}, {"stop_lat": 30.253005, "stop_timezone": null, "wheelchair_boarding": 0, "stop_code": "4024", "direction_id": 1, "stop_lon": -97.742945, "parent_station": null, "route_id": "985", "stop_url": "http://www.capmetro.org/gismaps/stops/4024.html", "stop_sequence": 2, "stop_id": "4024", "stop_desc": "Northeast corner of RIVERSIDE and NEWNING - Mid-Block", "stop_name": "504 RIVERSIDE/NEWNING", "location_type": null, "platform_code": null, "zone_id": null}, {"stop_lat": 30.255868, "stop_timezone": null, "wheelchair_boarding": 0, "stop_code": "1249", "direction_id": 1, "stop_lon": -97.74546, "parent_station": null, "route_id": "985", "stop_url": "http://www.capmetro.org/gismaps/stops/1249.html", "stop_sequence": 3, "stop_id": "1249", "stop_desc": "Northwest corner of RIVERSIDE and NEWNING - Mid-Block", "stop_name": "150 RIVERSIDE/NEWNING", "location_type": null, "platform_code": null, "zone_id": null}, {"stop_lat": 30.258306, "stop_timezone": null, "wheelchair_boarding": 0, "stop_code": "5942", "direction_id": 1, "stop_lon": -97.747938, "parent_station": null, "route_id": "985", "stop_url": "http://www.capmetro.org/gismaps/stops/5942.html", "stop_sequence": 4, "stop_id": "5942", "stop_desc": "Northeast corner of RIVERSIDE and BARTON SPRINGS - Mid-Block", "stop_name": "210 RIVERSIDE/BARTON SPRINGS", "location_type": null, "platform_code": null, "zone_id": null}, {"stop_lat": 30.265792, "stop_timezone": null, "wheelchair_boarding": 0, "stop_code": "5944", "direction_id": 1, "stop_lon": -97.746213, "parent_station": null, "route_id": "985", "stop_url": "http://www.capmetro.org/gismaps/stops/5944.html", "stop_sequence": 5, "stop_id": "5944", "stop_desc": "Southeast corner of LAVACA and 3RD - Nearside", "stop_name": "LAVACA/3RD", "location_type": null, "platform_code": null, "zone_id": null}, {"stop_lat": 30.268613, "stop_timezone": null, "wheelchair_boarding": 0, "stop_code": "2605", "direction_id": 1, "stop_lon": -97.745114, "parent_station": null, "route_id": "985", "stop_url": "http://www.capmetro.org/gismaps/stops/2605.html", "stop_sequence": 6, "stop_id": "2605", "stop_desc": "Southeast corner of LAVACA and 6TH - Nearside", "stop_name": "517 LAVACA/6TH", "location_type": null, "platform_code": null, "zone_id": null}, {"stop_lat": 30.271378, "stop_timezone": null, "wheelchair_boarding": 0, "stop_code": "4007", "direction_id": 1, "stop_lon": -97.744115, "parent_station": null, "route_id": "985", "stop_url": "http://www.capmetro.org/gismaps/stops/4007.html", "stop_sequence": 7, "stop_id": "4007", "stop_desc": "Southeast corner of LAVACA and 9TH - Nearside", "stop_name": "LAVACA/9TH", "location_type": null, "platform_code": null, "zone_id": null}, {"stop_lat": 30.274408, "stop_timezone": null, "wheelchair_boarding": 0, "stop_code": "590", "direction_id": 1, "stop_lon": -97.742995, "parent_station": null, "route_id": "985", "stop_url": "http://www.capmetro.org/gismaps/stops/590.html", "stop_sequence": 8, "stop_id": "590", "stop_desc": "Southeast corner of LAVACA and 12TH - Nearside", "stop_name": "LAVACA/12TH", "location_type": null, "platform_code": null, "zone_id": null}, {"stop_lat": 30.277383, "stop_timezone": null, "wheelchair_boarding": 1, "stop_code": "593", "direction_id": 1, "stop_lon": -97.741894, "parent_station": null, "route_id": "985", "stop_url": "http://www.capmetro.org/gismaps/stops/593.html", "stop_sequence": 9, "stop_id": "593", "stop_desc": "Southeast corner of LAVACA and 15TH - Nearside", "stop_name": "LAVACA/15TH", "location_type": null, "platform_code": null, "zone_id": null}, {"stop_lat": 30.278834, "stop_timezone": null, "wheelchair_boarding": 0, "stop_code": "5940", "direction_id": 1, "stop_lon": -97.741358, "parent_station": null, "route_id": "985", "stop_url": "http://www.capmetro.org/gismaps/stops/5940.html", "stop_sequence": 10, "stop_id": "5940", "stop_desc": "Southeast corner of LAVACA and 17TH - Mid-Block", "stop_name": "1609 LAVACA/17TH (MB)", "location_type": null, "platform_code": null, "zone_id": null}, {"stop_lat": 30.27991, "stop_timezone": null, "wheelchair_boarding": 0, "stop_code": "2522", "direction_id": 1, "stop_lon": -97.735956, "parent_station": null, "route_id": "985", "stop_url": "http://www.capmetro.org/gismaps/stops/2522.html", "stop_sequence": 11, "stop_id": "2522", "stop_desc": "Southwest corner of MARTIN LUTHER KING and SAN JACINTO - Nearside", "stop_name": "311 MARTIN LUTHER KING/SAN JACINTO", "location_type": null, "platform_code": null, "zone_id": null}, {"stop_lat": 30.279262, "stop_timezone": null, "wheelchair_boarding": 0, "stop_code": "2768", "direction_id": 1, "stop_lon": -97.733535, "parent_station": null, "route_id": "985", "stop_url": "http://www.capmetro.org/gismaps/stops/2768.html", "stop_sequence": 12, "stop_id": "2768", "stop_desc": "Southeast corner of MARTIN LUTHER KING and TRINITY - Mid-Block", "stop_name": "MARTIN LUTHER KING/TRINITY MIDBLOCK", "location_type": null, "platform_code": null, "zone_id": null}, {"stop_lat": 30.480719, "stop_timezone": null, "wheelchair_boarding": 0, "stop_code": "5230", "direction_id": 1, "stop_lon": -97.786775, "parent_station": null, "route_id": "985", "stop_url": "http://www.capmetro.org/gismaps/stops/5230.html", "stop_sequence": 13, "stop_id": "5230", "stop_desc": "Southwest corner of LYNDHURST and LAKELINE - Mid-Block", "stop_name": "LAKELINE STATION BAY G", "location_type": null, "platform_code": null, "zone_id": null}]
