[{"stop_lat": 30.283973, "stop_timezone": null, "wheelchair_boarding": 1, "stop_code": "5007", "direction_id": 0, "stop_lon": -97.671344, "parent_station": null, "route_id": "323", "stop_url": "http://www.capmetro.org/gismaps/stops/5007.html", "stop_sequence": 1, "stop_id": "5007", "stop_desc": "Southeast corner of TANNEHILL and WEBBERVILLE - Mid-Block", "stop_name": "TANNEHILL/WEBBERVILLE", "location_type": null, "platform_code": null, "zone_id": null}, {"stop_lat": 30.286011, "stop_timezone": null, "wheelchair_boarding": 0, "stop_code": "5643", "direction_id": 0, "stop_lon": -97.669518, "parent_station": null, "route_id": "323", "stop_url": "http://www.capmetro.org/gismaps/stops/5643.html", "stop_sequence": 2, "stop_id": "5643", "stop_desc": "Southeast corner of TANNEHILL and MARTIN LUTHER KING - Nearside", "stop_name": "TANNEHILL/MARTIN LUTHER KING", "location_type": null, "platform_code": null, "zone_id": null}, {"stop_lat": 30.28495, "stop_timezone": null, "wheelchair_boarding": 0, "stop_code": "4931", "direction_id": 0, "stop_lon": -97.661671, "parent_station": null, "route_id": "323", "stop_url": "http://www.capmetro.org/gismaps/stops/4931.html", "stop_sequence": 3, "stop_id": "4931", "stop_desc": "Southeast corner of FM 969 and REGENCY - Farside", "stop_name": "6311 FM 969/REGENCY", "location_type": null, "platform_code": null, "zone_id": null}, {"stop_lat": 30.284631, "stop_timezone": null, "wheelchair_boarding": 0, "stop_code": "5914", "direction_id": 0, "stop_lon": -97.660034, "parent_station": null, "route_id": "323", "stop_url": "http://www.capmetro.org/gismaps/stops/5914.html", "stop_sequence": 4, "stop_id": "5914", "stop_desc": "Southwest corner of FM 969 and CRAIGWOOD - Nearside", "stop_name": "6401 FM 969/CRAIGWOOD", "location_type": null, "platform_code": null, "zone_id": null}, {"stop_lat": 30.284284, "stop_timezone": null, "wheelchair_boarding": 0, "stop_code": "4932", "direction_id": 0, "stop_lon": -97.659972, "parent_station": null, "route_id": "323", "stop_url": "http://www.capmetro.org/gismaps/stops/4932.html", "stop_sequence": 5, "stop_id": "4932", "stop_desc": "Southwest corner of CRAIGWOOD and FM 969 - Farside", "stop_name": "4924 CRAIGWOOD/FM 969", "location_type": null, "platform_code": null, "zone_id": null}, {"stop_lat": 30.282093, "stop_timezone": null, "wheelchair_boarding": 0, "stop_code": "4933", "direction_id": 0, "stop_lon": -97.660457, "parent_station": null, "route_id": "323", "stop_url": "http://www.capmetro.org/gismaps/stops/4933.html", "stop_sequence": 6, "stop_id": "4933", "stop_desc": "Northwest corner of CRAIGWOOD and LITTLE HILL CIRCLE - Nearside", "stop_name": "CRAIGWOOD/LITTLE HILL CIRCLE", "location_type": null, "platform_code": null, "zone_id": null}, {"stop_lat": 30.280509, "stop_timezone": null, "wheelchair_boarding": 0, "stop_code": "4935", "direction_id": 0, "stop_lon": -97.660926, "parent_station": null, "route_id": "323", "stop_url": "http://www.capmetro.org/gismaps/stops/4935.html", "stop_sequence": 7, "stop_id": "4935", "stop_desc": "Southwest corner of LITTLE HILL and CRAIGWOOD - Nearside", "stop_name": "4501 LITTLE HILL/CRAIGWOOD", "location_type": null, "platform_code": null, "zone_id": null}, {"stop_lat": 30.282824, "stop_timezone": null, "wheelchair_boarding": 0, "stop_code": "4936", "direction_id": 0, "stop_lon": -97.660147, "parent_station": null, "route_id": "323", "stop_url": "http://www.capmetro.org/gismaps/stops/4936.html", "stop_sequence": 8, "stop_id": "4936", "stop_desc": "Northeast corner of CRAIGWOOD and HUNTLEIGH - Farside", "stop_name": "4801 CRAIGWOOD/HUNTLEIGH", "location_type": null, "platform_code": null, "zone_id": null}, {"stop_lat": 30.284171, "stop_timezone": null, "wheelchair_boarding": 0, "stop_code": "66", "direction_id": 0, "stop_lon": -97.659854, "parent_station": null, "route_id": "323", "stop_url": "http://www.capmetro.org/gismaps/stops/66.html", "stop_sequence": 9, "stop_id": "66", "stop_desc": "Southeast corner of CRAIGWOOD and FM 969 - Nearside", "stop_name": "4925 CRAIGWOOD/FM 969", "location_type": null, "platform_code": null, "zone_id": null}, {"stop_lat": 30.292629, "stop_timezone": null, "wheelchair_boarding": 0, "stop_code": "4937", "direction_id": 0, "stop_lon": -97.653013, "parent_station": null, "route_id": "323", "stop_url": "http://www.capmetro.org/gismaps/stops/4937.html", "stop_sequence": 10, "stop_id": "4937", "stop_desc": "Northeast corner of JOHNNY MORRIS and FM 969 (WEBBERVILLE ) - Mid-Block", "stop_name": "5701 JOHNNY MORRIS/FM 969", "location_type": null, "platform_code": null, "zone_id": null}, {"stop_lat": 30.297443, "stop_timezone": null, "wheelchair_boarding": 0, "stop_code": "4938", "direction_id": 0, "stop_lon": -97.649934, "parent_station": null, "route_id": "323", "stop_url": "http://www.capmetro.org/gismaps/stops/4938.html", "stop_sequence": 11, "stop_id": "4938", "stop_desc": "Northeast corner of JOHNNY MORRIS and FM 969 (WEBBERVILLE ) - Mid-Block", "stop_name": "6403 JOHNNY MORRIS/FM 969", "location_type": null, "platform_code": null, "zone_id": null}, {"stop_lat": 30.300569, "stop_timezone": null, "wheelchair_boarding": 0, "stop_code": "5644", "direction_id": 0, "stop_lon": -97.648626, "parent_station": null, "route_id": "323", "stop_url": "http://www.capmetro.org/gismaps/stops/5644.html", "stop_sequence": 12, "stop_id": "5644", "stop_desc": "Northwest corner of LOYOLA and JOHNNY MORRIS - Farside", "stop_name": "6500 LOYOLA/JOHNNY MORRIS", "location_type": null, "platform_code": null, "zone_id": null}, {"stop_lat": 30.30163, "stop_timezone": null, "wheelchair_boarding": 0, "stop_code": "5558", "direction_id": 0, "stop_lon": -97.650907, "parent_station": null, "route_id": "323", "stop_url": "http://www.capmetro.org/gismaps/stops/5558.html", "stop_sequence": 13, "stop_id": "5558", "stop_desc": "Northwest corner of LOYOLA and JOHNNY MORRIS - Mid-Block", "stop_name": "LOYOLA/JOHNNY MORRIS NW CORNER", "location_type": null, "platform_code": null, "zone_id": null}, {"stop_lat": 30.303281, "stop_timezone": null, "wheelchair_boarding": 0, "stop_code": "2290", "direction_id": 0, "stop_lon": -97.654591, "parent_station": null, "route_id": "323", "stop_url": "http://www.capmetro.org/gismaps/stops/2290.html", "stop_sequence": 14, "stop_id": "2290", "stop_desc": "Northwest corner of LOYOLA and CRYSTALBROOK - Farside", "stop_name": "5900 LOYOLA/CRYSTALBROOK", "location_type": null, "platform_code": null, "zone_id": null}, {"stop_lat": 30.303051, "stop_timezone": null, "wheelchair_boarding": 0, "stop_code": "2291", "direction_id": 0, "stop_lon": -97.657759, "parent_station": null, "route_id": "323", "stop_url": "http://www.capmetro.org/gismaps/stops/2291.html", "stop_sequence": 15, "stop_id": "2291", "stop_desc": "Northwest corner of LOYOLA and MILLRACE - Farside", "stop_name": "5600 LOYOLA/MILLRACE", "location_type": null, "platform_code": null, "zone_id": null}, {"stop_lat": 30.303092, "stop_timezone": null, "wheelchair_boarding": 0, "stop_code": "5425", "direction_id": 0, "stop_lon": -97.66195, "parent_station": null, "route_id": "323", "stop_url": "http://www.capmetro.org/gismaps/stops/5425.html", "stop_sequence": 16, "stop_id": "5425", "stop_desc": "Northwest corner of LOYOLA and ED BLUESTEIN - Farside", "stop_name": "LOYOLA/ED BLUESTEIN", "location_type": null, "platform_code": null, "zone_id": null}, {"stop_lat": 30.304837, "stop_timezone": null, "wheelchair_boarding": 0, "stop_code": "2292", "direction_id": 0, "stop_lon": -97.664061, "parent_station": null, "route_id": "323", "stop_url": "http://www.capmetro.org/gismaps/stops/2292.html", "stop_sequence": 17, "stop_id": "2292", "stop_desc": "Northeast corner of LOYOLA and BRIDGEWATER - Nearside", "stop_name": "5200 LOYOLA/BRIDGEWATER", "location_type": null, "platform_code": null, "zone_id": null}, {"stop_lat": 30.306641, "stop_timezone": null, "wheelchair_boarding": 0, "stop_code": "2293", "direction_id": 0, "stop_lon": -97.665304, "parent_station": null, "route_id": "323", "stop_url": "http://www.capmetro.org/gismaps/stops/2293.html", "stop_sequence": 18, "stop_id": "2293", "stop_desc": "Northeast corner of LOYOLA and GREENSBORO - Farside", "stop_name": "5007 LOYOLA/GREENSBORO", "location_type": null, "platform_code": null, "zone_id": null}, {"stop_lat": 30.309944, "stop_timezone": null, "wheelchair_boarding": 0, "stop_code": "2294", "direction_id": 0, "stop_lon": -97.66695, "parent_station": null, "route_id": "323", "stop_url": "http://www.capmetro.org/gismaps/stops/2294.html", "stop_sequence": 19, "stop_id": "2294", "stop_desc": "Southeast corner of LOYOLA and MANOR - Nearside", "stop_name": "4600 LOYOLA/MANOR", "location_type": null, "platform_code": null, "zone_id": null}, {"stop_lat": 30.310484, "stop_timezone": null, "wheelchair_boarding": 0, "stop_code": "5848", "direction_id": 0, "stop_lon": -97.666576, "parent_station": null, "route_id": "323", "stop_url": "http://www.capmetro.org/gismaps/stops/5848.html", "stop_sequence": 20, "stop_id": "5848", "stop_desc": "Northeast corner of MANOR and LOYOLA - Farside", "stop_name": "6713 MANOR/LOYOLA", "location_type": null, "platform_code": null, "zone_id": null}, {"stop_lat": 30.312849, "stop_timezone": null, "wheelchair_boarding": 0, "stop_code": "1601", "direction_id": 0, "stop_lon": -97.665031, "parent_station": null, "route_id": "323", "stop_url": "http://www.capmetro.org/gismaps/stops/1601.html", "stop_sequence": 21, "stop_id": "1601", "stop_desc": "Southeast corner of MANOR and SUSQUEHANNA - Nearside", "stop_name": "7033 MANOR/SUSQUEHANNA", "location_type": null, "platform_code": null, "zone_id": null}, {"stop_lat": 30.319038, "stop_timezone": null, "wheelchair_boarding": 0, "stop_code": "5808", "direction_id": 0, "stop_lon": -97.660988, "parent_station": null, "route_id": "323", "stop_url": "http://www.capmetro.org/gismaps/stops/5808.html", "stop_sequence": 22, "stop_id": "5808", "stop_desc": "Northeast corner of MANOR and PECAN BROOK - Farside", "stop_name": "7500 MANOR/PECAN BROOK", "location_type": null, "platform_code": null, "zone_id": null}, {"stop_lat": 30.328995, "stop_timezone": null, "wheelchair_boarding": 0, "stop_code": "5945", "direction_id": 0, "stop_lon": -97.656302, "parent_station": null, "route_id": "323", "stop_url": "http://www.capmetro.org/gismaps/stops/5945.html", "stop_sequence": 23, "stop_id": "5945", "stop_desc": "Northwest corner of US 290 and SPRINGDALE - Farside", "stop_name": "9100 US 290/SPRINGDALE", "location_type": null, "platform_code": null, "zone_id": null}, {"stop_lat": 30.330722, "stop_timezone": null, "wheelchair_boarding": 0, "stop_code": "5810", "direction_id": 0, "stop_lon": -97.659482, "parent_station": null, "route_id": "323", "stop_url": "http://www.capmetro.org/gismaps/stops/5810.html", "stop_sequence": 24, "stop_id": "5810", "stop_desc": "Northeast corner of TUSCANY and US 290 - Farside", "stop_name": "8408 TUSCANY/US 290", "location_type": null, "platform_code": null, "zone_id": null}, {"stop_lat": 30.337487, "stop_timezone": null, "wheelchair_boarding": 0, "stop_code": "5813", "direction_id": 0, "stop_lon": -97.662196, "parent_station": null, "route_id": "323", "stop_url": "http://www.capmetro.org/gismaps/stops/5813.html", "stop_sequence": 25, "stop_id": "5813", "stop_desc": "Southwest corner of EXCHANGE and TUSCANY - Farside", "stop_name": "8009 EXCHANGE/TUSCANY", "location_type": null, "platform_code": null, "zone_id": null}, {"stop_lat": 30.330305, "stop_timezone": null, "wheelchair_boarding": 0, "stop_code": "5815", "direction_id": 0, "stop_lon": -97.666971, "parent_station": null, "route_id": "323", "stop_url": "http://www.capmetro.org/gismaps/stops/5815.html", "stop_sequence": 26, "stop_id": "5815", "stop_desc": "Northwest corner of EXCHANGE and CROSS PARK - Nearside", "stop_name": "8073 EXCHANGE/CROSS PARK", "location_type": null, "platform_code": null, "zone_id": null}, {"stop_lat": 30.330492, "stop_timezone": null, "wheelchair_boarding": 0, "stop_code": "5816", "direction_id": 0, "stop_lon": -97.671781, "parent_station": null, "route_id": "323", "stop_url": "http://www.capmetro.org/gismaps/stops/5816.html", "stop_sequence": 27, "stop_id": "5816", "stop_desc": "Northeast corner of EXCHANGE and INTERPARKE - Nearside", "stop_name": "8124 EXCHANGE/INTERPARKE", "location_type": null, "platform_code": null, "zone_id": null}, {"stop_lat": 30.335191, "stop_timezone": null, "wheelchair_boarding": 0, "stop_code": "5818", "direction_id": 0, "stop_lon": -97.673447, "parent_station": null, "route_id": "323", "stop_url": "http://www.capmetro.org/gismaps/stops/5818.html", "stop_sequence": 28, "stop_id": "5818", "stop_desc": "Southeast corner of FORBES and CROSS PARK - Nearside", "stop_name": "2202 FORBES/CROSS PARK", "location_type": null, "platform_code": null, "zone_id": null}, {"stop_lat": 30.33623, "stop_timezone": null, "wheelchair_boarding": 0, "stop_code": "2451", "direction_id": 0, "stop_lon": -97.67771, "parent_station": null, "route_id": "323", "stop_url": "http://www.capmetro.org/gismaps/stops/2451.html", "stop_sequence": 29, "stop_id": "2451", "stop_desc": "Northwest corner of CENTRE CREEK and CROSS PARK - Mid-Block", "stop_name": "1706 CENTRE CREEK/CROSS PARK", "location_type": null, "platform_code": null, "zone_id": null}, {"stop_lat": 30.335382, "stop_timezone": null, "wheelchair_boarding": 0, "stop_code": "4703", "direction_id": 0, "stop_lon": -97.68026, "parent_station": null, "route_id": "323", "stop_url": "http://www.capmetro.org/gismaps/stops/4703.html", "stop_sequence": 30, "stop_id": "4703", "stop_desc": "Northeast corner of CENTRE CREEK and RUTHERFORD - Nearside", "stop_name": "1600 CENTRE CREEK/RUTHERFORD", "location_type": null, "platform_code": null, "zone_id": null}, {"stop_lat": 30.33692, "stop_timezone": null, "wheelchair_boarding": 0, "stop_code": "4706", "direction_id": 0, "stop_lon": -97.68223, "parent_station": null, "route_id": "323", "stop_url": "http://www.capmetro.org/gismaps/stops/4706.html", "stop_sequence": 31, "stop_id": "4706", "stop_desc": "Northeast corner of RUTHERFORD and CAMERON - Mid-Block", "stop_name": "FISHER-ROSEMOUNT SYSTEMS", "location_type": null, "platform_code": null, "zone_id": null}, {"stop_lat": 30.33794, "stop_timezone": null, "wheelchair_boarding": 1, "stop_code": "2439", "direction_id": 0, "stop_lon": -97.68431, "parent_station": null, "route_id": "323", "stop_url": "http://www.capmetro.org/gismaps/stops/2439.html", "stop_sequence": 32, "stop_id": "2439", "stop_desc": "Northwest corner of RUTHERFORD and CAMERON - Mid-Block", "stop_name": "1476 RUTHERFORD/CAMERON", "location_type": null, "platform_code": null, "zone_id": null}, {"stop_lat": 30.34058, "stop_timezone": null, "wheelchair_boarding": 0, "stop_code": "5447", "direction_id": 0, "stop_lon": -97.689935, "parent_station": null, "route_id": "323", "stop_url": "http://www.capmetro.org/gismaps/stops/5447.html", "stop_sequence": 33, "stop_id": "5447", "stop_desc": "Northeast corner of RUTHERFORD and FURNESS - Nearside", "stop_name": "1112 RUTHERFORD/FURNESS", "location_type": null, "platform_code": null, "zone_id": null}, {"stop_lat": 30.340281, "stop_timezone": null, "wheelchair_boarding": 1, "stop_code": "3931", "direction_id": 0, "stop_lon": -97.691161, "parent_station": null, "route_id": "323", "stop_url": "http://www.capmetro.org/gismaps/stops/3931.html", "stop_sequence": 34, "stop_id": "3931", "stop_desc": "Southeast corner of WALMART NORWOOD TURNOFF and RUTHERFORD - Nearside", "stop_name": "WALMART NORWOOD", "location_type": null, "platform_code": null, "zone_id": null}, {"stop_lat": 30.338844, "stop_timezone": null, "wheelchair_boarding": 0, "stop_code": "5193", "direction_id": 0, "stop_lon": -97.694029, "parent_station": null, "route_id": "323", "stop_url": "http://www.capmetro.org/gismaps/stops/5193.html", "stop_sequence": 35, "stop_id": "5193", "stop_desc": "Southeast corner of NORWOOD PARK and BRETTONWOODS - Mid-Block", "stop_name": "NORWOOD PARK/BRETTONWOODS", "location_type": null, "platform_code": null, "zone_id": null}, {"stop_lat": 30.344432, "stop_timezone": null, "wheelchair_boarding": 0, "stop_code": "5646", "direction_id": 0, "stop_lon": -97.705583, "parent_station": null, "route_id": "323", "stop_url": "http://www.capmetro.org/gismaps/stops/5646.html", "stop_sequence": 36, "stop_id": "5646", "stop_desc": "Northwest corner of RESEARCH and GEORGIAN - Farside", "stop_name": "RESEARCH/GEORGIAN", "location_type": null, "platform_code": null, "zone_id": null}, {"stop_lat": 30.350066, "stop_timezone": null, "wheelchair_boarding": 0, "stop_code": "5227", "direction_id": 0, "stop_lon": -97.712111, "parent_station": null, "route_id": "323", "stop_url": "http://www.capmetro.org/gismaps/stops/5227.html", "stop_sequence": 37, "stop_id": "5227", "stop_desc": "Northeast corner of RESEARCH and LAMAR - Mid-Block", "stop_name": "NORTH LAMAR BAY 3", "location_type": null, "platform_code": null, "zone_id": null}, {"stop_lat": 30.349206, "stop_timezone": null, "wheelchair_boarding": 1, "stop_code": "3278", "direction_id": 0, "stop_lon": -97.716025, "parent_station": null, "route_id": "323", "stop_url": "http://www.capmetro.org/gismaps/stops/3278.html", "stop_sequence": 38, "stop_id": "3278", "stop_desc": "Northeast corner of ANDERSON and WATSON - Nearside", "stop_name": "ANDERSON/WATSON", "location_type": null, "platform_code": null, "zone_id": null}, {"stop_lat": 30.350302, "stop_timezone": null, "wheelchair_boarding": 0, "stop_code": "4580", "direction_id": 0, "stop_lon": -97.718359, "parent_station": null, "route_id": "323", "stop_url": "http://www.capmetro.org/gismaps/stops/4580.html", "stop_sequence": 39, "stop_id": "4580", "stop_desc": "Northeast corner of ANDERSON and GAULT - Nearside", "stop_name": "ANDERSON/GAULT", "location_type": null, "platform_code": null, "zone_id": null}, {"stop_lat": 30.351463, "stop_timezone": null, "wheelchair_boarding": 1, "stop_code": "3279", "direction_id": 0, "stop_lon": -97.720782, "parent_station": null, "route_id": "323", "stop_url": "http://www.capmetro.org/gismaps/stops/3279.html", "stop_sequence": 40, "stop_id": "3279", "stop_desc": "Northwest corner of ANDERSON and LAZY - Mid-Block", "stop_name": "ANDERSON/LAZY", "location_type": null, "platform_code": null, "zone_id": null}, {"stop_lat": 30.35279, "stop_timezone": null, "wheelchair_boarding": 0, "stop_code": "1078", "direction_id": 0, "stop_lon": -97.72362, "parent_station": null, "route_id": "323", "stop_url": "http://www.capmetro.org/gismaps/stops/1078.html", "stop_sequence": 41, "stop_id": "1078", "stop_desc": "Northwest corner of ANDERSON and WOOTEN PARK - Mid-Block", "stop_name": "1700 ANDERSON/WOOTEN PARK", "location_type": null, "platform_code": null, "zone_id": null}, {"stop_lat": 30.35401, "stop_timezone": null, "wheelchair_boarding": 0, "stop_code": "1080", "direction_id": 0, "stop_lon": -97.72622, "parent_station": null, "route_id": "323", "stop_url": "http://www.capmetro.org/gismaps/stops/1080.html", "stop_sequence": 42, "stop_id": "1080", "stop_desc": "Northwest corner of ANDERSON and MULLEN - Farside", "stop_name": "ANDERSON/MULLEN", "location_type": null, "platform_code": null, "zone_id": null}, {"stop_lat": 30.354997, "stop_timezone": null, "wheelchair_boarding": 1, "stop_code": "3281", "direction_id": 0, "stop_lon": -97.728269, "parent_station": null, "route_id": "323", "stop_url": "http://www.capmetro.org/gismaps/stops/3281.html", "stop_sequence": 43, "stop_id": "3281", "stop_desc": "Northwest corner of ANDERSON and HARDY - Mid-Block", "stop_name": "2114 ANDERSON/HARDY", "location_type": null, "platform_code": null, "zone_id": null}, {"stop_lat": 30.354217, "stop_timezone": null, "wheelchair_boarding": 0, "stop_code": "5849", "direction_id": 0, "stop_lon": -97.732117, "parent_station": null, "route_id": "323", "stop_url": "http://www.capmetro.org/gismaps/stops/5849.html", "stop_sequence": 44, "stop_id": "5849", "stop_desc": "Southwest corner of BURNET and ANDERSON - Mid-Block", "stop_name": "NORTHCROSS STATION (SB)", "location_type": null, "platform_code": null, "zone_id": null}, {"stop_lat": 30.354986, "stop_timezone": null, "wheelchair_boarding": 0, "stop_code": "5851", "direction_id": 0, "stop_lon": -97.73617, "parent_station": null, "route_id": "323", "stop_url": "http://www.capmetro.org/gismaps/stops/5851.html", "stop_sequence": 45, "stop_id": "5851", "stop_desc": "Southeast corner of NORTHCROSS and FOSTER - Nearside", "stop_name": "7719 NORTHCROSS/FOSTER", "location_type": null, "platform_code": null, "zone_id": null}, {"stop_lat": 30.357183, "stop_timezone": null, "wheelchair_boarding": 0, "stop_code": "5854", "direction_id": 0, "stop_lon": -97.733456, "parent_station": null, "route_id": "323", "stop_url": "http://www.capmetro.org/gismaps/stops/5854.html", "stop_sequence": 46, "stop_id": "5854", "stop_desc": "Southeast corner of ANDERSON and FOSTER - Mid-Block", "stop_name": "2535 ANDERSON/FOSTER", "location_type": null, "platform_code": null, "zone_id": null}]
