[{"stop_lat": 30.305323, "stop_timezone": null, "wheelchair_boarding": 0, "stop_code": "1999", "direction_id": 1, "stop_lon": -97.74376, "parent_station": null, "route_id": "491", "stop_url": "http://www.capmetro.org/gismaps/stops/1999.html", "stop_sequence": 1, "stop_id": "1999", "stop_desc": "Southeast corner of 38TH and MEDICAL - Mid-Block", "stop_name": "38TH/MEDICAL PARKWAY", "location_type": null, "platform_code": null, "zone_id": null}, {"stop_lat": 30.30282, "stop_timezone": null, "wheelchair_boarding": 0, "stop_code": "2913", "direction_id": 1, "stop_lon": -97.744768, "parent_station": null, "route_id": "491", "stop_url": "http://www.capmetro.org/gismaps/stops/2913.html", "stop_sequence": 2, "stop_id": "2913", "stop_desc": "Northwest corner of LAMAR and 34TH - Nearside", "stop_name": "3400 LAMAR/34TH", "location_type": null, "platform_code": null, "zone_id": null}, {"stop_lat": 30.311658, "stop_timezone": null, "wheelchair_boarding": 0, "stop_code": "1866", "direction_id": 1, "stop_lon": -97.752215, "parent_station": null, "route_id": "491", "stop_url": "http://www.capmetro.org/gismaps/stops/1866.html", "stop_sequence": 3, "stop_id": "1866", "stop_desc": "Southeast corner of BULL CREEK and 39TH - Nearside", "stop_name": "BULL CREEK/39TH", "location_type": null, "platform_code": null, "zone_id": null}, {"stop_lat": 30.316743, "stop_timezone": null, "wheelchair_boarding": 1, "stop_code": "4497", "direction_id": 1, "stop_lon": -97.754711, "parent_station": null, "route_id": "491", "stop_url": "http://www.capmetro.org/gismaps/stops/4497.html", "stop_sequence": 4, "stop_id": "4497", "stop_desc": "Northeast corner of BULL CREEK and JACKSON - Farside", "stop_name": "4219 BULL CREEK/JACKSON", "location_type": null, "platform_code": null, "zone_id": null}, {"stop_lat": 30.320398, "stop_timezone": null, "wheelchair_boarding": 0, "stop_code": "1871", "direction_id": 1, "stop_lon": -97.753471, "parent_station": null, "route_id": "491", "stop_url": "http://www.capmetro.org/gismaps/stops/1871.html", "stop_sequence": 5, "stop_id": "1871", "stop_desc": "Southeast corner of BULL CREEK and 45TH - Nearside", "stop_name": "4419 BULL CREEK/45TH", "location_type": null, "platform_code": null, "zone_id": null}, {"stop_lat": 30.328766, "stop_timezone": null, "wheelchair_boarding": 0, "stop_code": "819", "direction_id": 1, "stop_lon": -97.739742, "parent_station": null, "route_id": "491", "stop_url": "http://www.capmetro.org/gismaps/stops/819.html", "stop_sequence": 7, "stop_id": "819", "stop_desc": "Southeast corner of BURNET and HOUSTON - Nearside", "stop_name": "BURNET/HOUSTON", "location_type": null, "platform_code": null, "zone_id": null}, {"stop_lat": 30.330446, "stop_timezone": null, "wheelchair_boarding": 1, "stop_code": "820", "direction_id": 1, "stop_lon": -97.739876, "parent_station": null, "route_id": "491", "stop_url": "http://www.capmetro.org/gismaps/stops/820.html", "stop_sequence": 8, "stop_id": "820", "stop_desc": "Northeast corner of BURNET and ADAMS - Farside", "stop_name": "BURNET/ADAMS", "location_type": null, "platform_code": null, "zone_id": null}, {"stop_lat": 30.3342, "stop_timezone": null, "wheelchair_boarding": 0, "stop_code": "822", "direction_id": 1, "stop_lon": -97.7398, "parent_station": null, "route_id": "491", "stop_url": "http://www.capmetro.org/gismaps/stops/822.html", "stop_sequence": 10, "stop_id": "822", "stop_desc": "Southeast corner of BURNET and KOENIG - Nearside", "stop_name": "ALLANDALE STATION (NB)", "location_type": null, "platform_code": null, "zone_id": null}, {"stop_lat": 30.36084, "stop_timezone": null, "wheelchair_boarding": 0, "stop_code": "1904", "direction_id": 1, "stop_lon": -97.73743, "parent_station": null, "route_id": "491", "stop_url": "http://www.capmetro.org/gismaps/stops/1904.html", "stop_sequence": 12, "stop_id": "1904", "stop_desc": "Northeast corner of ROCKWOOD and ANDERSON - Mid-Block", "stop_name": "7921 ROCKWOOD/ANDERSON", "location_type": null, "platform_code": null, "zone_id": null}]
