[{"stop_timezone": "", "parent_station": "", "direction_id": "0", "stop_url": "https://www.capmetro.org/stopdetail/index.php?stop=5379", "stop_sequence": "1", "stop_id": "5379", "stop_desc": "002301 SAN JACINTO & 23RD", "location_type": "", "zone_id": "", "stop_lat": "30.286032", "wheelchair_boarding": "0", "stop_code": "5379", "stop_lon": "-97.733433", "route_id": "642", "stop_name": "San Jacinto/23rd (Midblock)"}, {"stop_timezone": "", "parent_station": "", "direction_id": "0", "stop_url": "https://www.capmetro.org/stopdetail/index.php?stop=4120", "stop_sequence": "10", "stop_id": "4120", "stop_desc": "000900 22ND & PEARL", "location_type": "", "zone_id": "", "stop_lat": "30.285285", "wheelchair_boarding": "0", "stop_code": "4120", "stop_lon": "-97.746666", "route_id": "642", "stop_name": "22nd/Pearl"}, {"stop_timezone": "", "parent_station": "", "direction_id": "0", "stop_url": "https://www.capmetro.org/stopdetail/index.php?stop=4099", "stop_sequence": "11", "stop_id": "4099", "stop_desc": "000611 22ND & RIO GRANDE", "location_type": "", "zone_id": "", "stop_lat": "30.285128", "wheelchair_boarding": "0", "stop_code": "4099", "stop_lon": "-97.744534", "route_id": "642", "stop_name": "22nd/Rio Grande"}, {"stop_timezone": "", "parent_station": "", "direction_id": "0", "stop_url": "https://www.capmetro.org/stopdetail/index.php?stop=498", "stop_sequence": "12", "stop_id": "498", "stop_desc": "002026 GUADALUPE & 21ST", "location_type": "", "zone_id": "", "stop_lat": "30.283384", "wheelchair_boarding": "0", "stop_code": "498", "stop_lon": "-97.742081", "route_id": "642", "stop_name": "Guadalupe/W. 21st Street"}, {"stop_timezone": "", "parent_station": "", "direction_id": "0", "stop_url": "https://www.capmetro.org/stopdetail/index.php?stop=4134", "stop_sequence": "13", "stop_id": "4134", "stop_desc": "001951 SAN JACINTO & TRINITY", "location_type": "", "zone_id": "", "stop_lat": "30.280391", "wheelchair_boarding": "0", "stop_code": "4134", "stop_lon": "-97.733979", "route_id": "642", "stop_name": "1951 San Jacinto/Trinity"}, {"stop_timezone": "", "parent_station": "", "direction_id": "0", "stop_url": "https://www.capmetro.org/stopdetail/index.php?stop=4135", "stop_sequence": "13", "stop_id": "4135", "stop_desc": "002001 SAN JACINTO & 20TH", "location_type": "", "zone_id": "", "stop_lat": "30.281645", "wheelchair_boarding": "0", "stop_code": "4135", "stop_lon": "-97.733191", "route_id": "642", "stop_name": "2001 San Jacinto/20th"}, {"stop_timezone": "", "parent_station": "", "direction_id": "0", "stop_url": "https://www.capmetro.org/stopdetail/index.php?stop=1253", "stop_sequence": "14", "stop_id": "1253", "stop_desc": "002031 SAN JACINTO & 21ST", "location_type": "", "zone_id": "", "stop_lat": "30.283104", "wheelchair_boarding": "0", "stop_code": "1253", "stop_lon": "-97.733910", "route_id": "642", "stop_name": "2031 San Jacinto/21st"}, {"stop_timezone": "", "parent_station": "", "direction_id": "0", "stop_url": "https://www.capmetro.org/stopdetail/index.php?stop=4135", "stop_sequence": "14", "stop_id": "4135", "stop_desc": "002001 SAN JACINTO & 20TH", "location_type": "", "zone_id": "", "stop_lat": "30.281645", "wheelchair_boarding": "0", "stop_code": "4135", "stop_lon": "-97.733191", "route_id": "642", "stop_name": "2001 San Jacinto/20th"}, {"stop_timezone": "", "parent_station": "", "direction_id": "0", "stop_url": "https://www.capmetro.org/stopdetail/index.php?stop=1253", "stop_sequence": "15", "stop_id": "1253", "stop_desc": "002031 SAN JACINTO & 21ST", "location_type": "", "zone_id": "", "stop_lat": "30.283104", "wheelchair_boarding": "0", "stop_code": "1253", "stop_lon": "-97.733910", "route_id": "642", "stop_name": "2031 San Jacinto/21st"}, {"stop_timezone": "", "parent_station": "", "direction_id": "0", "stop_url": "https://www.capmetro.org/stopdetail/index.php?stop=5379", "stop_sequence": "15", "stop_id": "5379", "stop_desc": "002301 SAN JACINTO & 23RD", "location_type": "", "zone_id": "", "stop_lat": "30.286032", "wheelchair_boarding": "0", "stop_code": "5379", "stop_lon": "-97.733433", "route_id": "642", "stop_name": "San Jacinto/23rd (Midblock)"}, {"stop_timezone": "", "parent_station": "", "direction_id": "0", "stop_url": "https://www.capmetro.org/stopdetail/index.php?stop=5379", "stop_sequence": "16", "stop_id": "5379", "stop_desc": "002301 SAN JACINTO & 23RD", "location_type": "", "zone_id": "", "stop_lat": "30.286032", "wheelchair_boarding": "0", "stop_code": "5379", "stop_lon": "-97.733433", "route_id": "642", "stop_name": "San Jacinto/23rd (Midblock)"}, {"stop_timezone": "", "parent_station": "", "direction_id": "0", "stop_url": "https://www.capmetro.org/stopdetail/index.php?stop=2079", "stop_sequence": "2", "stop_id": "2079", "stop_desc": "000200 DEAN KEETON & SPEEDWAY", "location_type": "", "zone_id": "", "stop_lat": "30.289563", "wheelchair_boarding": "0", "stop_code": "2079", "stop_lon": "-97.736629", "route_id": "642", "stop_name": "Dean Keeton/Speedway NE Corner"}, {"stop_timezone": "", "parent_station": "", "direction_id": "0", "stop_url": "https://www.capmetro.org/stopdetail/index.php?stop=5024", "stop_sequence": "3", "stop_id": "5024", "stop_desc": "000116 DEAN KEETON & UNIVERSITY", "location_type": "", "zone_id": "", "stop_lat": "30.289717", "wheelchair_boarding": "0", "stop_code": "5024", "stop_lon": "-97.738797", "route_id": "642", "stop_name": "116 Dean Keeton/University"}, {"stop_timezone": "", "parent_station": "", "direction_id": "0", "stop_url": "https://www.capmetro.org/stopdetail/index.php?stop=4096", "stop_sequence": "4", "stop_id": "4096", "stop_desc": "000300 27TH & WHITIS", "location_type": "", "zone_id": "", "stop_lat": "30.292003", "wheelchair_boarding": "0", "stop_code": "4096", "stop_lon": "-97.740219", "route_id": "642", "stop_name": "27th/Whitis"}, {"stop_timezone": "", "parent_station": "", "direction_id": "0", "stop_url": "https://www.capmetro.org/stopdetail/index.php?stop=5373", "stop_sequence": "5", "stop_id": "5373", "stop_desc": "000000 NUECES & 27TH", "location_type": "", "zone_id": "", "stop_lat": "30.291657", "wheelchair_boarding": "0", "stop_code": "5373", "stop_lon": "-97.742835", "route_id": "642", "stop_name": "Nueces/27th"}, {"stop_timezone": "", "parent_station": "", "direction_id": "0", "stop_url": "https://www.capmetro.org/stopdetail/index.php?stop=4122", "stop_sequence": "6", "stop_id": "4122", "stop_desc": "000600 26TH & RIO GRANDE", "location_type": "", "zone_id": "", "stop_lat": "30.290696", "wheelchair_boarding": "0", "stop_code": "4122", "stop_lon": "-97.744249", "route_id": "642", "stop_name": "26th/Rio Grande"}, {"stop_timezone": "", "parent_station": "", "direction_id": "0", "stop_url": "https://www.capmetro.org/stopdetail/index.php?stop=4123", "stop_sequence": "7", "stop_id": "4123", "stop_desc": "000800 26TH & PEARL", "location_type": "", "zone_id": "", "stop_lat": "30.290860", "wheelchair_boarding": "0", "stop_code": "4123", "stop_lon": "-97.746437", "route_id": "642", "stop_name": "26th/Pearl"}, {"stop_timezone": "", "parent_station": "", "direction_id": "0", "stop_url": "https://www.capmetro.org/stopdetail/index.php?stop=4121", "stop_sequence": "8", "stop_id": "4121", "stop_desc": "002550 SAN GABRIEL & 25 1/2", "location_type": "", "zone_id": "", "stop_lat": "30.290050", "wheelchair_boarding": "0", "stop_code": "4121", "stop_lon": "-97.747693", "route_id": "642", "stop_name": "San Gabriel/25 1/2"}, {"stop_timezone": "", "parent_station": "", "direction_id": "0", "stop_url": "https://www.capmetro.org/stopdetail/index.php?stop=3493", "stop_sequence": "9", "stop_id": "3493", "stop_desc": "00000 SAN GABRIEL & 25TH", "location_type": "", "zone_id": "", "stop_lat": "30.289540", "wheelchair_boarding": "0", "stop_code": "3493", "stop_lon": "-97.747750", "route_id": "642", "stop_name": "San Gabriel / 25th"}]
