[{"stop_timezone": "", "parent_station": "", "direction_id": "1", "stop_url": "https://www.capmetro.org/stopdetail/index.php?stop=4326", "stop_sequence": "1", "stop_id": "4326", "stop_desc": "003000 PRESIDENTIAL & ABIA LOWER LEVEL", "location_type": "", "zone_id": "", "stop_lat": "30.202744", "wheelchair_boarding": "0", "stop_code": "4326", "stop_lon": "-97.665653", "route_id": "350", "stop_name": "ABIA Lower Level"}, {"stop_timezone": "", "parent_station": "", "direction_id": "1", "stop_url": "https://www.capmetro.org/stopdetail/index.php?stop=5226", "stop_sequence": "1", "stop_id": "5226", "stop_desc": "07900B RESEARCH & LAMAR", "location_type": "", "zone_id": "", "stop_lat": "30.350167", "wheelchair_boarding": "0", "stop_code": "5226", "stop_lon": "-97.712099", "route_id": "350", "stop_name": "North Lamar Bay 2"}, {"stop_timezone": "", "parent_station": "", "direction_id": "1", "stop_url": "https://www.capmetro.org/stopdetail/index.php?stop=5604", "stop_sequence": "1", "stop_id": "5604", "stop_desc": "000000 EASY WIND & ST JOHNS", "location_type": "", "zone_id": "", "stop_lat": "30.338721", "wheelchair_boarding": "0", "stop_code": "5604", "stop_lon": "-97.719548", "route_id": "350", "stop_name": "Easy Wind/St Johns"}, {"stop_timezone": "", "parent_station": "", "direction_id": "1", "stop_url": "https://www.capmetro.org/stopdetail/index.php?stop=831", "stop_sequence": "1", "stop_id": "831", "stop_desc": "001020 ACC & GROVE", "location_type": "", "zone_id": "", "stop_lat": "30.236214", "wheelchair_boarding": "0", "stop_code": "831", "stop_lon": "-97.704856", "route_id": "350", "stop_name": "ACC Riverside Campus Stop"}, {"stop_timezone": "", "parent_station": "", "direction_id": "1", "stop_url": "https://www.capmetro.org/stopdetail/index.php?stop=3291", "stop_sequence": "10", "stop_id": "3291", "stop_desc": "004328 AIRPORT & CRESTWOOD", "location_type": "", "zone_id": "", "stop_lat": "30.299909", "wheelchair_boarding": "0", "stop_code": "3291", "stop_lon": "-97.712142", "route_id": "350", "stop_name": "4328 Airport/Crestwood"}, {"stop_timezone": "", "parent_station": "", "direction_id": "1", "stop_url": "https://www.capmetro.org/stopdetail/index.php?stop=5415", "stop_sequence": "10", "stop_id": "5415", "stop_desc": "000000 AIRPORT & 53RD", "location_type": "", "zone_id": "", "stop_lat": "30.314086", "wheelchair_boarding": "0", "stop_code": "5415", "stop_lon": "-97.715128", "route_id": "350", "stop_name": "Airport/53rd"}, {"stop_timezone": "", "parent_station": "", "direction_id": "1", "stop_url": "https://www.capmetro.org/stopdetail/index.php?stop=5593", "stop_sequence": "10", "stop_id": "5593", "stop_desc": "000000 PALMA VERDE & BEN WHITE", "location_type": "", "zone_id": "", "stop_lat": "30.219121", "wheelchair_boarding": "0", "stop_code": "5593", "stop_lon": "-97.687830", "route_id": "350", "stop_name": "Palma Verde/Ben White"}, {"stop_timezone": "", "parent_station": "", "direction_id": "1", "stop_url": "https://www.capmetro.org/stopdetail/index.php?stop=5045", "stop_sequence": "11", "stop_id": "5045", "stop_desc": "002474 SH 71 & PRESIDENTIAL", "location_type": "", "zone_id": "", "stop_lat": "30.212705", "wheelchair_boarding": "0", "stop_code": "5045", "stop_lon": "-97.659090", "route_id": "350", "stop_name": "2474 SH 71/Presidential"}, {"stop_timezone": "", "parent_station": "", "direction_id": "1", "stop_url": "https://www.capmetro.org/stopdetail/index.php?stop=5684", "stop_sequence": "11", "stop_id": "5684", "stop_desc": "005012 AIRPORT & 51ST", "location_type": "", "zone_id": "", "stop_lat": "30.311595", "wheelchair_boarding": "0", "stop_code": "5684", "stop_lon": "-97.715502", "route_id": "350", "stop_name": "5012 Airport/51st"}, {"stop_timezone": "", "parent_station": "", "direction_id": "1", "stop_url": "https://www.capmetro.org/stopdetail/index.php?stop=5796", "stop_sequence": "11", "stop_id": "5796", "stop_desc": "004300 AIRPORT & WILSHIRE", "location_type": "", "zone_id": "", "stop_lat": "30.297973", "wheelchair_boarding": "0", "stop_code": "5796", "stop_lon": "-97.709321", "route_id": "350", "stop_name": "4300 Airport/Wilshire"}, {"stop_timezone": "", "parent_station": "", "direction_id": "1", "stop_url": "https://www.capmetro.org/stopdetail/index.php?stop=3290", "stop_sequence": "12", "stop_id": "3290", "stop_desc": "004600 AIRPORT & 46TH", "location_type": "", "zone_id": "", "stop_lat": "30.305103", "wheelchair_boarding": "0", "stop_code": "3290", "stop_lon": "-97.716029", "route_id": "350", "stop_name": "4600 Airport/46th"}, {"stop_timezone": "", "parent_station": "", "direction_id": "1", "stop_url": "https://www.capmetro.org/stopdetail/index.php?stop=3293", "stop_sequence": "12", "stop_id": "3293", "stop_desc": "003822 AIRPORT & 38TH HALF", "location_type": "", "zone_id": "", "stop_lat": "30.288136", "wheelchair_boarding": "0", "stop_code": "3293", "stop_lon": "-97.707262", "route_id": "350", "stop_name": "3822 Airport/38th Half"}, {"stop_timezone": "", "parent_station": "", "direction_id": "1", "stop_url": "https://www.capmetro.org/stopdetail/index.php?stop=4326", "stop_sequence": "12", "stop_id": "4326", "stop_desc": "003000 PRESIDENTIAL & ABIA LOWER LEVEL", "location_type": "", "zone_id": "", "stop_lat": "30.202744", "wheelchair_boarding": "0", "stop_code": "4326", "stop_lon": "-97.665653", "route_id": "350", "stop_name": "ABIA Lower Level"}, {"stop_timezone": "", "parent_station": "", "direction_id": "1", "stop_url": "https://www.capmetro.org/stopdetail/index.php?stop=3291", "stop_sequence": "13", "stop_id": "3291", "stop_desc": "004328 AIRPORT & CRESTWOOD", "location_type": "", "zone_id": "", "stop_lat": "30.299909", "wheelchair_boarding": "0", "stop_code": "3291", "stop_lon": "-97.712142", "route_id": "350", "stop_name": "4328 Airport/Crestwood"}, {"stop_timezone": "", "parent_station": "", "direction_id": "1", "stop_url": "https://www.capmetro.org/stopdetail/index.php?stop=3295", "stop_sequence": "13", "stop_id": "3295", "stop_desc": "002204 AIRPORT & MANOR", "location_type": "", "zone_id": "", "stop_lat": "30.285561", "wheelchair_boarding": "0", "stop_code": "3295", "stop_lon": "-97.706075", "route_id": "350", "stop_name": "2204 Airport/Manor"}, {"stop_timezone": "", "parent_station": "", "direction_id": "1", "stop_url": "https://www.capmetro.org/stopdetail/index.php?stop=5797", "stop_sequence": "13", "stop_id": "5797", "stop_desc": "000000 SH 71 & CHEVIOT", "location_type": "", "zone_id": "", "stop_lat": "30.204687", "wheelchair_boarding": "0", "stop_code": "5797", "stop_lon": "-97.642909", "route_id": "350", "stop_name": "SH 71/Cheviot (EB)"}, {"stop_timezone": "", "parent_station": "", "direction_id": "1", "stop_url": "https://www.capmetro.org/stopdetail/index.php?stop=3296", "stop_sequence": "14", "stop_id": "3296", "stop_desc": "001900 AIRPORT & MARTIN LUTHER KING", "location_type": "", "zone_id": "", "stop_lat": "30.282694", "wheelchair_boarding": "0", "stop_code": "3296", "stop_lon": "-97.704222", "route_id": "350", "stop_name": "1900 Airport/Martin Luther King"}, {"stop_timezone": "", "parent_station": "", "direction_id": "1", "stop_url": "https://www.capmetro.org/stopdetail/index.php?stop=3323", "stop_sequence": "14", "stop_id": "3323", "stop_desc": "003320 973 & 71", "location_type": "", "zone_id": "", "stop_lat": "30.200828", "wheelchair_boarding": "0", "stop_code": "3323", "stop_lon": "-97.640184", "route_id": "350", "stop_name": "3320 FM 973/SH 71"}, {"stop_timezone": "", "parent_station": "", "direction_id": "1", "stop_url": "https://www.capmetro.org/stopdetail/index.php?stop=5796", "stop_sequence": "14", "stop_id": "5796", "stop_desc": "004300 AIRPORT & WILSHIRE", "location_type": "", "zone_id": "", "stop_lat": "30.297973", "wheelchair_boarding": "0", "stop_code": "5796", "stop_lon": "-97.709321", "route_id": "350", "stop_name": "4300 Airport/Wilshire"}, {"stop_timezone": "", "parent_station": "", "direction_id": "1", "stop_url": "https://www.capmetro.org/stopdetail/index.php?stop=3293", "stop_sequence": "15", "stop_id": "3293", "stop_desc": "003822 AIRPORT & 38TH HALF", "location_type": "", "zone_id": "", "stop_lat": "30.288136", "wheelchair_boarding": "0", "stop_code": "3293", "stop_lon": "-97.707262", "route_id": "350", "stop_name": "3822 Airport/38th Half"}, {"stop_timezone": "", "parent_station": "", "direction_id": "1", "stop_url": "https://www.capmetro.org/stopdetail/index.php?stop=3297", "stop_sequence": "15", "stop_id": "3297", "stop_desc": "001400 AIRPORT & 14TH HALF", "location_type": "", "zone_id": "", "stop_lat": "30.279033", "wheelchair_boarding": "0", "stop_code": "3297", "stop_lon": "-97.701939", "route_id": "350", "stop_name": "1400 Airport/14th Half"}, {"stop_timezone": "", "parent_station": "", "direction_id": "1", "stop_url": "https://www.capmetro.org/stopdetail/index.php?stop=3324", "stop_sequence": "15", "stop_id": "3324", "stop_desc": "003518 BILL PRICE & FM 973", "location_type": "", "zone_id": "", "stop_lat": "30.198800", "wheelchair_boarding": "0", "stop_code": "3324", "stop_lon": "-97.642815", "route_id": "350", "stop_name": "3518 Bill Price/FM 973"}, {"stop_timezone": "", "parent_station": "", "direction_id": "1", "stop_url": "https://www.capmetro.org/stopdetail/index.php?stop=3238", "stop_sequence": "16", "stop_id": "3238", "stop_desc": "003618 BILL PRICE & FM 973", "location_type": "", "zone_id": "", "stop_lat": "30.197840", "wheelchair_boarding": "0", "stop_code": "3238", "stop_lon": "-97.645546", "route_id": "350", "stop_name": "Travis Correctional Facility"}, {"stop_timezone": "", "parent_station": "", "direction_id": "1", "stop_url": "https://www.capmetro.org/stopdetail/index.php?stop=3295", "stop_sequence": "16", "stop_id": "3295", "stop_desc": "002204 AIRPORT & MANOR", "location_type": "", "zone_id": "", "stop_lat": "30.285561", "wheelchair_boarding": "0", "stop_code": "3295", "stop_lon": "-97.706075", "route_id": "350", "stop_name": "2204 Airport/Manor"}, {"stop_timezone": "", "parent_station": "", "direction_id": "1", "stop_url": "https://www.capmetro.org/stopdetail/index.php?stop=3298", "stop_sequence": "16", "stop_id": "3298", "stop_desc": "001198 AIRPORT & 12TH", "location_type": "", "zone_id": "", "stop_lat": "30.276489", "wheelchair_boarding": "0", "stop_code": "3298", "stop_lon": "-97.700213", "route_id": "350", "stop_name": "1198 Airport/12th"}, {"stop_timezone": "", "parent_station": "", "direction_id": "1", "stop_url": "https://www.capmetro.org/stopdetail/index.php?stop=3296", "stop_sequence": "17", "stop_id": "3296", "stop_desc": "001900 AIRPORT & MARTIN LUTHER KING", "location_type": "", "zone_id": "", "stop_lat": "30.282694", "wheelchair_boarding": "0", "stop_code": "3296", "stop_lon": "-97.704222", "route_id": "350", "stop_name": "1900 Airport/Martin Luther King"}, {"stop_timezone": "", "parent_station": "", "direction_id": "1", "stop_url": "https://www.capmetro.org/stopdetail/index.php?stop=3299", "stop_sequence": "17", "stop_id": "3299", "stop_desc": "001144 AIRPORT & OAK SPRINGS", "location_type": "", "zone_id": "", "stop_lat": "30.272520", "wheelchair_boarding": "0", "stop_code": "3299", "stop_lon": "-97.697750", "route_id": "350", "stop_name": "1144 Airport/Oak Springs"}, {"stop_timezone": "", "parent_station": "", "direction_id": "1", "stop_url": "https://www.capmetro.org/stopdetail/index.php?stop=3297", "stop_sequence": "18", "stop_id": "3297", "stop_desc": "001400 AIRPORT & 14TH HALF", "location_type": "", "zone_id": "", "stop_lat": "30.279033", "wheelchair_boarding": "0", "stop_code": "3297", "stop_lon": "-97.701939", "route_id": "350", "stop_name": "1400 Airport/14th Half"}, {"stop_timezone": "", "parent_station": "", "direction_id": "1", "stop_url": "https://www.capmetro.org/stopdetail/index.php?stop=3300", "stop_sequence": "18", "stop_id": "3300", "stop_desc": "001134 AIRPORT & GOODWIN", "location_type": "", "zone_id": "", "stop_lat": "30.268330", "wheelchair_boarding": "0", "stop_code": "3300", "stop_lon": "-97.696430", "route_id": "350", "stop_name": "1134 Airport/Goodwin"}, {"stop_timezone": "", "parent_station": "", "direction_id": "1", "stop_url": "https://www.capmetro.org/stopdetail/index.php?stop=3298", "stop_sequence": "19", "stop_id": "3298", "stop_desc": "001198 AIRPORT & 12TH", "location_type": "", "zone_id": "", "stop_lat": "30.276489", "wheelchair_boarding": "0", "stop_code": "3298", "stop_lon": "-97.700213", "route_id": "350", "stop_name": "1198 Airport/12th"}, {"stop_timezone": "", "parent_station": "", "direction_id": "1", "stop_url": "https://www.capmetro.org/stopdetail/index.php?stop=5100", "stop_sequence": "19", "stop_id": "5100", "stop_desc": "001120 AIRPORT & SPRINGDALE", "location_type": "", "zone_id": "", "stop_lat": "30.264908", "wheelchair_boarding": "0", "stop_code": "5100", "stop_lon": "-97.695452", "route_id": "350", "stop_name": "1120 Airport/Springdale"}, {"stop_timezone": "", "parent_station": "", "direction_id": "1", "stop_url": "https://www.capmetro.org/stopdetail/index.php?stop=1017", "stop_sequence": "2", "stop_id": "1017", "stop_desc": "001700 GROVE & FAIRWAY", "location_type": "", "zone_id": "", "stop_lat": "30.229539", "wheelchair_boarding": "0", "stop_code": "1017", "stop_lon": "-97.706558", "route_id": "350", "stop_name": "Ruiz Library"}, {"stop_timezone": "", "parent_station": "", "direction_id": "1", "stop_url": "https://www.capmetro.org/stopdetail/index.php?stop=2877", "stop_sequence": "2", "stop_id": "2877", "stop_desc": "006904 AIRPORT & LAMAR", "location_type": "", "zone_id": "", "stop_lat": "30.336202", "wheelchair_boarding": "0", "stop_code": "2877", "stop_lon": "-97.718247", "route_id": "350", "stop_name": "6904 Airport/Lamar"}, {"stop_timezone": "", "parent_station": "", "direction_id": "1", "stop_url": "https://www.capmetro.org/stopdetail/index.php?stop=471", "stop_sequence": "2", "stop_id": "471", "stop_desc": "007720 LAMAR & STOBAUGH", "location_type": "", "zone_id": "", "stop_lat": "30.346044", "wheelchair_boarding": "0", "stop_code": "471", "stop_lon": "-97.713966", "route_id": "350", "stop_name": "7720 Lamar/Stobaugh"}, {"stop_timezone": "", "parent_station": "", "direction_id": "1", "stop_url": "https://www.capmetro.org/stopdetail/index.php?stop=5797", "stop_sequence": "2", "stop_id": "5797", "stop_desc": "000000 SH 71 & CHEVIOT", "location_type": "", "zone_id": "", "stop_lat": "30.204687", "wheelchair_boarding": "0", "stop_code": "5797", "stop_lon": "-97.642909", "route_id": "350", "stop_name": "SH 71/Cheviot (EB)"}, {"stop_timezone": "", "parent_station": "", "direction_id": "1", "stop_url": "https://www.capmetro.org/stopdetail/index.php?stop=3299", "stop_sequence": "20", "stop_id": "3299", "stop_desc": "001144 AIRPORT & OAK SPRINGS", "location_type": "", "zone_id": "", "stop_lat": "30.272520", "wheelchair_boarding": "0", "stop_code": "3299", "stop_lon": "-97.697750", "route_id": "350", "stop_name": "1144 Airport/Oak Springs"}, {"stop_timezone": "", "parent_station": "", "direction_id": "1", "stop_url": "https://www.capmetro.org/stopdetail/index.php?stop=3302", "stop_sequence": "20", "stop_id": "3302", "stop_desc": "1000 AIRPORT & SHADY", "location_type": "", "zone_id": "", "stop_lat": "30.259360", "wheelchair_boarding": "0", "stop_code": "3302", "stop_lon": "-97.693770", "route_id": "350", "stop_name": "Airport/Shady Lane"}, {"stop_timezone": "", "parent_station": "", "direction_id": "1", "stop_url": "https://www.capmetro.org/stopdetail/index.php?stop=3300", "stop_sequence": "21", "stop_id": "3300", "stop_desc": "001134 AIRPORT & GOODWIN", "location_type": "", "zone_id": "", "stop_lat": "30.268330", "wheelchair_boarding": "0", "stop_code": "3300", "stop_lon": "-97.696430", "route_id": "350", "stop_name": "1134 Airport/Goodwin"}, {"stop_timezone": "", "parent_station": "", "direction_id": "1", "stop_url": "https://www.capmetro.org/stopdetail/index.php?stop=3303", "stop_sequence": "21", "stop_id": "3303", "stop_desc": "000760 AIRPORT & GLISSMAN", "location_type": "", "zone_id": "", "stop_lat": "30.254460", "wheelchair_boarding": "0", "stop_code": "3303", "stop_lon": "-97.692800", "route_id": "350", "stop_name": "760 Airport/Glissman"}, {"stop_timezone": "", "parent_station": "", "direction_id": "1", "stop_url": "https://www.capmetro.org/stopdetail/index.php?stop=3304", "stop_sequence": "22", "stop_id": "3304", "stop_desc": "000302 MONTOPOLIS & DEL MONTE", "location_type": "", "zone_id": "", "stop_lat": "30.242008", "wheelchair_boarding": "0", "stop_code": "3304", "stop_lon": "-97.692486", "route_id": "350", "stop_name": "302 Montopolis/Del Monte"}, {"stop_timezone": "", "parent_station": "", "direction_id": "1", "stop_url": "https://www.capmetro.org/stopdetail/index.php?stop=5100", "stop_sequence": "22", "stop_id": "5100", "stop_desc": "001120 AIRPORT & SPRINGDALE", "location_type": "", "zone_id": "", "stop_lat": "30.264908", "wheelchair_boarding": "0", "stop_code": "5100", "stop_lon": "-97.695452", "route_id": "350", "stop_name": "1120 Airport/Springdale"}, {"stop_timezone": "", "parent_station": "", "direction_id": "1", "stop_url": "https://www.capmetro.org/stopdetail/index.php?stop=3302", "stop_sequence": "23", "stop_id": "3302", "stop_desc": "1000 AIRPORT & SHADY", "location_type": "", "zone_id": "", "stop_lat": "30.259360", "wheelchair_boarding": "0", "stop_code": "3302", "stop_lon": "-97.693770", "route_id": "350", "stop_name": "Airport/Shady Lane"}, {"stop_timezone": "", "parent_station": "", "direction_id": "1", "stop_url": "https://www.capmetro.org/stopdetail/index.php?stop=3306", "stop_sequence": "23", "stop_id": "3306", "stop_desc": "000600 MONTOPOLIS & WALKER", "location_type": "", "zone_id": "", "stop_lat": "30.238732", "wheelchair_boarding": "0", "stop_code": "3306", "stop_lon": "-97.694736", "route_id": "350", "stop_name": "Montopolis/Walker"}, {"stop_timezone": "", "parent_station": "", "direction_id": "1", "stop_url": "https://www.capmetro.org/stopdetail/index.php?stop=3303", "stop_sequence": "24", "stop_id": "3303", "stop_desc": "000760 AIRPORT & GLISSMAN", "location_type": "", "zone_id": "", "stop_lat": "30.254460", "wheelchair_boarding": "0", "stop_code": "3303", "stop_lon": "-97.692800", "route_id": "350", "stop_name": "760 Airport/Glissman"}, {"stop_timezone": "", "parent_station": "", "direction_id": "1", "stop_url": "https://www.capmetro.org/stopdetail/index.php?stop=5749", "stop_sequence": "24", "stop_id": "5749", "stop_desc": "000702 MONTOPOLIS & PONCA", "location_type": "", "zone_id": "", "stop_lat": "30.237009", "wheelchair_boarding": "0", "stop_code": "5749", "stop_lon": "-97.695757", "route_id": "350", "stop_name": "702 Montopolis/Ponca"}, {"stop_timezone": "", "parent_station": "", "direction_id": "1", "stop_url": "https://www.capmetro.org/stopdetail/index.php?stop=3304", "stop_sequence": "25", "stop_id": "3304", "stop_desc": "000302 MONTOPOLIS & DEL MONTE", "location_type": "", "zone_id": "", "stop_lat": "30.242008", "wheelchair_boarding": "0", "stop_code": "3304", "stop_lon": "-97.692486", "route_id": "350", "stop_name": "302 Montopolis/Del Monte"}, {"stop_timezone": "", "parent_station": "", "direction_id": "1", "stop_url": "https://www.capmetro.org/stopdetail/index.php?stop=3308", "stop_sequence": "25", "stop_id": "3308", "stop_desc": "000900 MONTOPOLIS & FELIX", "location_type": "", "zone_id": "", "stop_lat": "30.235454", "wheelchair_boarding": "0", "stop_code": "3308", "stop_lon": "-97.696831", "route_id": "350", "stop_name": "900 Montopolis/Felix"}, {"stop_timezone": "", "parent_station": "", "direction_id": "1", "stop_url": "https://www.capmetro.org/stopdetail/index.php?stop=3306", "stop_sequence": "26", "stop_id": "3306", "stop_desc": "000600 MONTOPOLIS & WALKER", "location_type": "", "zone_id": "", "stop_lat": "30.238732", "wheelchair_boarding": "0", "stop_code": "3306", "stop_lon": "-97.694736", "route_id": "350", "stop_name": "Montopolis/Walker"}, {"stop_timezone": "", "parent_station": "", "direction_id": "1", "stop_url": "https://www.capmetro.org/stopdetail/index.php?stop=3310", "stop_sequence": "26", "stop_id": "3310", "stop_desc": "001412 MONTOPOLIS & MARIGOLD", "location_type": "", "zone_id": "", "stop_lat": "30.229409", "wheelchair_boarding": "0", "stop_code": "3310", "stop_lon": "-97.700695", "route_id": "350", "stop_name": "1412 Montopolis/Marigold"}, {"stop_timezone": "", "parent_station": "", "direction_id": "1", "stop_url": "https://www.capmetro.org/stopdetail/index.php?stop=834", "stop_sequence": "26", "stop_id": "834", "stop_desc": "001214 MONTOPOLIS & LARCH", "location_type": "", "zone_id": "", "stop_lat": "30.232434", "wheelchair_boarding": "0", "stop_code": "834", "stop_lon": "-97.698769", "route_id": "350", "stop_name": "1214 Montopolis/Larch"}, {"stop_timezone": "", "parent_station": "", "direction_id": "1", "stop_url": "https://www.capmetro.org/stopdetail/index.php?stop=3310", "stop_sequence": "27", "stop_id": "3310", "stop_desc": "001412 MONTOPOLIS & MARIGOLD", "location_type": "", "zone_id": "", "stop_lat": "30.229409", "wheelchair_boarding": "0", "stop_code": "3310", "stop_lon": "-97.700695", "route_id": "350", "stop_name": "1412 Montopolis/Marigold"}, {"stop_timezone": "", "parent_station": "", "direction_id": "1", "stop_url": "https://www.capmetro.org/stopdetail/index.php?stop=5191", "stop_sequence": "27", "stop_id": "5191", "stop_desc": "001601 MONTOPOLIS & CADDIE", "location_type": "", "zone_id": "", "stop_lat": "30.227350", "wheelchair_boarding": "0", "stop_code": "5191", "stop_lon": "-97.702007", "route_id": "350", "stop_name": "Montopolis/Caddie"}, {"stop_timezone": "", "parent_station": "", "direction_id": "1", "stop_url": "https://www.capmetro.org/stopdetail/index.php?stop=5749", "stop_sequence": "27", "stop_id": "5749", "stop_desc": "000702 MONTOPOLIS & PONCA", "location_type": "", "zone_id": "", "stop_lat": "30.237009", "wheelchair_boarding": "0", "stop_code": "5749", "stop_lon": "-97.695757", "route_id": "350", "stop_name": "702 Montopolis/Ponca"}, {"stop_timezone": "", "parent_station": "", "direction_id": "1", "stop_url": "https://www.capmetro.org/stopdetail/index.php?stop=3308", "stop_sequence": "28", "stop_id": "3308", "stop_desc": "000900 MONTOPOLIS & FELIX", "location_type": "", "zone_id": "", "stop_lat": "30.235454", "wheelchair_boarding": "0", "stop_code": "3308", "stop_lon": "-97.696831", "route_id": "350", "stop_name": "900 Montopolis/Felix"}, {"stop_timezone": "", "parent_station": "", "direction_id": "1", "stop_url": "https://www.capmetro.org/stopdetail/index.php?stop=3311", "stop_sequence": "28", "stop_id": "3311", "stop_desc": "001814 MONTOPOLIS & KASPER", "location_type": "", "zone_id": "", "stop_lat": "30.225821", "wheelchair_boarding": "0", "stop_code": "3311", "stop_lon": "-97.702985", "route_id": "350", "stop_name": "1814 Montopolis/Kasper"}, {"stop_timezone": "", "parent_station": "", "direction_id": "1", "stop_url": "https://www.capmetro.org/stopdetail/index.php?stop=5191", "stop_sequence": "28", "stop_id": "5191", "stop_desc": "001601 MONTOPOLIS & CADDIE", "location_type": "", "zone_id": "", "stop_lat": "30.227350", "wheelchair_boarding": "0", "stop_code": "5191", "stop_lon": "-97.702007", "route_id": "350", "stop_name": "Montopolis/Caddie"}, {"stop_timezone": "", "parent_station": "", "direction_id": "1", "stop_url": "https://www.capmetro.org/stopdetail/index.php?stop=3311", "stop_sequence": "29", "stop_id": "3311", "stop_desc": "001814 MONTOPOLIS & KASPER", "location_type": "", "zone_id": "", "stop_lat": "30.225821", "wheelchair_boarding": "0", "stop_code": "3311", "stop_lon": "-97.702985", "route_id": "350", "stop_name": "1814 Montopolis/Kasper"}, {"stop_timezone": "", "parent_station": "", "direction_id": "1", "stop_url": "https://www.capmetro.org/stopdetail/index.php?stop=834", "stop_sequence": "29", "stop_id": "834", "stop_desc": "001214 MONTOPOLIS & LARCH", "location_type": "", "zone_id": "", "stop_lat": "30.232434", "wheelchair_boarding": "0", "stop_code": "834", "stop_lon": "-97.698769", "route_id": "350", "stop_name": "1214 Montopolis/Larch"}, {"stop_timezone": "", "parent_station": "", "direction_id": "1", "stop_url": "https://www.capmetro.org/stopdetail/index.php?stop=951", "stop_sequence": "29", "stop_id": "951", "stop_desc": "006000 RIVERSIDE & CLUBVIEW", "location_type": "", "zone_id": "", "stop_lat": "30.226586", "wheelchair_boarding": "0", "stop_code": "951", "stop_lon": "-97.706711", "route_id": "350", "stop_name": "6000 Riverside/Clubview"}, {"stop_timezone": "", "parent_station": "", "direction_id": "1", "stop_url": "https://www.capmetro.org/stopdetail/index.php?stop=3313", "stop_sequence": "3", "stop_id": "3313", "stop_desc": "006015 RIVERSIDE & CLUBVIEW", "location_type": "", "zone_id": "", "stop_lat": "30.226189", "wheelchair_boarding": "0", "stop_code": "3313", "stop_lon": "-97.706440", "route_id": "350", "stop_name": "6015 Riverside/Clubview"}, {"stop_timezone": "", "parent_station": "", "direction_id": "1", "stop_url": "https://www.capmetro.org/stopdetail/index.php?stop=3323", "stop_sequence": "3", "stop_id": "3323", "stop_desc": "003320 973 & 71", "location_type": "", "zone_id": "", "stop_lat": "30.200828", "wheelchair_boarding": "0", "stop_code": "3323", "stop_lon": "-97.640184", "route_id": "350", "stop_name": "3320 FM 973/SH 71"}, {"stop_timezone": "", "parent_station": "", "direction_id": "1", "stop_url": "https://www.capmetro.org/stopdetail/index.php?stop=472", "stop_sequence": "3", "stop_id": "472", "stop_desc": "007520 LAMAR & MORROW", "location_type": "", "zone_id": "", "stop_lat": "30.343163", "wheelchair_boarding": "0", "stop_code": "472", "stop_lon": "-97.715653", "route_id": "350", "stop_name": "7520 Lamar/Morrow"}, {"stop_timezone": "", "parent_station": "", "direction_id": "1", "stop_url": "https://www.capmetro.org/stopdetail/index.php?stop=5510", "stop_sequence": "3", "stop_id": "5510", "stop_desc": "006756 AIRPORT & GUADALUPE", "location_type": "", "zone_id": "", "stop_lat": "30.333155", "wheelchair_boarding": "0", "stop_code": "5510", "stop_lon": "-97.716673", "route_id": "350", "stop_name": "Airport/Guadalupe"}, {"stop_timezone": "", "parent_station": "", "direction_id": "1", "stop_url": "https://www.capmetro.org/stopdetail/index.php?stop=2280", "stop_sequence": "30", "stop_id": "2280", "stop_desc": "001900 GROVE & RIVERSIDE", "location_type": "", "zone_id": "", "stop_lat": "30.228217", "wheelchair_boarding": "0", "stop_code": "2280", "stop_lon": "-97.707046", "route_id": "350", "stop_name": "Grove/Riverside"}, {"stop_timezone": "", "parent_station": "", "direction_id": "1", "stop_url": "https://www.capmetro.org/stopdetail/index.php?stop=3310", "stop_sequence": "30", "stop_id": "3310", "stop_desc": "001412 MONTOPOLIS & MARIGOLD", "location_type": "", "zone_id": "", "stop_lat": "30.229409", "wheelchair_boarding": "0", "stop_code": "3310", "stop_lon": "-97.700695", "route_id": "350", "stop_name": "1412 Montopolis/Marigold"}, {"stop_timezone": "", "parent_station": "", "direction_id": "1", "stop_url": "https://www.capmetro.org/stopdetail/index.php?stop=951", "stop_sequence": "30", "stop_id": "951", "stop_desc": "006000 RIVERSIDE & CLUBVIEW", "location_type": "", "zone_id": "", "stop_lat": "30.226586", "wheelchair_boarding": "0", "stop_code": "951", "stop_lon": "-97.706711", "route_id": "350", "stop_name": "6000 Riverside/Clubview"}, {"stop_timezone": "", "parent_station": "", "direction_id": "1", "stop_url": "https://www.capmetro.org/stopdetail/index.php?stop=2280", "stop_sequence": "31", "stop_id": "2280", "stop_desc": "001900 GROVE & RIVERSIDE", "location_type": "", "zone_id": "", "stop_lat": "30.228217", "wheelchair_boarding": "0", "stop_code": "2280", "stop_lon": "-97.707046", "route_id": "350", "stop_name": "Grove/Riverside"}, {"stop_timezone": "", "parent_station": "", "direction_id": "1", "stop_url": "https://www.capmetro.org/stopdetail/index.php?stop=5043", "stop_sequence": "31", "stop_id": "5043", "stop_desc": "001515 GROVE & FAIRWAY", "location_type": "", "zone_id": "", "stop_lat": "30.230394", "wheelchair_boarding": "0", "stop_code": "5043", "stop_lon": "-97.706160", "route_id": "350", "stop_name": "Grove/Fairway"}, {"stop_timezone": "", "parent_station": "", "direction_id": "1", "stop_url": "https://www.capmetro.org/stopdetail/index.php?stop=5191", "stop_sequence": "31", "stop_id": "5191", "stop_desc": "001601 MONTOPOLIS & CADDIE", "location_type": "", "zone_id": "", "stop_lat": "30.227350", "wheelchair_boarding": "0", "stop_code": "5191", "stop_lon": "-97.702007", "route_id": "350", "stop_name": "Montopolis/Caddie"}, {"stop_timezone": "", "parent_station": "", "direction_id": "1", "stop_url": "https://www.capmetro.org/stopdetail/index.php?stop=3311", "stop_sequence": "32", "stop_id": "3311", "stop_desc": "001814 MONTOPOLIS & KASPER", "location_type": "", "zone_id": "", "stop_lat": "30.225821", "wheelchair_boarding": "0", "stop_code": "3311", "stop_lon": "-97.702985", "route_id": "350", "stop_name": "1814 Montopolis/Kasper"}, {"stop_timezone": "", "parent_station": "", "direction_id": "1", "stop_url": "https://www.capmetro.org/stopdetail/index.php?stop=5043", "stop_sequence": "32", "stop_id": "5043", "stop_desc": "001515 GROVE & FAIRWAY", "location_type": "", "zone_id": "", "stop_lat": "30.230394", "wheelchair_boarding": "0", "stop_code": "5043", "stop_lon": "-97.706160", "route_id": "350", "stop_name": "Grove/Fairway"}, {"stop_timezone": "", "parent_station": "", "direction_id": "1", "stop_url": "https://www.capmetro.org/stopdetail/index.php?stop=953", "stop_sequence": "32", "stop_id": "953", "stop_desc": "001101 GROVE & ACC RIVERSIDE TURNOFF", "location_type": "", "zone_id": "", "stop_lat": "30.235008", "wheelchair_boarding": "0", "stop_code": "953", "stop_lon": "-97.704179", "route_id": "350", "stop_name": "1101 Grove (ACC Riverside)"}, {"stop_timezone": "", "parent_station": "", "direction_id": "1", "stop_url": "https://www.capmetro.org/stopdetail/index.php?stop=831", "stop_sequence": "33", "stop_id": "831", "stop_desc": "001020 ACC & GROVE", "location_type": "", "zone_id": "", "stop_lat": "30.236214", "wheelchair_boarding": "0", "stop_code": "831", "stop_lon": "-97.704856", "route_id": "350", "stop_name": "ACC Riverside Campus Stop"}, {"stop_timezone": "", "parent_station": "", "direction_id": "1", "stop_url": "https://www.capmetro.org/stopdetail/index.php?stop=951", "stop_sequence": "33", "stop_id": "951", "stop_desc": "006000 RIVERSIDE & CLUBVIEW", "location_type": "", "zone_id": "", "stop_lat": "30.226586", "wheelchair_boarding": "0", "stop_code": "951", "stop_lon": "-97.706711", "route_id": "350", "stop_name": "6000 Riverside/Clubview"}, {"stop_timezone": "", "parent_station": "", "direction_id": "1", "stop_url": "https://www.capmetro.org/stopdetail/index.php?stop=953", "stop_sequence": "33", "stop_id": "953", "stop_desc": "001101 GROVE & ACC RIVERSIDE TURNOFF", "location_type": "", "zone_id": "", "stop_lat": "30.235008", "wheelchair_boarding": "0", "stop_code": "953", "stop_lon": "-97.704179", "route_id": "350", "stop_name": "1101 Grove (ACC Riverside)"}, {"stop_timezone": "", "parent_station": "", "direction_id": "1", "stop_url": "https://www.capmetro.org/stopdetail/index.php?stop=2280", "stop_sequence": "34", "stop_id": "2280", "stop_desc": "001900 GROVE & RIVERSIDE", "location_type": "", "zone_id": "", "stop_lat": "30.228217", "wheelchair_boarding": "0", "stop_code": "2280", "stop_lon": "-97.707046", "route_id": "350", "stop_name": "Grove/Riverside"}, {"stop_timezone": "", "parent_station": "", "direction_id": "1", "stop_url": "https://www.capmetro.org/stopdetail/index.php?stop=831", "stop_sequence": "34", "stop_id": "831", "stop_desc": "001020 ACC & GROVE", "location_type": "", "zone_id": "", "stop_lat": "30.236214", "wheelchair_boarding": "0", "stop_code": "831", "stop_lon": "-97.704856", "route_id": "350", "stop_name": "ACC Riverside Campus Stop"}, {"stop_timezone": "", "parent_station": "", "direction_id": "1", "stop_url": "https://www.capmetro.org/stopdetail/index.php?stop=5043", "stop_sequence": "35", "stop_id": "5043", "stop_desc": "001515 GROVE & FAIRWAY", "location_type": "", "zone_id": "", "stop_lat": "30.230394", "wheelchair_boarding": "0", "stop_code": "5043", "stop_lon": "-97.706160", "route_id": "350", "stop_name": "Grove/Fairway"}, {"stop_timezone": "", "parent_station": "", "direction_id": "1", "stop_url": "https://www.capmetro.org/stopdetail/index.php?stop=953", "stop_sequence": "36", "stop_id": "953", "stop_desc": "001101 GROVE & ACC RIVERSIDE TURNOFF", "location_type": "", "zone_id": "", "stop_lat": "30.235008", "wheelchair_boarding": "0", "stop_code": "953", "stop_lon": "-97.704179", "route_id": "350", "stop_name": "1101 Grove (ACC Riverside)"}, {"stop_timezone": "", "parent_station": "", "direction_id": "1", "stop_url": "https://www.capmetro.org/stopdetail/index.php?stop=831", "stop_sequence": "37", "stop_id": "831", "stop_desc": "001020 ACC & GROVE", "location_type": "", "zone_id": "", "stop_lat": "30.236214", "wheelchair_boarding": "0", "stop_code": "831", "stop_lon": "-97.704856", "route_id": "350", "stop_name": "ACC Riverside Campus Stop"}, {"stop_timezone": "", "parent_station": "", "direction_id": "1", "stop_url": "https://www.capmetro.org/stopdetail/index.php?stop=1017", "stop_sequence": "38", "stop_id": "1017", "stop_desc": "001700 GROVE & FAIRWAY", "location_type": "", "zone_id": "", "stop_lat": "30.229539", "wheelchair_boarding": "0", "stop_code": "1017", "stop_lon": "-97.706558", "route_id": "350", "stop_name": "Ruiz Library"}, {"stop_timezone": "", "parent_station": "", "direction_id": "1", "stop_url": "https://www.capmetro.org/stopdetail/index.php?stop=3313", "stop_sequence": "39", "stop_id": "3313", "stop_desc": "006015 RIVERSIDE & CLUBVIEW", "location_type": "", "zone_id": "", "stop_lat": "30.226189", "wheelchair_boarding": "0", "stop_code": "3313", "stop_lon": "-97.706440", "route_id": "350", "stop_name": "6015 Riverside/Clubview"}, {"stop_timezone": "", "parent_station": "", "direction_id": "1", "stop_url": "https://www.capmetro.org/stopdetail/index.php?stop=2877", "stop_sequence": "4", "stop_id": "2877", "stop_desc": "006904 AIRPORT & LAMAR", "location_type": "", "zone_id": "", "stop_lat": "30.336202", "wheelchair_boarding": "0", "stop_code": "2877", "stop_lon": "-97.718247", "route_id": "350", "stop_name": "6904 Airport/Lamar"}, {"stop_timezone": "", "parent_station": "", "direction_id": "1", "stop_url": "https://www.capmetro.org/stopdetail/index.php?stop=3314", "stop_sequence": "4", "stop_id": "3314", "stop_desc": "006200 RIVERSIDE & MONTOPOLIS", "location_type": "", "zone_id": "", "stop_lat": "30.224947", "wheelchair_boarding": "0", "stop_code": "3314", "stop_lon": "-97.703802", "route_id": "350", "stop_name": "Montopolis/Riverside"}, {"stop_timezone": "", "parent_station": "", "direction_id": "1", "stop_url": "https://www.capmetro.org/stopdetail/index.php?stop=3324", "stop_sequence": "4", "stop_id": "3324", "stop_desc": "003518 BILL PRICE & FM 973", "location_type": "", "zone_id": "", "stop_lat": "30.198800", "wheelchair_boarding": "0", "stop_code": "3324", "stop_lon": "-97.642815", "route_id": "350", "stop_name": "3518 Bill Price/FM 973"}, {"stop_timezone": "", "parent_station": "", "direction_id": "1", "stop_url": "https://www.capmetro.org/stopdetail/index.php?stop=5603", "stop_sequence": "4", "stop_id": "5603", "stop_desc": "006402 AIRPORT & HIGHLAND MALL", "location_type": "", "zone_id": "", "stop_lat": "30.328339", "wheelchair_boarding": "0", "stop_code": "5603", "stop_lon": "-97.716081", "route_id": "350", "stop_name": "6402 Airport Blvd (Highland Mall)"}, {"stop_timezone": "", "parent_station": "", "direction_id": "1", "stop_url": "https://www.capmetro.org/stopdetail/index.php?stop=3314", "stop_sequence": "40", "stop_id": "3314", "stop_desc": "006200 RIVERSIDE & MONTOPOLIS", "location_type": "", "zone_id": "", "stop_lat": "30.224947", "wheelchair_boarding": "0", "stop_code": "3314", "stop_lon": "-97.703802", "route_id": "350", "stop_name": "Montopolis/Riverside"}, {"stop_timezone": "", "parent_station": "", "direction_id": "1", "stop_url": "https://www.capmetro.org/stopdetail/index.php?stop=3315", "stop_sequence": "41", "stop_id": "3315", "stop_desc": "006605 RIVERSIDE & VARGAS", "location_type": "", "zone_id": "", "stop_lat": "30.223718", "wheelchair_boarding": "0", "stop_code": "3315", "stop_lon": "-97.700756", "route_id": "350", "stop_name": "6605 Riverside/Vargas"}, {"stop_timezone": "", "parent_station": "", "direction_id": "1", "stop_url": "https://www.capmetro.org/stopdetail/index.php?stop=3316", "stop_sequence": "42", "stop_id": "3316", "stop_desc": "006903 RIVERSIDE & MAXWELL", "location_type": "", "zone_id": "", "stop_lat": "30.222270", "wheelchair_boarding": "0", "stop_code": "3316", "stop_lon": "-97.697493", "route_id": "350", "stop_name": "6903 Riverside/Maxwell"}, {"stop_timezone": "", "parent_station": "", "direction_id": "1", "stop_url": "https://www.capmetro.org/stopdetail/index.php?stop=3317", "stop_sequence": "43", "stop_id": "3317", "stop_desc": "007200 RIVERSIDE & YELLOW JACKET", "location_type": "", "zone_id": "", "stop_lat": "30.220770", "wheelchair_boarding": "0", "stop_code": "3317", "stop_lon": "-97.694749", "route_id": "350", "stop_name": "Riverside/Yellow Jacket"}, {"stop_timezone": "", "parent_station": "", "direction_id": "1", "stop_url": "https://www.capmetro.org/stopdetail/index.php?stop=3318", "stop_sequence": "44", "stop_id": "3318", "stop_desc": "007400 RIVERSIDE & UPHILL", "location_type": "", "zone_id": "", "stop_lat": "30.219599", "wheelchair_boarding": "0", "stop_code": "3318", "stop_lon": "-97.692736", "route_id": "350", "stop_name": "Riverside/Uphill"}, {"stop_timezone": "", "parent_station": "", "direction_id": "1", "stop_url": "https://www.capmetro.org/stopdetail/index.php?stop=5592", "stop_sequence": "45", "stop_id": "5592", "stop_desc": "007900 RIVERSIDE & HOEKE", "location_type": "", "zone_id": "", "stop_lat": "30.215795", "wheelchair_boarding": "0", "stop_code": "5592", "stop_lon": "-97.688718", "route_id": "350", "stop_name": "7900 Riverside/Hoeke"}, {"stop_timezone": "", "parent_station": "", "direction_id": "1", "stop_url": "https://www.capmetro.org/stopdetail/index.php?stop=5593", "stop_sequence": "46", "stop_id": "5593", "stop_desc": "000000 PALMA VERDE & BEN WHITE", "location_type": "", "zone_id": "", "stop_lat": "30.219121", "wheelchair_boarding": "0", "stop_code": "5593", "stop_lon": "-97.687830", "route_id": "350", "stop_name": "Palma Verde/Ben White"}, {"stop_timezone": "", "parent_station": "", "direction_id": "1", "stop_url": "https://www.capmetro.org/stopdetail/index.php?stop=5045", "stop_sequence": "47", "stop_id": "5045", "stop_desc": "002474 SH 71 & PRESIDENTIAL", "location_type": "", "zone_id": "", "stop_lat": "30.212705", "wheelchair_boarding": "0", "stop_code": "5045", "stop_lon": "-97.659090", "route_id": "350", "stop_name": "2474 SH 71/Presidential"}, {"stop_timezone": "", "parent_station": "", "direction_id": "1", "stop_url": "https://www.capmetro.org/stopdetail/index.php?stop=4326", "stop_sequence": "48", "stop_id": "4326", "stop_desc": "003000 PRESIDENTIAL & ABIA LOWER LEVEL", "location_type": "", "zone_id": "", "stop_lat": "30.202744", "wheelchair_boarding": "0", "stop_code": "4326", "stop_lon": "-97.665653", "route_id": "350", "stop_name": "ABIA Lower Level"}, {"stop_timezone": "", "parent_station": "", "direction_id": "1", "stop_url": "https://www.capmetro.org/stopdetail/index.php?stop=5797", "stop_sequence": "49", "stop_id": "5797", "stop_desc": "000000 SH 71 & CHEVIOT", "location_type": "", "zone_id": "", "stop_lat": "30.204687", "wheelchair_boarding": "0", "stop_code": "5797", "stop_lon": "-97.642909", "route_id": "350", "stop_name": "SH 71/Cheviot (EB)"}, {"stop_timezone": "", "parent_station": "", "direction_id": "1", "stop_url": "https://www.capmetro.org/stopdetail/index.php?stop=3238", "stop_sequence": "5", "stop_id": "3238", "stop_desc": "003618 BILL PRICE & FM 973", "location_type": "", "zone_id": "", "stop_lat": "30.197840", "wheelchair_boarding": "0", "stop_code": "3238", "stop_lon": "-97.645546", "route_id": "350", "stop_name": "Travis Correctional Facility"}, {"stop_timezone": "", "parent_station": "", "direction_id": "1", "stop_url": "https://www.capmetro.org/stopdetail/index.php?stop=3315", "stop_sequence": "5", "stop_id": "3315", "stop_desc": "006605 RIVERSIDE & VARGAS", "location_type": "", "zone_id": "", "stop_lat": "30.223718", "wheelchair_boarding": "0", "stop_code": "3315", "stop_lon": "-97.700756", "route_id": "350", "stop_name": "6605 Riverside/Vargas"}, {"stop_timezone": "", "parent_station": "", "direction_id": "1", "stop_url": "https://www.capmetro.org/stopdetail/index.php?stop=5510", "stop_sequence": "5", "stop_id": "5510", "stop_desc": "006756 AIRPORT & GUADALUPE", "location_type": "", "zone_id": "", "stop_lat": "30.333155", "wheelchair_boarding": "0", "stop_code": "5510", "stop_lon": "-97.716673", "route_id": "350", "stop_name": "Airport/Guadalupe"}, {"stop_timezone": "", "parent_station": "", "direction_id": "1", "stop_url": "https://www.capmetro.org/stopdetail/index.php?stop=5625", "stop_sequence": "5", "stop_id": "5625", "stop_desc": "005764 AIRPORT & KOENIG", "location_type": "", "zone_id": "", "stop_lat": "30.321647", "wheelchair_boarding": "0", "stop_code": "5625", "stop_lon": "-97.713950", "route_id": "350", "stop_name": "5789 Airport/Koenig"}, {"stop_timezone": "", "parent_station": "", "direction_id": "1", "stop_url": "https://www.capmetro.org/stopdetail/index.php?stop=3323", "stop_sequence": "50", "stop_id": "3323", "stop_desc": "003320 973 & 71", "location_type": "", "zone_id": "", "stop_lat": "30.200828", "wheelchair_boarding": "0", "stop_code": "3323", "stop_lon": "-97.640184", "route_id": "350", "stop_name": "3320 FM 973/SH 71"}, {"stop_timezone": "", "parent_station": "", "direction_id": "1", "stop_url": "https://www.capmetro.org/stopdetail/index.php?stop=3324", "stop_sequence": "51", "stop_id": "3324", "stop_desc": "003518 BILL PRICE & FM 973", "location_type": "", "zone_id": "", "stop_lat": "30.198800", "wheelchair_boarding": "0", "stop_code": "3324", "stop_lon": "-97.642815", "route_id": "350", "stop_name": "3518 Bill Price/FM 973"}, {"stop_timezone": "", "parent_station": "", "direction_id": "1", "stop_url": "https://www.capmetro.org/stopdetail/index.php?stop=3238", "stop_sequence": "52", "stop_id": "3238", "stop_desc": "003618 BILL PRICE & FM 973", "location_type": "", "zone_id": "", "stop_lat": "30.197840", "wheelchair_boarding": "0", "stop_code": "3238", "stop_lon": "-97.645546", "route_id": "350", "stop_name": "Travis Correctional Facility"}, {"stop_timezone": "", "parent_station": "", "direction_id": "1", "stop_url": "https://www.capmetro.org/stopdetail/index.php?stop=1415", "stop_sequence": "6", "stop_id": "1415", "stop_desc": "006500 JONATHON & HIGHLAND MALL", "location_type": "", "zone_id": "", "stop_lat": "30.328767", "wheelchair_boarding": "0", "stop_code": "1415", "stop_lon": "-97.713056", "route_id": "350", "stop_name": "6500 Jonathan Dr (Highland Mall)"}, {"stop_timezone": "", "parent_station": "", "direction_id": "1", "stop_url": "https://www.capmetro.org/stopdetail/index.php?stop=3316", "stop_sequence": "6", "stop_id": "3316", "stop_desc": "006903 RIVERSIDE & MAXWELL", "location_type": "", "zone_id": "", "stop_lat": "30.222270", "wheelchair_boarding": "0", "stop_code": "3316", "stop_lon": "-97.697493", "route_id": "350", "stop_name": "6903 Riverside/Maxwell"}, {"stop_timezone": "", "parent_station": "", "direction_id": "1", "stop_url": "https://www.capmetro.org/stopdetail/index.php?stop=5372", "stop_sequence": "6", "stop_id": "5372", "stop_desc": "000000 AIRPORT & 56TH", "location_type": "", "zone_id": "", "stop_lat": "30.317870", "wheelchair_boarding": "0", "stop_code": "5372", "stop_lon": "-97.713360", "route_id": "350", "stop_name": "Airport/56th"}, {"stop_timezone": "", "parent_station": "", "direction_id": "1", "stop_url": "https://www.capmetro.org/stopdetail/index.php?stop=3317", "stop_sequence": "7", "stop_id": "3317", "stop_desc": "007200 RIVERSIDE & YELLOW JACKET", "location_type": "", "zone_id": "", "stop_lat": "30.220770", "wheelchair_boarding": "0", "stop_code": "3317", "stop_lon": "-97.694749", "route_id": "350", "stop_name": "Riverside/Yellow Jacket"}, {"stop_timezone": "", "parent_station": "", "direction_id": "1", "stop_url": "https://www.capmetro.org/stopdetail/index.php?stop=5415", "stop_sequence": "7", "stop_id": "5415", "stop_desc": "000000 AIRPORT & 53RD", "location_type": "", "zone_id": "", "stop_lat": "30.314086", "wheelchair_boarding": "0", "stop_code": "5415", "stop_lon": "-97.715128", "route_id": "350", "stop_name": "Airport/53rd"}, {"stop_timezone": "", "parent_station": "", "direction_id": "1", "stop_url": "https://www.capmetro.org/stopdetail/index.php?stop=5603", "stop_sequence": "7", "stop_id": "5603", "stop_desc": "006402 AIRPORT & HIGHLAND MALL", "location_type": "", "zone_id": "", "stop_lat": "30.328339", "wheelchair_boarding": "0", "stop_code": "5603", "stop_lon": "-97.716081", "route_id": "350", "stop_name": "6402 Airport Blvd (Highland Mall)"}, {"stop_timezone": "", "parent_station": "", "direction_id": "1", "stop_url": "https://www.capmetro.org/stopdetail/index.php?stop=3318", "stop_sequence": "8", "stop_id": "3318", "stop_desc": "007400 RIVERSIDE & UPHILL", "location_type": "", "zone_id": "", "stop_lat": "30.219599", "wheelchair_boarding": "0", "stop_code": "3318", "stop_lon": "-97.692736", "route_id": "350", "stop_name": "Riverside/Uphill"}, {"stop_timezone": "", "parent_station": "", "direction_id": "1", "stop_url": "https://www.capmetro.org/stopdetail/index.php?stop=5625", "stop_sequence": "8", "stop_id": "5625", "stop_desc": "005764 AIRPORT & KOENIG", "location_type": "", "zone_id": "", "stop_lat": "30.321647", "wheelchair_boarding": "0", "stop_code": "5625", "stop_lon": "-97.713950", "route_id": "350", "stop_name": "5789 Airport/Koenig"}, {"stop_timezone": "", "parent_station": "", "direction_id": "1", "stop_url": "https://www.capmetro.org/stopdetail/index.php?stop=5684", "stop_sequence": "8", "stop_id": "5684", "stop_desc": "005012 AIRPORT & 51ST", "location_type": "", "zone_id": "", "stop_lat": "30.311595", "wheelchair_boarding": "0", "stop_code": "5684", "stop_lon": "-97.715502", "route_id": "350", "stop_name": "5012 Airport/51st"}, {"stop_timezone": "", "parent_station": "", "direction_id": "1", "stop_url": "https://www.capmetro.org/stopdetail/index.php?stop=3290", "stop_sequence": "9", "stop_id": "3290", "stop_desc": "004600 AIRPORT & 46TH", "location_type": "", "zone_id": "", "stop_lat": "30.305103", "wheelchair_boarding": "0", "stop_code": "3290", "stop_lon": "-97.716029", "route_id": "350", "stop_name": "4600 Airport/46th"}, {"stop_timezone": "", "parent_station": "", "direction_id": "1", "stop_url": "https://www.capmetro.org/stopdetail/index.php?stop=5372", "stop_sequence": "9", "stop_id": "5372", "stop_desc": "000000 AIRPORT & 56TH", "location_type": "", "zone_id": "", "stop_lat": "30.317870", "wheelchair_boarding": "0", "stop_code": "5372", "stop_lon": "-97.713360", "route_id": "350", "stop_name": "Airport/56th"}, {"stop_timezone": "", "parent_station": "", "direction_id": "1", "stop_url": "https://www.capmetro.org/stopdetail/index.php?stop=5592", "stop_sequence": "9", "stop_id": "5592", "stop_desc": "007900 RIVERSIDE & HOEKE", "location_type": "", "zone_id": "", "stop_lat": "30.215795", "wheelchair_boarding": "0", "stop_code": "5592", "stop_lon": "-97.688718", "route_id": "350", "stop_name": "7900 Riverside/Hoeke"}]
