[{"stop_timezone": "", "parent_station": "", "direction_id": "0", "stop_url": "https://www.capmetro.org/stopdetail/index.php?stop=1706", "stop_sequence": "1", "stop_id": "1706", "stop_desc": "003100 RED RIVER & 32ND", "location_type": "", "zone_id": "", "stop_lat": "30.290572", "wheelchair_boarding": "0", "stop_code": "1706", "stop_lon": "-97.727389", "route_id": "110", "stop_name": "3100 Red River/32nd"}, {"stop_timezone": "", "parent_station": "", "direction_id": "0", "stop_url": "https://www.capmetro.org/stopdetail/index.php?stop=4397", "stop_sequence": "1", "stop_id": "4397", "stop_desc": "006800 1ST & WILLIAM CANNON", "location_type": "", "zone_id": "", "stop_lat": "30.196414", "wheelchair_boarding": "0", "stop_code": "4397", "stop_lon": "-97.788391", "route_id": "110", "stop_name": "6800 S 1st/William Cannon"}, {"stop_timezone": "", "parent_station": "", "direction_id": "0", "stop_url": "https://www.capmetro.org/stopdetail/index.php?stop=4626", "stop_sequence": "10", "stop_id": "4626", "stop_desc": "000620 SLAUGHTER & 1ST", "location_type": "", "zone_id": "", "stop_lat": "30.173762", "wheelchair_boarding": "0", "stop_code": "4626", "stop_lon": "-97.801170", "route_id": "110", "stop_name": "Slaughter/1st"}, {"stop_timezone": "", "parent_station": "", "direction_id": "0", "stop_url": "https://www.capmetro.org/stopdetail/index.php?stop=5950", "stop_sequence": "10", "stop_id": "5950", "stop_desc": "000000 GUADALUPE & 8TH", "location_type": "", "zone_id": "", "stop_lat": "30.271503", "wheelchair_boarding": "0", "stop_code": "5950", "stop_lon": "-97.745478", "route_id": "110", "stop_name": "Guadalupe/8th"}, {"stop_timezone": "", "parent_station": "", "direction_id": "0", "stop_url": "https://www.capmetro.org/stopdetail/index.php?stop=2612", "stop_sequence": "11", "stop_id": "2612", "stop_desc": "000500 GUADALUPE & 5TH", "location_type": "", "zone_id": "", "stop_lat": "30.268253", "wheelchair_boarding": "0", "stop_code": "2612", "stop_lon": "-97.746690", "route_id": "110", "stop_name": "500 Guadalupe/5th"}, {"stop_timezone": "", "parent_station": "", "direction_id": "0", "stop_url": "https://www.capmetro.org/stopdetail/index.php?stop=5416", "stop_sequence": "11", "stop_id": "5416", "stop_desc": "000000 SLAUGHTER & SIMONETTI", "location_type": "", "zone_id": "", "stop_lat": "30.174173", "wheelchair_boarding": "0", "stop_code": "5416", "stop_lon": "-97.804467", "route_id": "110", "stop_name": "Slaughter/Simonetti"}, {"stop_timezone": "", "parent_station": "", "direction_id": "0", "stop_url": "https://www.capmetro.org/stopdetail/index.php?stop=1655", "stop_sequence": "12", "stop_id": "1655", "stop_desc": "000400 1ST & RIVERSIDE", "location_type": "", "zone_id": "", "stop_lat": "30.259308", "wheelchair_boarding": "0", "stop_code": "1655", "stop_lon": "-97.749759", "route_id": "110", "stop_name": "400 S 1st/Riverside"}, {"stop_timezone": "", "parent_station": "", "direction_id": "0", "stop_url": "https://www.capmetro.org/stopdetail/index.php?stop=3766", "stop_sequence": "12", "stop_id": "3766", "stop_desc": "000818 SLAUGHTER & PALACE", "location_type": "", "zone_id": "", "stop_lat": "30.174142", "wheelchair_boarding": "0", "stop_code": "3766", "stop_lon": "-97.806358", "route_id": "110", "stop_name": "818 Slaughter/Palace"}, {"stop_timezone": "", "parent_station": "", "direction_id": "0", "stop_url": "https://www.capmetro.org/stopdetail/index.php?stop=1656", "stop_sequence": "13", "stop_id": "1656", "stop_desc": "000500 1ST & BARTON SPRINGS", "location_type": "", "zone_id": "", "stop_lat": "30.258081", "wheelchair_boarding": "0", "stop_code": "1656", "stop_lon": "-97.750396", "route_id": "110", "stop_name": "500 S 1st/Barton Springs"}, {"stop_timezone": "", "parent_station": "", "direction_id": "0", "stop_url": "https://www.capmetro.org/stopdetail/index.php?stop=2933", "stop_sequence": "13", "stop_id": "2933", "stop_desc": "000922 SLAUGHTER & UNITED KINGDOM", "location_type": "", "zone_id": "", "stop_lat": "30.174107", "wheelchair_boarding": "0", "stop_code": "2933", "stop_lon": "-97.809095", "route_id": "110", "stop_name": "Slaughter/United Kingdom"}, {"stop_timezone": "", "parent_station": "", "direction_id": "0", "stop_url": "https://www.capmetro.org/stopdetail/index.php?stop=2623", "stop_sequence": "14", "stop_id": "2623", "stop_desc": "005500 1ST & STASSNEY", "location_type": "", "zone_id": "", "stop_lat": "30.208753", "wheelchair_boarding": "0", "stop_code": "2623", "stop_lon": "-97.781420", "route_id": "110", "stop_name": "5500 S 1st/Stassney"}, {"stop_timezone": "", "parent_station": "", "direction_id": "0", "stop_url": "https://www.capmetro.org/stopdetail/index.php?stop=4409", "stop_sequence": "14", "stop_id": "4409", "stop_desc": "008800 UNITED KINGDOM & MINTURN", "location_type": "", "zone_id": "", "stop_lat": "30.179014", "wheelchair_boarding": "0", "stop_code": "4409", "stop_lon": "-97.808285", "route_id": "110", "stop_name": "United Kingdom/Minturn"}, {"stop_timezone": "", "parent_station": "", "direction_id": "0", "stop_url": "https://www.capmetro.org/stopdetail/index.php?stop=4394", "stop_sequence": "15", "stop_id": "4394", "stop_desc": "005802 1ST & STASSNEY", "location_type": "", "zone_id": "", "stop_lat": "30.205367", "wheelchair_boarding": "0", "stop_code": "4394", "stop_lon": "-97.783150", "route_id": "110", "stop_name": "5802 South 1st/Stassney"}, {"stop_timezone": "", "parent_station": "", "direction_id": "0", "stop_url": "https://www.capmetro.org/stopdetail/index.php?stop=1681", "stop_sequence": "16", "stop_id": "1681", "stop_desc": "006106 1ST & BLUEBERRY", "location_type": "", "zone_id": "", "stop_lat": "30.202421", "wheelchair_boarding": "0", "stop_code": "1681", "stop_lon": "-97.784596", "route_id": "110", "stop_name": "6106 S 1st/Blueberry"}, {"stop_timezone": "", "parent_station": "", "direction_id": "0", "stop_url": "https://www.capmetro.org/stopdetail/index.php?stop=1682", "stop_sequence": "17", "stop_id": "1682", "stop_desc": "006400 1ST & EBERHART", "location_type": "", "zone_id": "", "stop_lat": "30.200712", "wheelchair_boarding": "0", "stop_code": "1682", "stop_lon": "-97.785683", "route_id": "110", "stop_name": "6400 S 1st/Eberhart"}, {"stop_timezone": "", "parent_station": "", "direction_id": "0", "stop_url": "https://www.capmetro.org/stopdetail/index.php?stop=1683", "stop_sequence": "18", "stop_id": "1683", "stop_desc": "006502 1ST & KING EDWARD", "location_type": "", "zone_id": "", "stop_lat": "30.199208", "wheelchair_boarding": "0", "stop_code": "1683", "stop_lon": "-97.786609", "route_id": "110", "stop_name": "6502 S 1st/King Edward"}, {"stop_timezone": "", "parent_station": "", "direction_id": "0", "stop_url": "https://www.capmetro.org/stopdetail/index.php?stop=2640", "stop_sequence": "19", "stop_id": "2640", "stop_desc": "000000 1ST & WILLIAM CANNON", "location_type": "", "zone_id": "", "stop_lat": "30.197336", "wheelchair_boarding": "0", "stop_code": "2640", "stop_lon": "-97.787836", "route_id": "110", "stop_name": "NWC S 1st/William Cannon"}, {"stop_timezone": "", "parent_station": "", "direction_id": "0", "stop_url": "https://www.capmetro.org/stopdetail/index.php?stop=2077", "stop_sequence": "2", "stop_id": "2077", "stop_desc": "000920 DEAN KEETON & RED RIVER", "location_type": "", "zone_id": "", "stop_lat": "30.287579", "wheelchair_boarding": "0", "stop_code": "2077", "stop_lon": "-97.727345", "route_id": "110", "stop_name": "920 Dean Keeton/Red River"}, {"stop_timezone": "", "parent_station": "", "direction_id": "0", "stop_url": "https://www.capmetro.org/stopdetail/index.php?stop=2626", "stop_sequence": "2", "stop_id": "2626", "stop_desc": "006900 1ST & MULBERRY", "location_type": "", "zone_id": "", "stop_lat": "30.193782", "wheelchair_boarding": "0", "stop_code": "2626", "stop_lon": "-97.790034", "route_id": "110", "stop_name": "S. 1st/Mulberry"}, {"stop_timezone": "", "parent_station": "", "direction_id": "0", "stop_url": "https://www.capmetro.org/stopdetail/index.php?stop=4397", "stop_sequence": "20", "stop_id": "4397", "stop_desc": "006800 1ST & WILLIAM CANNON", "location_type": "", "zone_id": "", "stop_lat": "30.196414", "wheelchair_boarding": "0", "stop_code": "4397", "stop_lon": "-97.788391", "route_id": "110", "stop_name": "6800 S 1st/William Cannon"}, {"stop_timezone": "", "parent_station": "", "direction_id": "0", "stop_url": "https://www.capmetro.org/stopdetail/index.php?stop=2626", "stop_sequence": "21", "stop_id": "2626", "stop_desc": "006900 1ST & MULBERRY", "location_type": "", "zone_id": "", "stop_lat": "30.193782", "wheelchair_boarding": "0", "stop_code": "2626", "stop_lon": "-97.790034", "route_id": "110", "stop_name": "S. 1st/Mulberry"}, {"stop_timezone": "", "parent_station": "", "direction_id": "0", "stop_url": "https://www.capmetro.org/stopdetail/index.php?stop=3763", "stop_sequence": "22", "stop_id": "3763", "stop_desc": "007200 1ST & PRINCE VALIANT", "location_type": "", "zone_id": "", "stop_lat": "30.191739", "wheelchair_boarding": "0", "stop_code": "3763", "stop_lon": "-97.790498", "route_id": "110", "stop_name": "7200 S 1st/Prince Valiant"}, {"stop_timezone": "", "parent_station": "", "direction_id": "0", "stop_url": "https://www.capmetro.org/stopdetail/index.php?stop=2627", "stop_sequence": "23", "stop_id": "2627", "stop_desc": "007230 1ST & MEADOW LEA", "location_type": "", "zone_id": "", "stop_lat": "30.190183", "wheelchair_boarding": "0", "stop_code": "2627", "stop_lon": "-97.790570", "route_id": "110", "stop_name": "7230 S 1st/Meadow Lea"}, {"stop_timezone": "", "parent_station": "", "direction_id": "0", "stop_url": "https://www.capmetro.org/stopdetail/index.php?stop=2628", "stop_sequence": "24", "stop_id": "2628", "stop_desc": "007816 1ST & DITTMAR", "location_type": "", "zone_id": "", "stop_lat": "30.184112", "wheelchair_boarding": "0", "stop_code": "2628", "stop_lon": "-97.792603", "route_id": "110", "stop_name": "7816 S 1st/Dittmar"}, {"stop_timezone": "", "parent_station": "", "direction_id": "0", "stop_url": "https://www.capmetro.org/stopdetail/index.php?stop=2629", "stop_sequence": "25", "stop_id": "2629", "stop_desc": "008116 1ST & MAIRO", "location_type": "", "zone_id": "", "stop_lat": "30.181296", "wheelchair_boarding": "0", "stop_code": "2629", "stop_lon": "-97.794775", "route_id": "110", "stop_name": "8116 S 1st/Mairo"}, {"stop_timezone": "", "parent_station": "", "direction_id": "0", "stop_url": "https://www.capmetro.org/stopdetail/index.php?stop=3764", "stop_sequence": "26", "stop_id": "3764", "stop_desc": "008318 1ST & GREAT BRITAIN", "location_type": "", "zone_id": "", "stop_lat": "30.179602", "wheelchair_boarding": "0", "stop_code": "3764", "stop_lon": "-97.796060", "route_id": "110", "stop_name": "8318 S 1st/Great Britain"}, {"stop_timezone": "", "parent_station": "", "direction_id": "0", "stop_url": "https://www.capmetro.org/stopdetail/index.php?stop=4403", "stop_sequence": "27", "stop_id": "4403", "stop_desc": "008600 1ST & HYDE PARK", "location_type": "", "zone_id": "", "stop_lat": "30.176287", "wheelchair_boarding": "0", "stop_code": "4403", "stop_lon": "-97.798140", "route_id": "110", "stop_name": "8600 S 1st/Hyde Park"}, {"stop_timezone": "", "parent_station": "", "direction_id": "0", "stop_url": "https://www.capmetro.org/stopdetail/index.php?stop=4915", "stop_sequence": "28", "stop_id": "4915", "stop_desc": "009000 1ST & SLAUGHTER", "location_type": "", "zone_id": "", "stop_lat": "30.173319", "wheelchair_boarding": "0", "stop_code": "4915", "stop_lon": "-97.799030", "route_id": "110", "stop_name": "9000 S 1st/Slaughter"}, {"stop_timezone": "", "parent_station": "", "direction_id": "0", "stop_url": "https://www.capmetro.org/stopdetail/index.php?stop=4626", "stop_sequence": "29", "stop_id": "4626", "stop_desc": "000620 SLAUGHTER & 1ST", "location_type": "", "zone_id": "", "stop_lat": "30.173762", "wheelchair_boarding": "0", "stop_code": "4626", "stop_lon": "-97.801170", "route_id": "110", "stop_name": "Slaughter/1st"}, {"stop_timezone": "", "parent_station": "", "direction_id": "0", "stop_url": "https://www.capmetro.org/stopdetail/index.php?stop=2757", "stop_sequence": "3", "stop_id": "2757", "stop_desc": "000810 DEAN KEETON & HAMPTON", "location_type": "", "zone_id": "", "stop_lat": "30.289184", "wheelchair_boarding": "0", "stop_code": "2757", "stop_lon": "-97.730013", "route_id": "110", "stop_name": "810 Dean Keeton/Hampton"}, {"stop_timezone": "", "parent_station": "", "direction_id": "0", "stop_url": "https://www.capmetro.org/stopdetail/index.php?stop=3763", "stop_sequence": "3", "stop_id": "3763", "stop_desc": "007200 1ST & PRINCE VALIANT", "location_type": "", "zone_id": "", "stop_lat": "30.191739", "wheelchair_boarding": "0", "stop_code": "3763", "stop_lon": "-97.790498", "route_id": "110", "stop_name": "7200 S 1st/Prince Valiant"}, {"stop_timezone": "", "parent_station": "", "direction_id": "0", "stop_url": "https://www.capmetro.org/stopdetail/index.php?stop=5416", "stop_sequence": "30", "stop_id": "5416", "stop_desc": "000000 SLAUGHTER & SIMONETTI", "location_type": "", "zone_id": "", "stop_lat": "30.174173", "wheelchair_boarding": "0", "stop_code": "5416", "stop_lon": "-97.804467", "route_id": "110", "stop_name": "Slaughter/Simonetti"}, {"stop_timezone": "", "parent_station": "", "direction_id": "0", "stop_url": "https://www.capmetro.org/stopdetail/index.php?stop=3766", "stop_sequence": "31", "stop_id": "3766", "stop_desc": "000818 SLAUGHTER & PALACE", "location_type": "", "zone_id": "", "stop_lat": "30.174142", "wheelchair_boarding": "0", "stop_code": "3766", "stop_lon": "-97.806358", "route_id": "110", "stop_name": "818 Slaughter/Palace"}, {"stop_timezone": "", "parent_station": "", "direction_id": "0", "stop_url": "https://www.capmetro.org/stopdetail/index.php?stop=2933", "stop_sequence": "32", "stop_id": "2933", "stop_desc": "000922 SLAUGHTER & UNITED KINGDOM", "location_type": "", "zone_id": "", "stop_lat": "30.174107", "wheelchair_boarding": "0", "stop_code": "2933", "stop_lon": "-97.809095", "route_id": "110", "stop_name": "Slaughter/United Kingdom"}, {"stop_timezone": "", "parent_station": "", "direction_id": "0", "stop_url": "https://www.capmetro.org/stopdetail/index.php?stop=4409", "stop_sequence": "33", "stop_id": "4409", "stop_desc": "008800 UNITED KINGDOM & MINTURN", "location_type": "", "zone_id": "", "stop_lat": "30.179014", "wheelchair_boarding": "0", "stop_code": "4409", "stop_lon": "-97.808285", "route_id": "110", "stop_name": "United Kingdom/Minturn"}, {"stop_timezone": "", "parent_station": "", "direction_id": "0", "stop_url": "https://www.capmetro.org/stopdetail/index.php?stop=1178", "stop_sequence": "4", "stop_id": "1178", "stop_desc": "002400 SAN JACINTO & 24TH", "location_type": "", "zone_id": "", "stop_lat": "30.287254", "wheelchair_boarding": "0", "stop_code": "1178", "stop_lon": "-97.733663", "route_id": "110", "stop_name": "2400 San Jacinto/24th"}, {"stop_timezone": "", "parent_station": "", "direction_id": "0", "stop_url": "https://www.capmetro.org/stopdetail/index.php?stop=2627", "stop_sequence": "4", "stop_id": "2627", "stop_desc": "007230 1ST & MEADOW LEA", "location_type": "", "zone_id": "", "stop_lat": "30.190183", "wheelchair_boarding": "0", "stop_code": "2627", "stop_lon": "-97.790570", "route_id": "110", "stop_name": "7230 S 1st/Meadow Lea"}, {"stop_timezone": "", "parent_station": "", "direction_id": "0", "stop_url": "https://www.capmetro.org/stopdetail/index.php?stop=1179", "stop_sequence": "5", "stop_id": "1179", "stop_desc": "002300 SAN JACINTO & 23RD", "location_type": "", "zone_id": "", "stop_lat": "30.285506", "wheelchair_boarding": "0", "stop_code": "1179", "stop_lon": "-97.733782", "route_id": "110", "stop_name": "2300 San Jacinto/23rd"}, {"stop_timezone": "", "parent_station": "", "direction_id": "0", "stop_url": "https://www.capmetro.org/stopdetail/index.php?stop=2628", "stop_sequence": "5", "stop_id": "2628", "stop_desc": "007816 1ST & DITTMAR", "location_type": "", "zone_id": "", "stop_lat": "30.184112", "wheelchair_boarding": "0", "stop_code": "2628", "stop_lon": "-97.792603", "route_id": "110", "stop_name": "7816 S 1st/Dittmar"}, {"stop_timezone": "", "parent_station": "", "direction_id": "0", "stop_url": "https://www.capmetro.org/stopdetail/index.php?stop=1180", "stop_sequence": "6", "stop_id": "1180", "stop_desc": "002100 SAN JACINTO & 21ST", "location_type": "", "zone_id": "", "stop_lat": "30.283362", "wheelchair_boarding": "0", "stop_code": "1180", "stop_lon": "-97.734165", "route_id": "110", "stop_name": "2100 San Jacinto/21st"}, {"stop_timezone": "", "parent_station": "", "direction_id": "0", "stop_url": "https://www.capmetro.org/stopdetail/index.php?stop=2629", "stop_sequence": "6", "stop_id": "2629", "stop_desc": "008116 1ST & MAIRO", "location_type": "", "zone_id": "", "stop_lat": "30.181296", "wheelchair_boarding": "0", "stop_code": "2629", "stop_lon": "-97.794775", "route_id": "110", "stop_name": "8116 S 1st/Mairo"}, {"stop_timezone": "", "parent_station": "", "direction_id": "0", "stop_url": "https://www.capmetro.org/stopdetail/index.php?stop=2587", "stop_sequence": "7", "stop_id": "2587", "stop_desc": "001714 CONGRESS & 18TH", "location_type": "", "zone_id": "", "stop_lat": "30.279395", "wheelchair_boarding": "0", "stop_code": "2587", "stop_lon": "-97.738680", "route_id": "110", "stop_name": "1714 Congress/18th"}, {"stop_timezone": "", "parent_station": "", "direction_id": "0", "stop_url": "https://www.capmetro.org/stopdetail/index.php?stop=3764", "stop_sequence": "7", "stop_id": "3764", "stop_desc": "008318 1ST & GREAT BRITAIN", "location_type": "", "zone_id": "", "stop_lat": "30.179602", "wheelchair_boarding": "0", "stop_code": "3764", "stop_lon": "-97.796060", "route_id": "110", "stop_name": "8318 S 1st/Great Britain"}, {"stop_timezone": "", "parent_station": "", "direction_id": "0", "stop_url": "https://www.capmetro.org/stopdetail/index.php?stop=2588", "stop_sequence": "8", "stop_id": "2588", "stop_desc": "001600 CONGRESS & 16TH", "location_type": "", "zone_id": "", "stop_lat": "30.277958", "wheelchair_boarding": "0", "stop_code": "2588", "stop_lon": "-97.739212", "route_id": "110", "stop_name": "1600 Congress/16th"}, {"stop_timezone": "", "parent_station": "", "direction_id": "0", "stop_url": "https://www.capmetro.org/stopdetail/index.php?stop=4403", "stop_sequence": "8", "stop_id": "4403", "stop_desc": "008600 1ST & HYDE PARK", "location_type": "", "zone_id": "", "stop_lat": "30.176287", "wheelchair_boarding": "0", "stop_code": "4403", "stop_lon": "-97.798140", "route_id": "110", "stop_name": "8600 S 1st/Hyde Park"}, {"stop_timezone": "", "parent_station": "", "direction_id": "0", "stop_url": "https://www.capmetro.org/stopdetail/index.php?stop=2738", "stop_sequence": "9", "stop_id": "2738", "stop_desc": "001200 GUADALUPE & 12TH", "location_type": "", "zone_id": "", "stop_lat": "30.275022", "wheelchair_boarding": "0", "stop_code": "2738", "stop_lon": "-97.744169", "route_id": "110", "stop_name": "Capitol Station (SB)"}, {"stop_timezone": "", "parent_station": "", "direction_id": "0", "stop_url": "https://www.capmetro.org/stopdetail/index.php?stop=4915", "stop_sequence": "9", "stop_id": "4915", "stop_desc": "009000 1ST & SLAUGHTER", "location_type": "", "zone_id": "", "stop_lat": "30.173319", "wheelchair_boarding": "0", "stop_code": "4915", "stop_lon": "-97.799030", "route_id": "110", "stop_name": "9000 S 1st/Slaughter"}]
