[{"stop_lat": 30.273662, "stop_timezone": null, "wheelchair_boarding": 0, "stop_code": "632", "direction_id": 0, "stop_lon": -97.69085, "parent_station": null, "route_id": "2", "stop_url": null, "stop_sequence": 1, "stop_id": "632", "stop_desc": "003810 OAK SPRINGS & SPRINGDALE", "stop_name": "3810 OAK SPRINGS/SPRINGDALE", "location_type": null, "platform_code": null, "zone_id": null}, {"stop_lat": 30.273534, "stop_timezone": null, "wheelchair_boarding": 0, "stop_code": "669", "direction_id": 0, "stop_lon": -97.691296, "parent_station": null, "route_id": "2", "stop_url": null, "stop_sequence": 1, "stop_id": "669", "stop_desc": "003800 OAK SPRINGS & SPRINGDALE", "stop_name": "OAK SPRINGS/SPRINGDALE", "location_type": null, "platform_code": null, "zone_id": null}, {"stop_lat": 30.273773, "stop_timezone": null, "wheelchair_boarding": 0, "stop_code": "633", "direction_id": 0, "stop_lon": -97.692771, "parent_station": null, "route_id": "2", "stop_url": null, "stop_sequence": 2, "stop_id": "633", "stop_desc": "003700 OAK SPRINGS & SPRINGDALE", "stop_name": "3700 OAK SPRINGS/SPRINGDALE", "location_type": null, "platform_code": null, "zone_id": null}, {"stop_lat": 30.273803, "stop_timezone": null, "wheelchair_boarding": 0, "stop_code": "670", "direction_id": 0, "stop_lon": -97.689827, "parent_station": null, "route_id": "2", "stop_url": null, "stop_sequence": 2, "stop_id": "670", "stop_desc": "004606 LEDESMA & SPRINGDALE", "stop_name": "LEDESMA/SPRINGDALE", "location_type": null, "platform_code": null, "zone_id": null}, {"stop_lat": 30.273894, "stop_timezone": null, "wheelchair_boarding": 0, "stop_code": "5618", "direction_id": 0, "stop_lon": -97.695063, "parent_station": null, "route_id": "2", "stop_url": null, "stop_sequence": 3, "stop_id": "5618", "stop_desc": "003508 OAK SPRINGS & GUNTER", "stop_name": "3508 OAK SPRINGS/GUNTER", "location_type": null, "platform_code": null, "zone_id": null}, {"stop_lat": 30.272699, "stop_timezone": null, "wheelchair_boarding": 0, "stop_code": "671", "direction_id": 0, "stop_lon": -97.687491, "parent_station": null, "route_id": "2", "stop_url": null, "stop_sequence": 3, "stop_id": "671", "stop_desc": "004903 LEDESMA & MENDOZA", "stop_name": "4903 LEDESMA/MENDOZA", "location_type": null, "platform_code": null, "zone_id": null}, {"stop_lat": 30.27361, "stop_timezone": null, "wheelchair_boarding": 0, "stop_code": "634", "direction_id": 0, "stop_lon": -97.69835, "parent_station": null, "route_id": "2", "stop_url": null, "stop_sequence": 4, "stop_id": "634", "stop_desc": "003200 OAK SPRINGS & AIRPORT", "stop_name": "3200 OAK SPRINGS/AIRPORT", "location_type": null, "platform_code": null, "zone_id": null}, {"stop_lat": 30.271907, "stop_timezone": null, "wheelchair_boarding": 0, "stop_code": "672", "direction_id": 0, "stop_lon": -97.685679, "parent_station": null, "route_id": "2", "stop_url": null, "stop_sequence": 4, "stop_id": "672", "stop_desc": "005100 LEDESMA & RICHARDINE", "stop_name": "LEDESMA/RICHARDINE", "location_type": null, "platform_code": null, "zone_id": null}, {"stop_lat": 30.273206, "stop_timezone": null, "wheelchair_boarding": 0, "stop_code": "5433", "direction_id": 0, "stop_lon": -97.700665, "parent_station": null, "route_id": "2", "stop_url": null, "stop_sequence": 5, "stop_id": "5433", "stop_desc": "003000 OAK SPRINGS & TILLERY", "stop_name": "3000 OAK SPRINGS/TILLERY", "location_type": null, "platform_code": null, "zone_id": null}, {"stop_lat": 30.271221, "stop_timezone": null, "wheelchair_boarding": 0, "stop_code": "673", "direction_id": 0, "stop_lon": -97.684066, "parent_station": null, "route_id": "2", "stop_url": null, "stop_sequence": 5, "stop_id": "673", "stop_desc": "005211 LEDESMA & CESSAL", "stop_name": "LEDESMA/CESSAL", "location_type": null, "platform_code": null, "zone_id": null}, {"stop_lat": 30.270358, "stop_timezone": null, "wheelchair_boarding": 0, "stop_code": "5463", "direction_id": 0, "stop_lon": -97.682095, "parent_station": null, "route_id": "2", "stop_url": null, "stop_sequence": 6, "stop_id": "5463", "stop_desc": "005309 LEDESMA & LOTT", "stop_name": "LEDESMA/LOTT", "location_type": null, "platform_code": null, "zone_id": null}, {"stop_lat": 30.272939, "stop_timezone": null, "wheelchair_boarding": 0, "stop_code": "5464", "direction_id": 0, "stop_lon": -97.70225, "parent_station": null, "route_id": "2", "stop_url": null, "stop_sequence": 6, "stop_id": "5464", "stop_desc": "002810 OAK SPRINGS & WEBBERVILLE", "stop_name": "2810 OAK SPRINGS/WEBBERVILLE", "location_type": null, "platform_code": null, "zone_id": null}, {"stop_lat": 30.26882, "stop_timezone": null, "wheelchair_boarding": 0, "stop_code": "631", "direction_id": 0, "stop_lon": -97.68306, "parent_station": null, "route_id": "2", "stop_url": null, "stop_sequence": 7, "stop_id": "631", "stop_desc": "001020 LOTT & CHICO", "stop_name": "LOTT/CHICO", "location_type": null, "platform_code": null, "zone_id": null}, {"stop_lat": 30.27256, "stop_timezone": null, "wheelchair_boarding": 0, "stop_code": "635", "direction_id": 0, "stop_lon": -97.70457, "parent_station": null, "route_id": "2", "stop_url": null, "stop_sequence": 7, "stop_id": "635", "stop_desc": "002700 OAK SPRINGS & RIDGEWAY", "stop_name": "OAK SPRINGS/RIDGEWAY", "location_type": null, "platform_code": null, "zone_id": null}, {"stop_lat": 30.267656, "stop_timezone": null, "wheelchair_boarding": 0, "stop_code": "3724", "direction_id": 0, "stop_lon": -97.683815, "parent_station": null, "route_id": "2", "stop_url": null, "stop_sequence": 8, "stop_id": "3724", "stop_desc": "001000 LOTT & PROCK", "stop_name": "LOTT/PROCK", "location_type": null, "platform_code": null, "zone_id": null}, {"stop_lat": 30.272509, "stop_timezone": null, "wheelchair_boarding": 0, "stop_code": "636", "direction_id": 0, "stop_lon": -97.706241, "parent_station": null, "route_id": "2", "stop_url": null, "stop_sequence": 8, "stop_id": "636", "stop_desc": "002600 ROSEWOOD & RIDGEWAY", "stop_name": "2600 ROSEWOOD/RIDGEWAY", "location_type": null, "platform_code": null, "zone_id": null}, {"stop_lat": 30.26752, "stop_timezone": null, "wheelchair_boarding": 0, "stop_code": "3725", "direction_id": 0, "stop_lon": -97.68593, "parent_station": null, "route_id": "2", "stop_url": null, "stop_sequence": 9, "stop_id": "3725", "stop_desc": "005200 PROCK & RICHARDINE", "stop_name": "PROCK/RICHARDINE", "location_type": null, "platform_code": null, "zone_id": null}, {"stop_lat": 30.272319, "stop_timezone": null, "wheelchair_boarding": 0, "stop_code": "637", "direction_id": 0, "stop_lon": -97.708296, "parent_station": null, "route_id": "2", "stop_url": null, "stop_sequence": 9, "stop_id": "637", "stop_desc": "002420 ROSEWOOD & BEDFORD", "stop_name": "2420 ROSEWOOD/BEDFORD", "location_type": null, "platform_code": null, "zone_id": null}, {"stop_lat": 30.269099, "stop_timezone": null, "wheelchair_boarding": 0, "stop_code": "3726", "direction_id": 0, "stop_lon": -97.688482, "parent_station": null, "route_id": "2", "stop_url": null, "stop_sequence": 10, "stop_id": "3726", "stop_desc": "005000 SARA & BERGER", "stop_name": "SARA/BERGER", "location_type": null, "platform_code": null, "zone_id": null}, {"stop_lat": 30.27124, "stop_timezone": null, "wheelchair_boarding": 0, "stop_code": "638", "direction_id": 0, "stop_lon": -97.71065, "parent_station": null, "route_id": "2", "stop_url": null, "stop_sequence": 10, "stop_id": "638", "stop_desc": "002370 ROSEWOOD & HARGRAVE", "stop_name": "2370 ROSEWOOD/HARGRAVE", "location_type": null, "platform_code": null, "zone_id": null}, {"stop_lat": 30.271938, "stop_timezone": null, "wheelchair_boarding": 0, "stop_code": "3727", "direction_id": 0, "stop_lon": -97.691014, "parent_station": null, "route_id": "2", "stop_url": null, "stop_sequence": 11, "stop_id": "3727", "stop_desc": "004600 SARA & MAP", "stop_name": "4600 SARA/MAP", "location_type": null, "platform_code": null, "zone_id": null}, {"stop_lat": 30.270419, "stop_timezone": null, "wheelchair_boarding": 0, "stop_code": "3728", "direction_id": 0, "stop_lon": -97.715, "parent_station": null, "route_id": "2", "stop_url": null, "stop_sequence": 11, "stop_id": "3728", "stop_desc": "002300 ROSEWOOD & CHESTNUT", "stop_name": "ROSEWOOD/CHESTNUT", "location_type": null, "platform_code": null, "zone_id": null}, {"stop_lat": 30.270096, "stop_timezone": null, "wheelchair_boarding": 0, "stop_code": "3729", "direction_id": 0, "stop_lon": -97.717001, "parent_station": null, "route_id": "2", "stop_url": null, "stop_sequence": 12, "stop_id": "3729", "stop_desc": "002100 ROSEWOOD & ALAMO", "stop_name": "ROSEWOOD/ALAMO", "location_type": null, "platform_code": null, "zone_id": null}, {"stop_lat": 30.273662, "stop_timezone": null, "wheelchair_boarding": 0, "stop_code": "632", "direction_id": 0, "stop_lon": -97.69085, "parent_station": null, "route_id": "2", "stop_url": null, "stop_sequence": 12, "stop_id": "632", "stop_desc": "003810 OAK SPRINGS & SPRINGDALE", "stop_name": "3810 OAK SPRINGS/SPRINGDALE", "location_type": null, "platform_code": null, "zone_id": null}, {"stop_lat": 30.269698, "stop_timezone": null, "wheelchair_boarding": 0, "stop_code": "4172", "direction_id": 0, "stop_lon": -97.719604, "parent_station": null, "route_id": "2", "stop_url": null, "stop_sequence": 13, "stop_id": "4172", "stop_desc": "001800 ROSEWOOD & CHICON", "stop_name": "ROSEWOOD/CHICON", "location_type": null, "platform_code": null, "zone_id": null}, {"stop_lat": 30.273773, "stop_timezone": null, "wheelchair_boarding": 0, "stop_code": "633", "direction_id": 0, "stop_lon": -97.692771, "parent_station": null, "route_id": "2", "stop_url": null, "stop_sequence": 13, "stop_id": "633", "stop_desc": "003700 OAK SPRINGS & SPRINGDALE", "stop_name": "3700 OAK SPRINGS/SPRINGDALE", "location_type": null, "platform_code": null, "zone_id": null}, {"stop_lat": 30.269427, "stop_timezone": null, "wheelchair_boarding": 0, "stop_code": "4170", "direction_id": 0, "stop_lon": -97.72125, "parent_station": null, "route_id": "2", "stop_url": null, "stop_sequence": 14, "stop_id": "4170", "stop_desc": "001600 ROSEWOOD & LEONA", "stop_name": "ROSEWOOD/LEONA", "location_type": null, "platform_code": null, "zone_id": null}, {"stop_lat": 30.273894, "stop_timezone": null, "wheelchair_boarding": 0, "stop_code": "5618", "direction_id": 0, "stop_lon": -97.695063, "parent_station": null, "route_id": "2", "stop_url": null, "stop_sequence": 14, "stop_id": "5618", "stop_desc": "003508 OAK SPRINGS & GUNTER", "stop_name": "3508 OAK SPRINGS/GUNTER", "location_type": null, "platform_code": null, "zone_id": null}, {"stop_lat": 30.26898, "stop_timezone": null, "wheelchair_boarding": 0, "stop_code": "3730", "direction_id": 0, "stop_lon": -97.72414, "parent_station": null, "route_id": "2", "stop_url": null, "stop_sequence": 15, "stop_id": "3730", "stop_desc": "001422 ROSEWOOD & ANGELINA", "stop_name": "1422 ROSEWOOD/ANGELINA", "location_type": null, "platform_code": null, "zone_id": null}, {"stop_lat": 30.27361, "stop_timezone": null, "wheelchair_boarding": 0, "stop_code": "634", "direction_id": 0, "stop_lon": -97.69835, "parent_station": null, "route_id": "2", "stop_url": null, "stop_sequence": 15, "stop_id": "634", "stop_desc": "003200 OAK SPRINGS & AIRPORT", "stop_name": "3200 OAK SPRINGS/AIRPORT", "location_type": null, "platform_code": null, "zone_id": null}, {"stop_lat": 30.273206, "stop_timezone": null, "wheelchair_boarding": 0, "stop_code": "5433", "direction_id": 0, "stop_lon": -97.700665, "parent_station": null, "route_id": "2", "stop_url": null, "stop_sequence": 16, "stop_id": "5433", "stop_desc": "003000 OAK SPRINGS & TILLERY", "stop_name": "3000 OAK SPRINGS/TILLERY", "location_type": null, "platform_code": null, "zone_id": null}, {"stop_lat": 30.268756, "stop_timezone": null, "wheelchair_boarding": 0, "stop_code": "642", "direction_id": 0, "stop_lon": -97.725507, "parent_station": null, "route_id": "2", "stop_url": null, "stop_sequence": 16, "stop_id": "642", "stop_desc": "001300 ROSEWOOD & SAN BERNARD", "stop_name": "ROSEWOOD/SAN BERNARD", "location_type": null, "platform_code": null, "zone_id": null}, {"stop_lat": 30.2687, "stop_timezone": null, "wheelchair_boarding": 0, "stop_code": "3731", "direction_id": 0, "stop_lon": -97.72763, "parent_station": null, "route_id": "2", "stop_url": null, "stop_sequence": 17, "stop_id": "3731", "stop_desc": "001200 11TH & LYDIA", "stop_name": "1200 11TH/LYDIA", "location_type": null, "platform_code": null, "zone_id": null}, {"stop_lat": 30.272939, "stop_timezone": null, "wheelchair_boarding": 0, "stop_code": "5464", "direction_id": 0, "stop_lon": -97.70225, "parent_station": null, "route_id": "2", "stop_url": null, "stop_sequence": 17, "stop_id": "5464", "stop_desc": "002810 OAK SPRINGS & WEBBERVILLE", "stop_name": "2810 OAK SPRINGS/WEBBERVILLE", "location_type": null, "platform_code": null, "zone_id": null}, {"stop_lat": 30.27, "stop_timezone": null, "wheelchair_boarding": 0, "stop_code": "5496", "direction_id": 0, "stop_lon": -97.73119, "parent_station": null, "route_id": "2", "stop_url": null, "stop_sequence": 18, "stop_id": "5496", "stop_desc": "000904 11TH & BRANCH", "stop_name": "904 11TH/BRANCH", "location_type": null, "platform_code": null, "zone_id": null}, {"stop_lat": 30.27256, "stop_timezone": null, "wheelchair_boarding": 0, "stop_code": "635", "direction_id": 0, "stop_lon": -97.70457, "parent_station": null, "route_id": "2", "stop_url": null, "stop_sequence": 18, "stop_id": "635", "stop_desc": "002700 OAK SPRINGS & RIDGEWAY", "stop_name": "OAK SPRINGS/RIDGEWAY", "location_type": null, "platform_code": null, "zone_id": null}, {"stop_lat": 30.272509, "stop_timezone": null, "wheelchair_boarding": 0, "stop_code": "636", "direction_id": 0, "stop_lon": -97.706241, "parent_station": null, "route_id": "2", "stop_url": null, "stop_sequence": 19, "stop_id": "636", "stop_desc": "002600 ROSEWOOD & RIDGEWAY", "stop_name": "2600 ROSEWOOD/RIDGEWAY", "location_type": null, "platform_code": null, "zone_id": null}, {"stop_lat": 30.27089, "stop_timezone": null, "wheelchair_boarding": 0, "stop_code": "645", "direction_id": 0, "stop_lon": -97.73421, "parent_station": null, "route_id": "2", "stop_url": null, "stop_sequence": 19, "stop_id": "645", "stop_desc": "000700 11TH & SABINE", "stop_name": "E. 11TH/SABINE", "location_type": null, "platform_code": null, "zone_id": null}, {"stop_lat": 30.272292, "stop_timezone": null, "wheelchair_boarding": 0, "stop_code": "5804", "direction_id": 0, "stop_lon": -97.739054, "parent_station": null, "route_id": "2", "stop_url": null, "stop_sequence": 20, "stop_id": "5804", "stop_desc": "000219 11TH & SAN JACINTO", "stop_name": "219 11TH/SAN JACINTO", "location_type": null, "platform_code": null, "zone_id": null}, {"stop_lat": 30.272319, "stop_timezone": null, "wheelchair_boarding": 0, "stop_code": "637", "direction_id": 0, "stop_lon": -97.708296, "parent_station": null, "route_id": "2", "stop_url": null, "stop_sequence": 20, "stop_id": "637", "stop_desc": "002420 ROSEWOOD & BEDFORD", "stop_name": "2420 ROSEWOOD/BEDFORD", "location_type": null, "platform_code": null, "zone_id": null}, {"stop_lat": 30.271503, "stop_timezone": null, "wheelchair_boarding": 0, "stop_code": "5950", "direction_id": 0, "stop_lon": -97.745478, "parent_station": null, "route_id": "2", "stop_url": null, "stop_sequence": 21, "stop_id": "5950", "stop_desc": "000000 GUADALUPE & 8TH", "stop_name": "GUADALUPE/8TH", "location_type": null, "platform_code": null, "zone_id": null}, {"stop_lat": 30.27124, "stop_timezone": null, "wheelchair_boarding": 0, "stop_code": "638", "direction_id": 0, "stop_lon": -97.71065, "parent_station": null, "route_id": "2", "stop_url": null, "stop_sequence": 21, "stop_id": "638", "stop_desc": "002370 ROSEWOOD & HARGRAVE", "stop_name": "2370 ROSEWOOD/HARGRAVE", "location_type": null, "platform_code": null, "zone_id": null}, {"stop_lat": 30.26733, "stop_timezone": null, "wheelchair_boarding": 0, "stop_code": "2613", "direction_id": 0, "stop_lon": -97.74704, "parent_station": null, "route_id": "2", "stop_url": null, "stop_sequence": 22, "stop_id": "2613", "stop_desc": "000400 GUADALUPE & 4TH", "stop_name": "GUADALUPE/4TH", "location_type": null, "platform_code": null, "zone_id": null}, {"stop_lat": 30.270419, "stop_timezone": null, "wheelchair_boarding": 0, "stop_code": "3728", "direction_id": 0, "stop_lon": -97.715, "parent_station": null, "route_id": "2", "stop_url": null, "stop_sequence": 22, "stop_id": "3728", "stop_desc": "002300 ROSEWOOD & CHESTNUT", "stop_name": "ROSEWOOD/CHESTNUT", "location_type": null, "platform_code": null, "zone_id": null}, {"stop_lat": 30.270096, "stop_timezone": null, "wheelchair_boarding": 0, "stop_code": "3729", "direction_id": 0, "stop_lon": -97.717001, "parent_station": null, "route_id": "2", "stop_url": null, "stop_sequence": 23, "stop_id": "3729", "stop_desc": "002100 ROSEWOOD & ALAMO", "stop_name": "ROSEWOOD/ALAMO", "location_type": null, "platform_code": null, "zone_id": null}, {"stop_lat": 30.267243, "stop_timezone": null, "wheelchair_boarding": 0, "stop_code": "5975", "direction_id": 0, "stop_lon": -97.747662, "parent_station": null, "route_id": "2", "stop_url": null, "stop_sequence": 23, "stop_id": "5975", "stop_desc": "000415 4TH & SAN ANTONIO", "stop_name": "415 4TH/SAN ANTONIO", "location_type": null, "platform_code": null, "zone_id": null}, {"stop_lat": 30.269698, "stop_timezone": null, "wheelchair_boarding": 0, "stop_code": "4172", "direction_id": 0, "stop_lon": -97.719604, "parent_station": null, "route_id": "2", "stop_url": null, "stop_sequence": 24, "stop_id": "4172", "stop_desc": "001800 ROSEWOOD & CHICON", "stop_name": "ROSEWOOD/CHICON", "location_type": null, "platform_code": null, "zone_id": null}, {"stop_lat": 30.269427, "stop_timezone": null, "wheelchair_boarding": 0, "stop_code": "4170", "direction_id": 0, "stop_lon": -97.72125, "parent_station": null, "route_id": "2", "stop_url": null, "stop_sequence": 25, "stop_id": "4170", "stop_desc": "001600 ROSEWOOD & LEONA", "stop_name": "ROSEWOOD/LEONA", "location_type": null, "platform_code": null, "zone_id": null}, {"stop_lat": 30.26898, "stop_timezone": null, "wheelchair_boarding": 0, "stop_code": "3730", "direction_id": 0, "stop_lon": -97.72414, "parent_station": null, "route_id": "2", "stop_url": null, "stop_sequence": 26, "stop_id": "3730", "stop_desc": "001422 ROSEWOOD & ANGELINA", "stop_name": "1422 ROSEWOOD/ANGELINA", "location_type": null, "platform_code": null, "zone_id": null}, {"stop_lat": 30.268756, "stop_timezone": null, "wheelchair_boarding": 0, "stop_code": "642", "direction_id": 0, "stop_lon": -97.725507, "parent_station": null, "route_id": "2", "stop_url": null, "stop_sequence": 27, "stop_id": "642", "stop_desc": "001300 ROSEWOOD & SAN BERNARD", "stop_name": "ROSEWOOD/SAN BERNARD", "location_type": null, "platform_code": null, "zone_id": null}, {"stop_lat": 30.2687, "stop_timezone": null, "wheelchair_boarding": 0, "stop_code": "3731", "direction_id": 0, "stop_lon": -97.72763, "parent_station": null, "route_id": "2", "stop_url": null, "stop_sequence": 28, "stop_id": "3731", "stop_desc": "001200 11TH & LYDIA", "stop_name": "1200 11TH/LYDIA", "location_type": null, "platform_code": null, "zone_id": null}, {"stop_lat": 30.27, "stop_timezone": null, "wheelchair_boarding": 0, "stop_code": "5496", "direction_id": 0, "stop_lon": -97.73119, "parent_station": null, "route_id": "2", "stop_url": null, "stop_sequence": 29, "stop_id": "5496", "stop_desc": "000904 11TH & BRANCH", "stop_name": "904 11TH/BRANCH", "location_type": null, "platform_code": null, "zone_id": null}, {"stop_lat": 30.27089, "stop_timezone": null, "wheelchair_boarding": 0, "stop_code": "645", "direction_id": 0, "stop_lon": -97.73421, "parent_station": null, "route_id": "2", "stop_url": null, "stop_sequence": 30, "stop_id": "645", "stop_desc": "000700 11TH & SABINE", "stop_name": "E. 11TH/SABINE", "location_type": null, "platform_code": null, "zone_id": null}, {"stop_lat": 30.272292, "stop_timezone": null, "wheelchair_boarding": 0, "stop_code": "5804", "direction_id": 0, "stop_lon": -97.739054, "parent_station": null, "route_id": "2", "stop_url": null, "stop_sequence": 31, "stop_id": "5804", "stop_desc": "000219 11TH & SAN JACINTO", "stop_name": "219 11TH/SAN JACINTO", "location_type": null, "platform_code": null, "zone_id": null}, {"stop_lat": 30.271503, "stop_timezone": null, "wheelchair_boarding": 0, "stop_code": "5950", "direction_id": 0, "stop_lon": -97.745478, "parent_station": null, "route_id": "2", "stop_url": null, "stop_sequence": 32, "stop_id": "5950", "stop_desc": "000000 GUADALUPE & 8TH", "stop_name": "GUADALUPE/8TH", "location_type": null, "platform_code": null, "zone_id": null}, {"stop_lat": 30.26733, "stop_timezone": null, "wheelchair_boarding": 0, "stop_code": "2613", "direction_id": 0, "stop_lon": -97.74704, "parent_station": null, "route_id": "2", "stop_url": null, "stop_sequence": 33, "stop_id": "2613", "stop_desc": "000400 GUADALUPE & 4TH", "stop_name": "GUADALUPE/4TH", "location_type": null, "platform_code": null, "zone_id": null}, {"stop_lat": 30.267243, "stop_timezone": null, "wheelchair_boarding": 0, "stop_code": "5975", "direction_id": 0, "stop_lon": -97.747662, "parent_station": null, "route_id": "2", "stop_url": null, "stop_sequence": 34, "stop_id": "5975", "stop_desc": "000415 4TH & SAN ANTONIO", "stop_name": "415 4TH/SAN ANTONIO", "location_type": null, "platform_code": null, "zone_id": null}]
