[{"stop_lat": 30.202744, "stop_timezone": null, "wheelchair_boarding": 0, "stop_code": "4326", "direction_id": 1, "stop_lon": -97.665653, "parent_station": null, "route_id": "350", "stop_url": null, "stop_sequence": 1, "stop_id": "4326", "stop_desc": "003000 PRESIDENTIAL & ABIA LOWER LEVEL", "stop_name": "ABIA LOWER LEVEL", "location_type": null, "platform_code": null, "zone_id": null}, {"stop_lat": 30.350167, "stop_timezone": null, "wheelchair_boarding": 0, "stop_code": "5226", "direction_id": 1, "stop_lon": -97.712099, "parent_station": null, "route_id": "350", "stop_url": null, "stop_sequence": 1, "stop_id": "5226", "stop_desc": "07900B RESEARCH & LAMAR", "stop_name": "NORTH LAMAR BAY 2", "location_type": null, "platform_code": null, "zone_id": null}, {"stop_lat": 30.236214, "stop_timezone": null, "wheelchair_boarding": 0, "stop_code": "831", "direction_id": 1, "stop_lon": -97.704856, "parent_station": null, "route_id": "350", "stop_url": null, "stop_sequence": 1, "stop_id": "831", "stop_desc": "001020 ACC & GROVE", "stop_name": "ACC RIVERSIDE CAMPUS STOP", "location_type": null, "platform_code": null, "zone_id": null}, {"stop_lat": 30.22954, "stop_timezone": null, "wheelchair_boarding": 0, "stop_code": "1017", "direction_id": 1, "stop_lon": -97.70656, "parent_station": null, "route_id": "350", "stop_url": null, "stop_sequence": 2, "stop_id": "1017", "stop_desc": "001700 GROVE & FAIRWAY", "stop_name": "RUIZ LIBRARY", "location_type": null, "platform_code": null, "zone_id": null}, {"stop_lat": 30.34604, "stop_timezone": null, "wheelchair_boarding": 0, "stop_code": "471", "direction_id": 1, "stop_lon": -97.71394, "parent_station": null, "route_id": "350", "stop_url": null, "stop_sequence": 2, "stop_id": "471", "stop_desc": "007720 LAMAR & STOBAUGH", "stop_name": "7720 LAMAR/STOBAUGH", "location_type": null, "platform_code": null, "zone_id": null}, {"stop_lat": 30.204687, "stop_timezone": null, "wheelchair_boarding": 0, "stop_code": "5797", "direction_id": 1, "stop_lon": -97.642909, "parent_station": null, "route_id": "350", "stop_url": null, "stop_sequence": 2, "stop_id": "5797", "stop_desc": "000000 SH 71 & CHEVIOT", "stop_name": "SH 71/CHEVIOT (EB)", "location_type": null, "platform_code": null, "zone_id": null}, {"stop_lat": 30.22619, "stop_timezone": null, "wheelchair_boarding": 0, "stop_code": "3313", "direction_id": 1, "stop_lon": -97.70644, "parent_station": null, "route_id": "350", "stop_url": null, "stop_sequence": 3, "stop_id": "3313", "stop_desc": "006015 RIVERSIDE & CLUBVIEW", "stop_name": "6015 RIVERSIDE/CLUBVIEW", "location_type": null, "platform_code": null, "zone_id": null}, {"stop_lat": 30.20065, "stop_timezone": null, "wheelchair_boarding": 0, "stop_code": "3323", "direction_id": 1, "stop_lon": -97.63973, "parent_station": null, "route_id": "350", "stop_url": null, "stop_sequence": 3, "stop_id": "3323", "stop_desc": "003320 FM 973 & SH 71", "stop_name": "3320 FM 973/SH 71", "location_type": null, "platform_code": null, "zone_id": null}, {"stop_lat": 30.343134, "stop_timezone": null, "wheelchair_boarding": 0, "stop_code": "472", "direction_id": 1, "stop_lon": -97.715656, "parent_station": null, "route_id": "350", "stop_url": null, "stop_sequence": 3, "stop_id": "472", "stop_desc": "007520 LAMAR & MORROW", "stop_name": "7520 LAMAR/MORROW", "location_type": null, "platform_code": null, "zone_id": null}, {"stop_lat": 30.336202, "stop_timezone": null, "wheelchair_boarding": 0, "stop_code": "2877", "direction_id": 1, "stop_lon": -97.718247, "parent_station": null, "route_id": "350", "stop_url": null, "stop_sequence": 4, "stop_id": "2877", "stop_desc": "006904 AIRPORT & LAMAR", "stop_name": "6904 AIRPORT/LAMAR", "location_type": null, "platform_code": null, "zone_id": null}, {"stop_lat": 30.22495, "stop_timezone": null, "wheelchair_boarding": 0, "stop_code": "3314", "direction_id": 1, "stop_lon": -97.7038, "parent_station": null, "route_id": "350", "stop_url": null, "stop_sequence": 4, "stop_id": "3314", "stop_desc": "006200 RIVERSIDE & MONTOPOLIS", "stop_name": "MONTOPOLIS/RIVERSIDE", "location_type": null, "platform_code": null, "zone_id": null}, {"stop_lat": 30.1988, "stop_timezone": null, "wheelchair_boarding": 0, "stop_code": "3324", "direction_id": 1, "stop_lon": -97.642815, "parent_station": null, "route_id": "350", "stop_url": null, "stop_sequence": 4, "stop_id": "3324", "stop_desc": "003518 BILL PRICE & FM 973", "stop_name": "3518 BILL PRICE/FM 973", "location_type": null, "platform_code": null, "zone_id": null}, {"stop_lat": 30.19784, "stop_timezone": null, "wheelchair_boarding": 0, "stop_code": "3238", "direction_id": 1, "stop_lon": -97.645546, "parent_station": null, "route_id": "350", "stop_url": null, "stop_sequence": 5, "stop_id": "3238", "stop_desc": "003618 BILL PRICE & FM 973", "stop_name": "TRAVIS CORRECTIONAL FACILITY", "location_type": null, "platform_code": null, "zone_id": null}, {"stop_lat": 30.22372, "stop_timezone": null, "wheelchair_boarding": 0, "stop_code": "3315", "direction_id": 1, "stop_lon": -97.70076, "parent_station": null, "route_id": "350", "stop_url": null, "stop_sequence": 5, "stop_id": "3315", "stop_desc": "006605 RIVERSIDE & VARGAS", "stop_name": "6605 RIVERSIDE/VARGAS", "location_type": null, "platform_code": null, "zone_id": null}, {"stop_lat": 30.333155, "stop_timezone": null, "wheelchair_boarding": 0, "stop_code": "5510", "direction_id": 1, "stop_lon": -97.716673, "parent_station": null, "route_id": "350", "stop_url": null, "stop_sequence": 5, "stop_id": "5510", "stop_desc": "006756 AIRPORT & GUADALUPE", "stop_name": "AIRPORT/GUADALUPE", "location_type": null, "platform_code": null, "zone_id": null}, {"stop_lat": 30.328767, "stop_timezone": null, "wheelchair_boarding": 0, "stop_code": "1415", "direction_id": 1, "stop_lon": -97.713056, "parent_station": null, "route_id": "350", "stop_url": null, "stop_sequence": 6, "stop_id": "1415", "stop_desc": "006500 JONATHON & HIGHLAND MALL", "stop_name": "6500 JONATHAN DR (HIGHLAND MALL)", "location_type": null, "platform_code": null, "zone_id": null}, {"stop_lat": 30.22227, "stop_timezone": null, "wheelchair_boarding": 0, "stop_code": "3316", "direction_id": 1, "stop_lon": -97.69749, "parent_station": null, "route_id": "350", "stop_url": null, "stop_sequence": 6, "stop_id": "3316", "stop_desc": "006903 RIVERSIDE & MAXWELL", "stop_name": "6903 RIVERSIDE/MAXWELL", "location_type": null, "platform_code": null, "zone_id": null}, {"stop_lat": 30.22077, "stop_timezone": null, "wheelchair_boarding": 0, "stop_code": "3317", "direction_id": 1, "stop_lon": -97.69475, "parent_station": null, "route_id": "350", "stop_url": null, "stop_sequence": 7, "stop_id": "3317", "stop_desc": "007200 RIVERSIDE & YELLOW JACKET", "stop_name": "RIVERSIDE/YELLOW JACKET", "location_type": null, "platform_code": null, "zone_id": null}, {"stop_lat": 30.328339, "stop_timezone": null, "wheelchair_boarding": 0, "stop_code": "5603", "direction_id": 1, "stop_lon": -97.716081, "parent_station": null, "route_id": "350", "stop_url": null, "stop_sequence": 7, "stop_id": "5603", "stop_desc": "006402 AIRPORT & HIGHLAND MALL", "stop_name": "6402 AIRPORT BLVD (HIGHLAND MALL)", "location_type": null, "platform_code": null, "zone_id": null}, {"stop_lat": 30.2196, "stop_timezone": null, "wheelchair_boarding": 0, "stop_code": "3318", "direction_id": 1, "stop_lon": -97.69274, "parent_station": null, "route_id": "350", "stop_url": null, "stop_sequence": 8, "stop_id": "3318", "stop_desc": "007400 RIVERSIDE & UPHILL", "stop_name": "RIVERSIDE/UPHILL", "location_type": null, "platform_code": null, "zone_id": null}, {"stop_lat": 30.321647, "stop_timezone": null, "wheelchair_boarding": 0, "stop_code": "5625", "direction_id": 1, "stop_lon": -97.71395, "parent_station": null, "route_id": "350", "stop_url": null, "stop_sequence": 8, "stop_id": "5625", "stop_desc": "005764 AIRPORT & KOENIG", "stop_name": "5789 AIRPORT/KOENIG", "location_type": null, "platform_code": null, "zone_id": null}, {"stop_lat": 30.31787, "stop_timezone": null, "wheelchair_boarding": 0, "stop_code": "5372", "direction_id": 1, "stop_lon": -97.71336, "parent_station": null, "route_id": "350", "stop_url": null, "stop_sequence": 9, "stop_id": "5372", "stop_desc": "000000 AIRPORT & 56TH", "stop_name": "AIRPORT/56TH", "location_type": null, "platform_code": null, "zone_id": null}, {"stop_lat": 30.2158, "stop_timezone": null, "wheelchair_boarding": 0, "stop_code": "5592", "direction_id": 1, "stop_lon": -97.68872, "parent_station": null, "route_id": "350", "stop_url": null, "stop_sequence": 9, "stop_id": "5592", "stop_desc": "007900 RIVERSIDE & HOEKE", "stop_name": "7900 RIVERSIDE/HOEKE", "location_type": null, "platform_code": null, "zone_id": null}, {"stop_lat": 30.31409, "stop_timezone": null, "wheelchair_boarding": 0, "stop_code": "5415", "direction_id": 1, "stop_lon": -97.71513, "parent_station": null, "route_id": "350", "stop_url": null, "stop_sequence": 10, "stop_id": "5415", "stop_desc": "000000 AIRPORT & 53RD", "stop_name": "AIRPORT/53RD", "location_type": null, "platform_code": null, "zone_id": null}, {"stop_lat": 30.21912, "stop_timezone": null, "wheelchair_boarding": 0, "stop_code": "5593", "direction_id": 1, "stop_lon": -97.68783, "parent_station": null, "route_id": "350", "stop_url": null, "stop_sequence": 10, "stop_id": "5593", "stop_desc": "000000 PALMA VERDE & BEN WHITE", "stop_name": "PALMA VERDE/BEN WHITE", "location_type": null, "platform_code": null, "zone_id": null}, {"stop_lat": 30.212705, "stop_timezone": null, "wheelchair_boarding": 0, "stop_code": "5045", "direction_id": 1, "stop_lon": -97.65909, "parent_station": null, "route_id": "350", "stop_url": null, "stop_sequence": 11, "stop_id": "5045", "stop_desc": "002474 SH 71 & PRESIDENTIAL", "stop_name": "2474 SH 71/PRESIDENTIAL", "location_type": null, "platform_code": null, "zone_id": null}, {"stop_lat": 30.311595, "stop_timezone": null, "wheelchair_boarding": 0, "stop_code": "5684", "direction_id": 1, "stop_lon": -97.715502, "parent_station": null, "route_id": "350", "stop_url": null, "stop_sequence": 11, "stop_id": "5684", "stop_desc": "005012 AIRPORT & 51ST", "stop_name": "5012 AIRPORT/51ST", "location_type": null, "platform_code": null, "zone_id": null}, {"stop_lat": 30.3051, "stop_timezone": null, "wheelchair_boarding": 0, "stop_code": "3290", "direction_id": 1, "stop_lon": -97.71603, "parent_station": null, "route_id": "350", "stop_url": null, "stop_sequence": 12, "stop_id": "3290", "stop_desc": "004600 AIRPORT & 46TH", "stop_name": "4600 AIRPORT/46TH", "location_type": null, "platform_code": null, "zone_id": null}, {"stop_lat": 30.202744, "stop_timezone": null, "wheelchair_boarding": 0, "stop_code": "4326", "direction_id": 1, "stop_lon": -97.665653, "parent_station": null, "route_id": "350", "stop_url": null, "stop_sequence": 12, "stop_id": "4326", "stop_desc": "003000 PRESIDENTIAL & ABIA LOWER LEVEL", "stop_name": "ABIA LOWER LEVEL", "location_type": null, "platform_code": null, "zone_id": null}, {"stop_lat": 30.29991, "stop_timezone": null, "wheelchair_boarding": 0, "stop_code": "3291", "direction_id": 1, "stop_lon": -97.71214, "parent_station": null, "route_id": "350", "stop_url": null, "stop_sequence": 13, "stop_id": "3291", "stop_desc": "004328 AIRPORT & CRESTWOOD", "stop_name": "4328 AIRPORT/CRESTWOOD", "location_type": null, "platform_code": null, "zone_id": null}, {"stop_lat": 30.204687, "stop_timezone": null, "wheelchair_boarding": 0, "stop_code": "5797", "direction_id": 1, "stop_lon": -97.642909, "parent_station": null, "route_id": "350", "stop_url": null, "stop_sequence": 13, "stop_id": "5797", "stop_desc": "000000 SH 71 & CHEVIOT", "stop_name": "SH 71/CHEVIOT (EB)", "location_type": null, "platform_code": null, "zone_id": null}, {"stop_lat": 30.20065, "stop_timezone": null, "wheelchair_boarding": 0, "stop_code": "3323", "direction_id": 1, "stop_lon": -97.63973, "parent_station": null, "route_id": "350", "stop_url": null, "stop_sequence": 14, "stop_id": "3323", "stop_desc": "003320 FM 973 & SH 71", "stop_name": "3320 FM 973/SH 71", "location_type": null, "platform_code": null, "zone_id": null}, {"stop_lat": 30.297973, "stop_timezone": null, "wheelchair_boarding": 0, "stop_code": "5796", "direction_id": 1, "stop_lon": -97.709321, "parent_station": null, "route_id": "350", "stop_url": null, "stop_sequence": 14, "stop_id": "5796", "stop_desc": "004300 AIRPORT & WILSHIRE", "stop_name": "4300 AIRPORT/WILSHIRE", "location_type": null, "platform_code": null, "zone_id": null}, {"stop_lat": 30.288136, "stop_timezone": null, "wheelchair_boarding": 0, "stop_code": "3293", "direction_id": 1, "stop_lon": -97.707262, "parent_station": null, "route_id": "350", "stop_url": null, "stop_sequence": 15, "stop_id": "3293", "stop_desc": "003822 AIRPORT & 38TH HALF", "stop_name": "3822 AIRPORT/38TH HALF", "location_type": null, "platform_code": null, "zone_id": null}, {"stop_lat": 30.1988, "stop_timezone": null, "wheelchair_boarding": 0, "stop_code": "3324", "direction_id": 1, "stop_lon": -97.642815, "parent_station": null, "route_id": "350", "stop_url": null, "stop_sequence": 15, "stop_id": "3324", "stop_desc": "003518 BILL PRICE & FM 973", "stop_name": "3518 BILL PRICE/FM 973", "location_type": null, "platform_code": null, "zone_id": null}, {"stop_lat": 30.19784, "stop_timezone": null, "wheelchair_boarding": 0, "stop_code": "3238", "direction_id": 1, "stop_lon": -97.645546, "parent_station": null, "route_id": "350", "stop_url": null, "stop_sequence": 16, "stop_id": "3238", "stop_desc": "003618 BILL PRICE & FM 973", "stop_name": "TRAVIS CORRECTIONAL FACILITY", "location_type": null, "platform_code": null, "zone_id": null}, {"stop_lat": 30.285561, "stop_timezone": null, "wheelchair_boarding": 0, "stop_code": "3295", "direction_id": 1, "stop_lon": -97.706075, "parent_station": null, "route_id": "350", "stop_url": null, "stop_sequence": 16, "stop_id": "3295", "stop_desc": "002204 AIRPORT & MANOR", "stop_name": "2204 AIRPORT/MANOR", "location_type": null, "platform_code": null, "zone_id": null}, {"stop_lat": 30.28269, "stop_timezone": null, "wheelchair_boarding": 0, "stop_code": "3296", "direction_id": 1, "stop_lon": -97.70422, "parent_station": null, "route_id": "350", "stop_url": null, "stop_sequence": 17, "stop_id": "3296", "stop_desc": "001900 AIRPORT & MARTIN LUTHER KING", "stop_name": "1900 AIRPORT/MARTIN LUTHER KING", "location_type": null, "platform_code": null, "zone_id": null}, {"stop_lat": 30.27252, "stop_timezone": null, "wheelchair_boarding": 0, "stop_code": "3299", "direction_id": 1, "stop_lon": -97.69775, "parent_station": null, "route_id": "350", "stop_url": null, "stop_sequence": 17, "stop_id": "3299", "stop_desc": "001144 AIRPORT & OAK SPRINGS", "stop_name": "1144 AIRPORT/OAK SPRINGS", "location_type": null, "platform_code": null, "zone_id": null}, {"stop_lat": 30.27903, "stop_timezone": null, "wheelchair_boarding": 0, "stop_code": "3297", "direction_id": 1, "stop_lon": -97.70194, "parent_station": null, "route_id": "350", "stop_url": null, "stop_sequence": 18, "stop_id": "3297", "stop_desc": "001400 AIRPORT & 14TH HALF", "stop_name": "1400 AIRPORT/14TH HALF", "location_type": null, "platform_code": null, "zone_id": null}, {"stop_lat": 30.26833, "stop_timezone": null, "wheelchair_boarding": 0, "stop_code": "3300", "direction_id": 1, "stop_lon": -97.69643, "parent_station": null, "route_id": "350", "stop_url": null, "stop_sequence": 18, "stop_id": "3300", "stop_desc": "001134 AIRPORT & GOODWIN", "stop_name": "1134 AIRPORT/GOODWIN", "location_type": null, "platform_code": null, "zone_id": null}, {"stop_lat": 30.27649, "stop_timezone": null, "wheelchair_boarding": 0, "stop_code": "3298", "direction_id": 1, "stop_lon": -97.70021, "parent_station": null, "route_id": "350", "stop_url": null, "stop_sequence": 19, "stop_id": "3298", "stop_desc": "001198 AIRPORT & 12TH", "stop_name": "1198 AIRPORT/12TH", "location_type": null, "platform_code": null, "zone_id": null}, {"stop_lat": 30.26491, "stop_timezone": null, "wheelchair_boarding": 0, "stop_code": "5100", "direction_id": 1, "stop_lon": -97.69545, "parent_station": null, "route_id": "350", "stop_url": null, "stop_sequence": 19, "stop_id": "5100", "stop_desc": "001120 AIRPORT & SPRINGDALE", "stop_name": "1120 AIRPORT/SPRINGDALE", "location_type": null, "platform_code": null, "zone_id": null}, {"stop_lat": 30.27252, "stop_timezone": null, "wheelchair_boarding": 0, "stop_code": "3299", "direction_id": 1, "stop_lon": -97.69775, "parent_station": null, "route_id": "350", "stop_url": null, "stop_sequence": 20, "stop_id": "3299", "stop_desc": "001144 AIRPORT & OAK SPRINGS", "stop_name": "1144 AIRPORT/OAK SPRINGS", "location_type": null, "platform_code": null, "zone_id": null}, {"stop_lat": 30.25936, "stop_timezone": null, "wheelchair_boarding": 0, "stop_code": "3302", "direction_id": 1, "stop_lon": -97.69377, "parent_station": null, "route_id": "350", "stop_url": null, "stop_sequence": 20, "stop_id": "3302", "stop_desc": "1000 AIRPORT & SHADY", "stop_name": "AIRPORT/SHADY LANE", "location_type": null, "platform_code": null, "zone_id": null}, {"stop_lat": 30.26833, "stop_timezone": null, "wheelchair_boarding": 0, "stop_code": "3300", "direction_id": 1, "stop_lon": -97.69643, "parent_station": null, "route_id": "350", "stop_url": null, "stop_sequence": 21, "stop_id": "3300", "stop_desc": "001134 AIRPORT & GOODWIN", "stop_name": "1134 AIRPORT/GOODWIN", "location_type": null, "platform_code": null, "zone_id": null}, {"stop_lat": 30.25446, "stop_timezone": null, "wheelchair_boarding": 0, "stop_code": "3303", "direction_id": 1, "stop_lon": -97.6928, "parent_station": null, "route_id": "350", "stop_url": null, "stop_sequence": 21, "stop_id": "3303", "stop_desc": "000760 AIRPORT & GLISSMAN", "stop_name": "760 AIRPORT/GLISSMAN", "location_type": null, "platform_code": null, "zone_id": null}, {"stop_lat": 30.242008, "stop_timezone": null, "wheelchair_boarding": 0, "stop_code": "3304", "direction_id": 1, "stop_lon": -97.692486, "parent_station": null, "route_id": "350", "stop_url": null, "stop_sequence": 22, "stop_id": "3304", "stop_desc": "000302 MONTOPOLIS & DEL MONTE", "stop_name": "302 MONTOPOLIS/DEL MONTE", "location_type": null, "platform_code": null, "zone_id": null}, {"stop_lat": 30.26491, "stop_timezone": null, "wheelchair_boarding": 0, "stop_code": "5100", "direction_id": 1, "stop_lon": -97.69545, "parent_station": null, "route_id": "350", "stop_url": null, "stop_sequence": 22, "stop_id": "5100", "stop_desc": "001120 AIRPORT & SPRINGDALE", "stop_name": "1120 AIRPORT/SPRINGDALE", "location_type": null, "platform_code": null, "zone_id": null}, {"stop_lat": 30.25936, "stop_timezone": null, "wheelchair_boarding": 0, "stop_code": "3302", "direction_id": 1, "stop_lon": -97.69377, "parent_station": null, "route_id": "350", "stop_url": null, "stop_sequence": 23, "stop_id": "3302", "stop_desc": "1000 AIRPORT & SHADY", "stop_name": "AIRPORT/SHADY LANE", "location_type": null, "platform_code": null, "zone_id": null}, {"stop_lat": 30.238732, "stop_timezone": null, "wheelchair_boarding": 0, "stop_code": "3306", "direction_id": 1, "stop_lon": -97.694736, "parent_station": null, "route_id": "350", "stop_url": null, "stop_sequence": 23, "stop_id": "3306", "stop_desc": "000600 MONTOPOLIS & WALKER", "stop_name": "MONTOPOLIS/WALKER", "location_type": null, "platform_code": null, "zone_id": null}, {"stop_lat": 30.25446, "stop_timezone": null, "wheelchair_boarding": 0, "stop_code": "3303", "direction_id": 1, "stop_lon": -97.6928, "parent_station": null, "route_id": "350", "stop_url": null, "stop_sequence": 24, "stop_id": "3303", "stop_desc": "000760 AIRPORT & GLISSMAN", "stop_name": "760 AIRPORT/GLISSMAN", "location_type": null, "platform_code": null, "zone_id": null}, {"stop_lat": 30.237009, "stop_timezone": null, "wheelchair_boarding": 0, "stop_code": "5749", "direction_id": 1, "stop_lon": -97.695757, "parent_station": null, "route_id": "350", "stop_url": null, "stop_sequence": 24, "stop_id": "5749", "stop_desc": "000702 MONTOPOLIS & PONCA", "stop_name": "702 MONTOPOLIS/PONCA", "location_type": null, "platform_code": null, "zone_id": null}, {"stop_lat": 30.242008, "stop_timezone": null, "wheelchair_boarding": 0, "stop_code": "3304", "direction_id": 1, "stop_lon": -97.692486, "parent_station": null, "route_id": "350", "stop_url": null, "stop_sequence": 25, "stop_id": "3304", "stop_desc": "000302 MONTOPOLIS & DEL MONTE", "stop_name": "302 MONTOPOLIS/DEL MONTE", "location_type": null, "platform_code": null, "zone_id": null}, {"stop_lat": 30.235454, "stop_timezone": null, "wheelchair_boarding": 0, "stop_code": "3308", "direction_id": 1, "stop_lon": -97.696831, "parent_station": null, "route_id": "350", "stop_url": null, "stop_sequence": 25, "stop_id": "3308", "stop_desc": "000900 MONTOPOLIS & FELIX", "stop_name": "900 MONTOPOLIS/FELIX", "location_type": null, "platform_code": null, "zone_id": null}, {"stop_lat": 30.238732, "stop_timezone": null, "wheelchair_boarding": 0, "stop_code": "3306", "direction_id": 1, "stop_lon": -97.694736, "parent_station": null, "route_id": "350", "stop_url": null, "stop_sequence": 26, "stop_id": "3306", "stop_desc": "000600 MONTOPOLIS & WALKER", "stop_name": "MONTOPOLIS/WALKER", "location_type": null, "platform_code": null, "zone_id": null}, {"stop_lat": 30.229409, "stop_timezone": null, "wheelchair_boarding": 0, "stop_code": "3310", "direction_id": 1, "stop_lon": -97.700695, "parent_station": null, "route_id": "350", "stop_url": null, "stop_sequence": 26, "stop_id": "3310", "stop_desc": "001412 MONTOPOLIS & MARIGOLD", "stop_name": "1412 MONTOPOLIS/MARIGOLD", "location_type": null, "platform_code": null, "zone_id": null}, {"stop_lat": 30.22735, "stop_timezone": null, "wheelchair_boarding": 0, "stop_code": "5191", "direction_id": 1, "stop_lon": -97.702007, "parent_station": null, "route_id": "350", "stop_url": null, "stop_sequence": 27, "stop_id": "5191", "stop_desc": "001601 MONTOPOLIS & CADDIE", "stop_name": "MONTOPOLIS/CADDIE", "location_type": null, "platform_code": null, "zone_id": null}, {"stop_lat": 30.237009, "stop_timezone": null, "wheelchair_boarding": 0, "stop_code": "5749", "direction_id": 1, "stop_lon": -97.695757, "parent_station": null, "route_id": "350", "stop_url": null, "stop_sequence": 27, "stop_id": "5749", "stop_desc": "000702 MONTOPOLIS & PONCA", "stop_name": "702 MONTOPOLIS/PONCA", "location_type": null, "platform_code": null, "zone_id": null}, {"stop_lat": 30.235454, "stop_timezone": null, "wheelchair_boarding": 0, "stop_code": "3308", "direction_id": 1, "stop_lon": -97.696831, "parent_station": null, "route_id": "350", "stop_url": null, "stop_sequence": 28, "stop_id": "3308", "stop_desc": "000900 MONTOPOLIS & FELIX", "stop_name": "900 MONTOPOLIS/FELIX", "location_type": null, "platform_code": null, "zone_id": null}, {"stop_lat": 30.225821, "stop_timezone": null, "wheelchair_boarding": 0, "stop_code": "3311", "direction_id": 1, "stop_lon": -97.702985, "parent_station": null, "route_id": "350", "stop_url": null, "stop_sequence": 28, "stop_id": "3311", "stop_desc": "001814 MONTOPOLIS & KASPER", "stop_name": "1814 MONTOPOLIS/KASPER", "location_type": null, "platform_code": null, "zone_id": null}, {"stop_lat": 30.232434, "stop_timezone": null, "wheelchair_boarding": 0, "stop_code": "834", "direction_id": 1, "stop_lon": -97.698769, "parent_station": null, "route_id": "350", "stop_url": null, "stop_sequence": 29, "stop_id": "834", "stop_desc": "001214 MONTOPOLIS & LARCH", "stop_name": "1214 MONTOPOLIS/LARCH", "location_type": null, "platform_code": null, "zone_id": null}, {"stop_lat": 30.22659, "stop_timezone": null, "wheelchair_boarding": 0, "stop_code": "951", "direction_id": 1, "stop_lon": -97.70671, "parent_station": null, "route_id": "350", "stop_url": null, "stop_sequence": 29, "stop_id": "951", "stop_desc": "006000 RIVERSIDE & CLUBVIEW", "stop_name": "6000 RIVERSIDE/CLUBVIEW", "location_type": null, "platform_code": null, "zone_id": null}, {"stop_lat": 30.22822, "stop_timezone": null, "wheelchair_boarding": 0, "stop_code": "2280", "direction_id": 1, "stop_lon": -97.70705, "parent_station": null, "route_id": "350", "stop_url": null, "stop_sequence": 30, "stop_id": "2280", "stop_desc": "001900 GROVE & RIVERSIDE", "stop_name": "GROVE/RIVERSIDE", "location_type": null, "platform_code": null, "zone_id": null}, {"stop_lat": 30.229409, "stop_timezone": null, "wheelchair_boarding": 0, "stop_code": "3310", "direction_id": 1, "stop_lon": -97.700695, "parent_station": null, "route_id": "350", "stop_url": null, "stop_sequence": 30, "stop_id": "3310", "stop_desc": "001412 MONTOPOLIS & MARIGOLD", "stop_name": "1412 MONTOPOLIS/MARIGOLD", "location_type": null, "platform_code": null, "zone_id": null}, {"stop_lat": 30.23039, "stop_timezone": null, "wheelchair_boarding": 0, "stop_code": "5043", "direction_id": 1, "stop_lon": -97.70616, "parent_station": null, "route_id": "350", "stop_url": null, "stop_sequence": 31, "stop_id": "5043", "stop_desc": "001515 GROVE & FAIRWAY", "stop_name": "GROVE/FAIRWAY", "location_type": null, "platform_code": null, "zone_id": null}, {"stop_lat": 30.22735, "stop_timezone": null, "wheelchair_boarding": 0, "stop_code": "5191", "direction_id": 1, "stop_lon": -97.702007, "parent_station": null, "route_id": "350", "stop_url": null, "stop_sequence": 31, "stop_id": "5191", "stop_desc": "001601 MONTOPOLIS & CADDIE", "stop_name": "MONTOPOLIS/CADDIE", "location_type": null, "platform_code": null, "zone_id": null}, {"stop_lat": 30.225821, "stop_timezone": null, "wheelchair_boarding": 0, "stop_code": "3311", "direction_id": 1, "stop_lon": -97.702985, "parent_station": null, "route_id": "350", "stop_url": null, "stop_sequence": 32, "stop_id": "3311", "stop_desc": "001814 MONTOPOLIS & KASPER", "stop_name": "1814 MONTOPOLIS/KASPER", "location_type": null, "platform_code": null, "zone_id": null}, {"stop_lat": 30.235008, "stop_timezone": null, "wheelchair_boarding": 0, "stop_code": "953", "direction_id": 1, "stop_lon": -97.704179, "parent_station": null, "route_id": "350", "stop_url": null, "stop_sequence": 32, "stop_id": "953", "stop_desc": "001101 GROVE & ACC RIVERSIDE TURNOFF", "stop_name": "1101 GROVE (ACC RIVERSIDE)", "location_type": null, "platform_code": null, "zone_id": null}, {"stop_lat": 30.236214, "stop_timezone": null, "wheelchair_boarding": 0, "stop_code": "831", "direction_id": 1, "stop_lon": -97.704856, "parent_station": null, "route_id": "350", "stop_url": null, "stop_sequence": 33, "stop_id": "831", "stop_desc": "001020 ACC & GROVE", "stop_name": "ACC RIVERSIDE CAMPUS STOP", "location_type": null, "platform_code": null, "zone_id": null}, {"stop_lat": 30.22659, "stop_timezone": null, "wheelchair_boarding": 0, "stop_code": "951", "direction_id": 1, "stop_lon": -97.70671, "parent_station": null, "route_id": "350", "stop_url": null, "stop_sequence": 33, "stop_id": "951", "stop_desc": "006000 RIVERSIDE & CLUBVIEW", "stop_name": "6000 RIVERSIDE/CLUBVIEW", "location_type": null, "platform_code": null, "zone_id": null}, {"stop_lat": 30.22822, "stop_timezone": null, "wheelchair_boarding": 0, "stop_code": "2280", "direction_id": 1, "stop_lon": -97.70705, "parent_station": null, "route_id": "350", "stop_url": null, "stop_sequence": 34, "stop_id": "2280", "stop_desc": "001900 GROVE & RIVERSIDE", "stop_name": "GROVE/RIVERSIDE", "location_type": null, "platform_code": null, "zone_id": null}, {"stop_lat": 30.23039, "stop_timezone": null, "wheelchair_boarding": 0, "stop_code": "5043", "direction_id": 1, "stop_lon": -97.70616, "parent_station": null, "route_id": "350", "stop_url": null, "stop_sequence": 35, "stop_id": "5043", "stop_desc": "001515 GROVE & FAIRWAY", "stop_name": "GROVE/FAIRWAY", "location_type": null, "platform_code": null, "zone_id": null}, {"stop_lat": 30.235008, "stop_timezone": null, "wheelchair_boarding": 0, "stop_code": "953", "direction_id": 1, "stop_lon": -97.704179, "parent_station": null, "route_id": "350", "stop_url": null, "stop_sequence": 36, "stop_id": "953", "stop_desc": "001101 GROVE & ACC RIVERSIDE TURNOFF", "stop_name": "1101 GROVE (ACC RIVERSIDE)", "location_type": null, "platform_code": null, "zone_id": null}, {"stop_lat": 30.236214, "stop_timezone": null, "wheelchair_boarding": 0, "stop_code": "831", "direction_id": 1, "stop_lon": -97.704856, "parent_station": null, "route_id": "350", "stop_url": null, "stop_sequence": 37, "stop_id": "831", "stop_desc": "001020 ACC & GROVE", "stop_name": "ACC RIVERSIDE CAMPUS STOP", "location_type": null, "platform_code": null, "zone_id": null}, {"stop_lat": 30.22954, "stop_timezone": null, "wheelchair_boarding": 0, "stop_code": "1017", "direction_id": 1, "stop_lon": -97.70656, "parent_station": null, "route_id": "350", "stop_url": null, "stop_sequence": 38, "stop_id": "1017", "stop_desc": "001700 GROVE & FAIRWAY", "stop_name": "RUIZ LIBRARY", "location_type": null, "platform_code": null, "zone_id": null}, {"stop_lat": 30.22619, "stop_timezone": null, "wheelchair_boarding": 0, "stop_code": "3313", "direction_id": 1, "stop_lon": -97.70644, "parent_station": null, "route_id": "350", "stop_url": null, "stop_sequence": 39, "stop_id": "3313", "stop_desc": "006015 RIVERSIDE & CLUBVIEW", "stop_name": "6015 RIVERSIDE/CLUBVIEW", "location_type": null, "platform_code": null, "zone_id": null}, {"stop_lat": 30.22495, "stop_timezone": null, "wheelchair_boarding": 0, "stop_code": "3314", "direction_id": 1, "stop_lon": -97.7038, "parent_station": null, "route_id": "350", "stop_url": null, "stop_sequence": 40, "stop_id": "3314", "stop_desc": "006200 RIVERSIDE & MONTOPOLIS", "stop_name": "MONTOPOLIS/RIVERSIDE", "location_type": null, "platform_code": null, "zone_id": null}, {"stop_lat": 30.22372, "stop_timezone": null, "wheelchair_boarding": 0, "stop_code": "3315", "direction_id": 1, "stop_lon": -97.70076, "parent_station": null, "route_id": "350", "stop_url": null, "stop_sequence": 41, "stop_id": "3315", "stop_desc": "006605 RIVERSIDE & VARGAS", "stop_name": "6605 RIVERSIDE/VARGAS", "location_type": null, "platform_code": null, "zone_id": null}, {"stop_lat": 30.22227, "stop_timezone": null, "wheelchair_boarding": 0, "stop_code": "3316", "direction_id": 1, "stop_lon": -97.69749, "parent_station": null, "route_id": "350", "stop_url": null, "stop_sequence": 42, "stop_id": "3316", "stop_desc": "006903 RIVERSIDE & MAXWELL", "stop_name": "6903 RIVERSIDE/MAXWELL", "location_type": null, "platform_code": null, "zone_id": null}, {"stop_lat": 30.22077, "stop_timezone": null, "wheelchair_boarding": 0, "stop_code": "3317", "direction_id": 1, "stop_lon": -97.69475, "parent_station": null, "route_id": "350", "stop_url": null, "stop_sequence": 43, "stop_id": "3317", "stop_desc": "007200 RIVERSIDE & YELLOW JACKET", "stop_name": "RIVERSIDE/YELLOW JACKET", "location_type": null, "platform_code": null, "zone_id": null}, {"stop_lat": 30.2196, "stop_timezone": null, "wheelchair_boarding": 0, "stop_code": "3318", "direction_id": 1, "stop_lon": -97.69274, "parent_station": null, "route_id": "350", "stop_url": null, "stop_sequence": 44, "stop_id": "3318", "stop_desc": "007400 RIVERSIDE & UPHILL", "stop_name": "RIVERSIDE/UPHILL", "location_type": null, "platform_code": null, "zone_id": null}, {"stop_lat": 30.2158, "stop_timezone": null, "wheelchair_boarding": 0, "stop_code": "5592", "direction_id": 1, "stop_lon": -97.68872, "parent_station": null, "route_id": "350", "stop_url": null, "stop_sequence": 45, "stop_id": "5592", "stop_desc": "007900 RIVERSIDE & HOEKE", "stop_name": "7900 RIVERSIDE/HOEKE", "location_type": null, "platform_code": null, "zone_id": null}, {"stop_lat": 30.21912, "stop_timezone": null, "wheelchair_boarding": 0, "stop_code": "5593", "direction_id": 1, "stop_lon": -97.68783, "parent_station": null, "route_id": "350", "stop_url": null, "stop_sequence": 46, "stop_id": "5593", "stop_desc": "000000 PALMA VERDE & BEN WHITE", "stop_name": "PALMA VERDE/BEN WHITE", "location_type": null, "platform_code": null, "zone_id": null}, {"stop_lat": 30.212705, "stop_timezone": null, "wheelchair_boarding": 0, "stop_code": "5045", "direction_id": 1, "stop_lon": -97.65909, "parent_station": null, "route_id": "350", "stop_url": null, "stop_sequence": 47, "stop_id": "5045", "stop_desc": "002474 SH 71 & PRESIDENTIAL", "stop_name": "2474 SH 71/PRESIDENTIAL", "location_type": null, "platform_code": null, "zone_id": null}, {"stop_lat": 30.202744, "stop_timezone": null, "wheelchair_boarding": 0, "stop_code": "4326", "direction_id": 1, "stop_lon": -97.665653, "parent_station": null, "route_id": "350", "stop_url": null, "stop_sequence": 48, "stop_id": "4326", "stop_desc": "003000 PRESIDENTIAL & ABIA LOWER LEVEL", "stop_name": "ABIA LOWER LEVEL", "location_type": null, "platform_code": null, "zone_id": null}, {"stop_lat": 30.204687, "stop_timezone": null, "wheelchair_boarding": 0, "stop_code": "5797", "direction_id": 1, "stop_lon": -97.642909, "parent_station": null, "route_id": "350", "stop_url": null, "stop_sequence": 49, "stop_id": "5797", "stop_desc": "000000 SH 71 & CHEVIOT", "stop_name": "SH 71/CHEVIOT (EB)", "location_type": null, "platform_code": null, "zone_id": null}, {"stop_lat": 30.20065, "stop_timezone": null, "wheelchair_boarding": 0, "stop_code": "3323", "direction_id": 1, "stop_lon": -97.63973, "parent_station": null, "route_id": "350", "stop_url": null, "stop_sequence": 50, "stop_id": "3323", "stop_desc": "003320 FM 973 & SH 71", "stop_name": "3320 FM 973/SH 71", "location_type": null, "platform_code": null, "zone_id": null}, {"stop_lat": 30.1988, "stop_timezone": null, "wheelchair_boarding": 0, "stop_code": "3324", "direction_id": 1, "stop_lon": -97.642815, "parent_station": null, "route_id": "350", "stop_url": null, "stop_sequence": 51, "stop_id": "3324", "stop_desc": "003518 BILL PRICE & FM 973", "stop_name": "3518 BILL PRICE/FM 973", "location_type": null, "platform_code": null, "zone_id": null}, {"stop_lat": 30.19784, "stop_timezone": null, "wheelchair_boarding": 0, "stop_code": "3238", "direction_id": 1, "stop_lon": -97.645546, "parent_station": null, "route_id": "350", "stop_url": null, "stop_sequence": 52, "stop_id": "3238", "stop_desc": "003618 BILL PRICE & FM 973", "stop_name": "TRAVIS CORRECTIONAL FACILITY", "location_type": null, "platform_code": null, "zone_id": null}]
