[{"stop_timezone": "", "parent_station": "", "direction_id": "0", "stop_url": "https://www.capmetro.org/stopdetail/index.php?stop=3931", "stop_sequence": "1", "stop_id": "3931", "stop_desc": "001030 WALMART NORWOOD TURNOFF & RUTHERFORD", "location_type": "", "zone_id": "", "stop_lat": "30.340281", "wheelchair_boarding": "0", "stop_code": "3931", "stop_lon": "-97.691161", "route_id": "323", "stop_name": "Walmart Norwood"}, {"stop_timezone": "", "parent_station": "", "direction_id": "0", "stop_url": "https://www.capmetro.org/stopdetail/index.php?stop=5007", "stop_sequence": "1", "stop_id": "5007", "stop_desc": "004700 TANNEHILL & WEBBERVILLE", "location_type": "", "zone_id": "", "stop_lat": "30.283973", "wheelchair_boarding": "0", "stop_code": "5007", "stop_lon": "-97.671344", "route_id": "323", "stop_name": "Tannehill/Webberville"}, {"stop_timezone": "", "parent_station": "", "direction_id": "0", "stop_url": "https://www.capmetro.org/stopdetail/index.php?stop=3281", "stop_sequence": "10", "stop_id": "3281", "stop_desc": "002114 ANDERSON & HARDY", "location_type": "", "zone_id": "", "stop_lat": "30.354997", "wheelchair_boarding": "0", "stop_code": "3281", "stop_lon": "-97.728269", "route_id": "323", "stop_name": "2114 Anderson/Hardy"}, {"stop_timezone": "", "parent_station": "", "direction_id": "0", "stop_url": "https://www.capmetro.org/stopdetail/index.php?stop=4938", "stop_sequence": "10", "stop_id": "4938", "stop_desc": "006403 JOHNNY MORRIS & FM 969 (WEBBERVILLE )", "location_type": "", "zone_id": "", "stop_lat": "30.297443", "wheelchair_boarding": "0", "stop_code": "4938", "stop_lon": "-97.649934", "route_id": "323", "stop_name": "6403 Johnny Morris/FM 969"}, {"stop_timezone": "", "parent_station": "", "direction_id": "0", "stop_url": "https://www.capmetro.org/stopdetail/index.php?stop=5644", "stop_sequence": "11", "stop_id": "5644", "stop_desc": "006500 LOYOLA & JOHNNY MORRIS", "location_type": "", "zone_id": "", "stop_lat": "30.300569", "wheelchair_boarding": "0", "stop_code": "5644", "stop_lon": "-97.648626", "route_id": "323", "stop_name": "6500 Loyola/Johnny Morris"}, {"stop_timezone": "", "parent_station": "", "direction_id": "0", "stop_url": "https://www.capmetro.org/stopdetail/index.php?stop=5849", "stop_sequence": "11", "stop_id": "5849", "stop_desc": "007800 BURNET & ANDERSON", "location_type": "", "zone_id": "", "stop_lat": "30.354217", "wheelchair_boarding": "0", "stop_code": "5849", "stop_lon": "-97.732117", "route_id": "323", "stop_name": "Northcross Station (SB)"}, {"stop_timezone": "", "parent_station": "", "direction_id": "0", "stop_url": "https://www.capmetro.org/stopdetail/index.php?stop=5558", "stop_sequence": "12", "stop_id": "5558", "stop_desc": "000000 LOYOLA & JOHNNY MORRIS", "location_type": "", "zone_id": "", "stop_lat": "30.301630", "wheelchair_boarding": "0", "stop_code": "5558", "stop_lon": "-97.650907", "route_id": "323", "stop_name": "Loyola/Johnny Morris NW Corner"}, {"stop_timezone": "", "parent_station": "", "direction_id": "0", "stop_url": "https://www.capmetro.org/stopdetail/index.php?stop=5851", "stop_sequence": "12", "stop_id": "5851", "stop_desc": "007719 NORTHCROSS & FOSTER", "location_type": "", "zone_id": "", "stop_lat": "30.354986", "wheelchair_boarding": "0", "stop_code": "5851", "stop_lon": "-97.736170", "route_id": "323", "stop_name": "7719 Northcross/Foster"}, {"stop_timezone": "", "parent_station": "", "direction_id": "0", "stop_url": "https://www.capmetro.org/stopdetail/index.php?stop=2290", "stop_sequence": "13", "stop_id": "2290", "stop_desc": "005900 LOYOLA & CRYSTALBROOK", "location_type": "", "zone_id": "", "stop_lat": "30.303281", "wheelchair_boarding": "0", "stop_code": "2290", "stop_lon": "-97.654591", "route_id": "323", "stop_name": "5900 Loyola/Crystalbrook"}, {"stop_timezone": "", "parent_station": "", "direction_id": "0", "stop_url": "https://www.capmetro.org/stopdetail/index.php?stop=5854", "stop_sequence": "13", "stop_id": "5854", "stop_desc": "002535 ANDERSON & NORTHCROSS", "location_type": "", "zone_id": "", "stop_lat": "30.357183", "wheelchair_boarding": "0", "stop_code": "5854", "stop_lon": "-97.733456", "route_id": "323", "stop_name": "2535 Anderson/Northcross"}, {"stop_timezone": "", "parent_station": "", "direction_id": "0", "stop_url": "https://www.capmetro.org/stopdetail/index.php?stop=2291", "stop_sequence": "14", "stop_id": "2291", "stop_desc": "005600 LOYOLA & MILLRACE", "location_type": "", "zone_id": "", "stop_lat": "30.303051", "wheelchair_boarding": "0", "stop_code": "2291", "stop_lon": "-97.657759", "route_id": "323", "stop_name": "5600 Loyola/Millrace"}, {"stop_timezone": "", "parent_station": "", "direction_id": "0", "stop_url": "https://www.capmetro.org/stopdetail/index.php?stop=5425", "stop_sequence": "15", "stop_id": "5425", "stop_desc": "000000 LOYOLA & ED BLUESTEIN", "location_type": "", "zone_id": "", "stop_lat": "30.303092", "wheelchair_boarding": "0", "stop_code": "5425", "stop_lon": "-97.661950", "route_id": "323", "stop_name": "Loyola/Ed Bluestein"}, {"stop_timezone": "", "parent_station": "", "direction_id": "0", "stop_url": "https://www.capmetro.org/stopdetail/index.php?stop=2292", "stop_sequence": "16", "stop_id": "2292", "stop_desc": "005200 LOYOLA & BRIDGEWATER", "location_type": "", "zone_id": "", "stop_lat": "30.304837", "wheelchair_boarding": "0", "stop_code": "2292", "stop_lon": "-97.664061", "route_id": "323", "stop_name": "5200 Loyola/Bridgewater"}, {"stop_timezone": "", "parent_station": "", "direction_id": "0", "stop_url": "https://www.capmetro.org/stopdetail/index.php?stop=2293", "stop_sequence": "17", "stop_id": "2293", "stop_desc": "005007 LOYOLA & GREENSBORO", "location_type": "", "zone_id": "", "stop_lat": "30.306641", "wheelchair_boarding": "0", "stop_code": "2293", "stop_lon": "-97.665304", "route_id": "323", "stop_name": "5007 Loyola/Greensboro"}, {"stop_timezone": "", "parent_station": "", "direction_id": "0", "stop_url": "https://www.capmetro.org/stopdetail/index.php?stop=2294", "stop_sequence": "18", "stop_id": "2294", "stop_desc": "004600 LOYOLA & MANOR", "location_type": "", "zone_id": "", "stop_lat": "30.309944", "wheelchair_boarding": "0", "stop_code": "2294", "stop_lon": "-97.666950", "route_id": "323", "stop_name": "4600 Loyola/Manor"}, {"stop_timezone": "", "parent_station": "", "direction_id": "0", "stop_url": "https://www.capmetro.org/stopdetail/index.php?stop=5848", "stop_sequence": "19", "stop_id": "5848", "stop_desc": "006713 MANOR & LOYOLA", "location_type": "", "zone_id": "", "stop_lat": "30.310484", "wheelchair_boarding": "0", "stop_code": "5848", "stop_lon": "-97.666576", "route_id": "323", "stop_name": "6713 Manor/Loyola"}, {"stop_timezone": "", "parent_station": "", "direction_id": "0", "stop_url": "https://www.capmetro.org/stopdetail/index.php?stop=5193", "stop_sequence": "2", "stop_id": "5193", "stop_desc": "001000 NORWOOD PARK & BRETTONWOODS", "location_type": "", "zone_id": "", "stop_lat": "30.338844", "wheelchair_boarding": "0", "stop_code": "5193", "stop_lon": "-97.694029", "route_id": "323", "stop_name": "Norwood Park/Brettonwoods"}, {"stop_timezone": "", "parent_station": "", "direction_id": "0", "stop_url": "https://www.capmetro.org/stopdetail/index.php?stop=5643", "stop_sequence": "2", "stop_id": "5643", "stop_desc": "000000 TANNEHILL & MARTIN LUTHER KING", "location_type": "", "zone_id": "", "stop_lat": "30.286011", "wheelchair_boarding": "0", "stop_code": "5643", "stop_lon": "-97.669518", "route_id": "323", "stop_name": "Tannehill/Martin Luther King"}, {"stop_timezone": "", "parent_station": "", "direction_id": "0", "stop_url": "https://www.capmetro.org/stopdetail/index.php?stop=1601", "stop_sequence": "20", "stop_id": "1601", "stop_desc": "007033 MANOR & SUSQUEHANNA", "location_type": "", "zone_id": "", "stop_lat": "30.312849", "wheelchair_boarding": "0", "stop_code": "1601", "stop_lon": "-97.665031", "route_id": "323", "stop_name": "7033 Manor/Susquehanna"}, {"stop_timezone": "", "parent_station": "", "direction_id": "0", "stop_url": "https://www.capmetro.org/stopdetail/index.php?stop=5808", "stop_sequence": "21", "stop_id": "5808", "stop_desc": "007500 MANOR & PECAN BROOK", "location_type": "", "zone_id": "", "stop_lat": "30.319038", "wheelchair_boarding": "0", "stop_code": "5808", "stop_lon": "-97.660988", "route_id": "323", "stop_name": "7500 Manor/Pecan Brook"}, {"stop_timezone": "", "parent_station": "", "direction_id": "0", "stop_url": "https://www.capmetro.org/stopdetail/index.php?stop=5945", "stop_sequence": "22", "stop_id": "5945", "stop_desc": "009100 US 290 & SPRINGDALE", "location_type": "", "zone_id": "", "stop_lat": "30.328995", "wheelchair_boarding": "0", "stop_code": "5945", "stop_lon": "-97.656302", "route_id": "323", "stop_name": "9100 US 290/Springdale"}, {"stop_timezone": "", "parent_station": "", "direction_id": "0", "stop_url": "https://www.capmetro.org/stopdetail/index.php?stop=5810", "stop_sequence": "23", "stop_id": "5810", "stop_desc": "008408 TUSCANY & US 290", "location_type": "", "zone_id": "", "stop_lat": "30.330722", "wheelchair_boarding": "0", "stop_code": "5810", "stop_lon": "-97.659482", "route_id": "323", "stop_name": "8408 Tuscany/US 290"}, {"stop_timezone": "", "parent_station": "", "direction_id": "0", "stop_url": "https://www.capmetro.org/stopdetail/index.php?stop=5813", "stop_sequence": "24", "stop_id": "5813", "stop_desc": "008009 EXCHANGE & TUSCANY", "location_type": "", "zone_id": "", "stop_lat": "30.337487", "wheelchair_boarding": "0", "stop_code": "5813", "stop_lon": "-97.662196", "route_id": "323", "stop_name": "8009 Exchange/Tuscany"}, {"stop_timezone": "", "parent_station": "", "direction_id": "0", "stop_url": "https://www.capmetro.org/stopdetail/index.php?stop=5815", "stop_sequence": "25", "stop_id": "5815", "stop_desc": "008073 EXCHANGE & CROSS PARK", "location_type": "", "zone_id": "", "stop_lat": "30.330305", "wheelchair_boarding": "0", "stop_code": "5815", "stop_lon": "-97.666971", "route_id": "323", "stop_name": "8073 Exchange/Cross Park"}, {"stop_timezone": "", "parent_station": "", "direction_id": "0", "stop_url": "https://www.capmetro.org/stopdetail/index.php?stop=5816", "stop_sequence": "26", "stop_id": "5816", "stop_desc": "008124 EXCHANGE & INTERPARKE", "location_type": "", "zone_id": "", "stop_lat": "30.330492", "wheelchair_boarding": "0", "stop_code": "5816", "stop_lon": "-97.671781", "route_id": "323", "stop_name": "8124 Exchange/Interparke"}, {"stop_timezone": "", "parent_station": "", "direction_id": "0", "stop_url": "https://www.capmetro.org/stopdetail/index.php?stop=5818", "stop_sequence": "27", "stop_id": "5818", "stop_desc": "002202 FORBES & CROSS PARK", "location_type": "", "zone_id": "", "stop_lat": "30.335191", "wheelchair_boarding": "0", "stop_code": "5818", "stop_lon": "-97.673447", "route_id": "323", "stop_name": "2202 Forbes/Cross Park"}, {"stop_timezone": "", "parent_station": "", "direction_id": "0", "stop_url": "https://www.capmetro.org/stopdetail/index.php?stop=2451", "stop_sequence": "28", "stop_id": "2451", "stop_desc": "001706 CENTRE CREEK & CROSS PARK", "location_type": "", "zone_id": "", "stop_lat": "30.336230", "wheelchair_boarding": "0", "stop_code": "2451", "stop_lon": "-97.677710", "route_id": "323", "stop_name": "1706 Centre Creek/Cross Park"}, {"stop_timezone": "", "parent_station": "", "direction_id": "0", "stop_url": "https://www.capmetro.org/stopdetail/index.php?stop=4703", "stop_sequence": "29", "stop_id": "4703", "stop_desc": "001600 CENTRE CREEK & RUTHERFORD", "location_type": "", "zone_id": "", "stop_lat": "30.335382", "wheelchair_boarding": "0", "stop_code": "4703", "stop_lon": "-97.680260", "route_id": "323", "stop_name": "1600 Centre Creek/Rutherford"}, {"stop_timezone": "", "parent_station": "", "direction_id": "0", "stop_url": "https://www.capmetro.org/stopdetail/index.php?stop=5646", "stop_sequence": "3", "stop_id": "5646", "stop_desc": "000000 RESEARCH & GEORGIAN", "location_type": "", "zone_id": "", "stop_lat": "30.344432", "wheelchair_boarding": "0", "stop_code": "5646", "stop_lon": "-97.705583", "route_id": "323", "stop_name": "Research/Georgian"}, {"stop_timezone": "", "parent_station": "", "direction_id": "0", "stop_url": "https://www.capmetro.org/stopdetail/index.php?stop=5914", "stop_sequence": "3", "stop_id": "5914", "stop_desc": "006401 FM 969 & CRAIGWOOD", "location_type": "", "zone_id": "", "stop_lat": "30.284631", "wheelchair_boarding": "0", "stop_code": "5914", "stop_lon": "-97.660034", "route_id": "323", "stop_name": "6401 FM 969/Craigwood"}, {"stop_timezone": "", "parent_station": "", "direction_id": "0", "stop_url": "https://www.capmetro.org/stopdetail/index.php?stop=4706", "stop_sequence": "30", "stop_id": "4706", "stop_desc": "001514 RUTHERFORD & CAMERON", "location_type": "", "zone_id": "", "stop_lat": "30.336920", "wheelchair_boarding": "0", "stop_code": "4706", "stop_lon": "-97.682230", "route_id": "323", "stop_name": "Fisher-Rosemount Systems"}, {"stop_timezone": "", "parent_station": "", "direction_id": "0", "stop_url": "https://www.capmetro.org/stopdetail/index.php?stop=2439", "stop_sequence": "31", "stop_id": "2439", "stop_desc": "001476 RUTHERFORD & CAMERON", "location_type": "", "zone_id": "", "stop_lat": "30.337940", "wheelchair_boarding": "0", "stop_code": "2439", "stop_lon": "-97.684310", "route_id": "323", "stop_name": "1476 Rutherford/Cameron"}, {"stop_timezone": "", "parent_station": "", "direction_id": "0", "stop_url": "https://www.capmetro.org/stopdetail/index.php?stop=5447", "stop_sequence": "32", "stop_id": "5447", "stop_desc": "001112 RUTHERFORD & FURNESS", "location_type": "", "zone_id": "", "stop_lat": "30.340580", "wheelchair_boarding": "0", "stop_code": "5447", "stop_lon": "-97.689935", "route_id": "323", "stop_name": "1112 Rutherford/Furness"}, {"stop_timezone": "", "parent_station": "", "direction_id": "0", "stop_url": "https://www.capmetro.org/stopdetail/index.php?stop=3931", "stop_sequence": "33", "stop_id": "3931", "stop_desc": "001030 WALMART NORWOOD TURNOFF & RUTHERFORD", "location_type": "", "zone_id": "", "stop_lat": "30.340281", "wheelchair_boarding": "0", "stop_code": "3931", "stop_lon": "-97.691161", "route_id": "323", "stop_name": "Walmart Norwood"}, {"stop_timezone": "", "parent_station": "", "direction_id": "0", "stop_url": "https://www.capmetro.org/stopdetail/index.php?stop=5193", "stop_sequence": "34", "stop_id": "5193", "stop_desc": "001000 NORWOOD PARK & BRETTONWOODS", "location_type": "", "zone_id": "", "stop_lat": "30.338844", "wheelchair_boarding": "0", "stop_code": "5193", "stop_lon": "-97.694029", "route_id": "323", "stop_name": "Norwood Park/Brettonwoods"}, {"stop_timezone": "", "parent_station": "", "direction_id": "0", "stop_url": "https://www.capmetro.org/stopdetail/index.php?stop=5646", "stop_sequence": "34", "stop_id": "5646", "stop_desc": "000000 RESEARCH & GEORGIAN", "location_type": "", "zone_id": "", "stop_lat": "30.344432", "wheelchair_boarding": "0", "stop_code": "5646", "stop_lon": "-97.705583", "route_id": "323", "stop_name": "Research/Georgian"}, {"stop_timezone": "", "parent_station": "", "direction_id": "0", "stop_url": "https://www.capmetro.org/stopdetail/index.php?stop=5227", "stop_sequence": "35", "stop_id": "5227", "stop_desc": "07900A RESEARCH & LAMAR", "location_type": "", "zone_id": "", "stop_lat": "30.350066", "wheelchair_boarding": "0", "stop_code": "5227", "stop_lon": "-97.712111", "route_id": "323", "stop_name": "North Lamar Bay 3"}, {"stop_timezone": "", "parent_station": "", "direction_id": "0", "stop_url": "https://www.capmetro.org/stopdetail/index.php?stop=5646", "stop_sequence": "35", "stop_id": "5646", "stop_desc": "000000 RESEARCH & GEORGIAN", "location_type": "", "zone_id": "", "stop_lat": "30.344432", "wheelchair_boarding": "0", "stop_code": "5646", "stop_lon": "-97.705583", "route_id": "323", "stop_name": "Research/Georgian"}, {"stop_timezone": "", "parent_station": "", "direction_id": "0", "stop_url": "https://www.capmetro.org/stopdetail/index.php?stop=5227", "stop_sequence": "36", "stop_id": "5227", "stop_desc": "07900A RESEARCH & LAMAR", "location_type": "", "zone_id": "", "stop_lat": "30.350066", "wheelchair_boarding": "0", "stop_code": "5227", "stop_lon": "-97.712111", "route_id": "323", "stop_name": "North Lamar Bay 3"}, {"stop_timezone": "", "parent_station": "", "direction_id": "0", "stop_url": "https://www.capmetro.org/stopdetail/index.php?stop=5854", "stop_sequence": "36", "stop_id": "5854", "stop_desc": "002535 ANDERSON & NORTHCROSS", "location_type": "", "zone_id": "", "stop_lat": "30.357183", "wheelchair_boarding": "0", "stop_code": "5854", "stop_lon": "-97.733456", "route_id": "323", "stop_name": "2535 Anderson/Northcross"}, {"stop_timezone": "", "parent_station": "", "direction_id": "0", "stop_url": "https://www.capmetro.org/stopdetail/index.php?stop=3278", "stop_sequence": "37", "stop_id": "3278", "stop_desc": "001011 ANDERSON & WATSON", "location_type": "", "zone_id": "", "stop_lat": "30.349206", "wheelchair_boarding": "0", "stop_code": "3278", "stop_lon": "-97.716025", "route_id": "323", "stop_name": "Anderson/Watson"}, {"stop_timezone": "", "parent_station": "", "direction_id": "0", "stop_url": "https://www.capmetro.org/stopdetail/index.php?stop=4580", "stop_sequence": "38", "stop_id": "4580", "stop_desc": "001220 ANDERSON & GAULT", "location_type": "", "zone_id": "", "stop_lat": "30.350302", "wheelchair_boarding": "0", "stop_code": "4580", "stop_lon": "-97.718359", "route_id": "323", "stop_name": "Anderson/Gault"}, {"stop_timezone": "", "parent_station": "", "direction_id": "0", "stop_url": "https://www.capmetro.org/stopdetail/index.php?stop=3279", "stop_sequence": "39", "stop_id": "3279", "stop_desc": "001500 ANDERSON & LAZY", "location_type": "", "zone_id": "", "stop_lat": "30.351463", "wheelchair_boarding": "0", "stop_code": "3279", "stop_lon": "-97.720782", "route_id": "323", "stop_name": "Anderson/Lazy"}, {"stop_timezone": "", "parent_station": "", "direction_id": "0", "stop_url": "https://www.capmetro.org/stopdetail/index.php?stop=4932", "stop_sequence": "4", "stop_id": "4932", "stop_desc": "004924 CRAIGWOOD & FM 969", "location_type": "", "zone_id": "", "stop_lat": "30.284284", "wheelchair_boarding": "0", "stop_code": "4932", "stop_lon": "-97.659972", "route_id": "323", "stop_name": "4924 Craigwood/FM 969"}, {"stop_timezone": "", "parent_station": "", "direction_id": "0", "stop_url": "https://www.capmetro.org/stopdetail/index.php?stop=5227", "stop_sequence": "4", "stop_id": "5227", "stop_desc": "07900A RESEARCH & LAMAR", "location_type": "", "zone_id": "", "stop_lat": "30.350066", "wheelchair_boarding": "0", "stop_code": "5227", "stop_lon": "-97.712111", "route_id": "323", "stop_name": "North Lamar Bay 3"}, {"stop_timezone": "", "parent_station": "", "direction_id": "0", "stop_url": "https://www.capmetro.org/stopdetail/index.php?stop=1078", "stop_sequence": "40", "stop_id": "1078", "stop_desc": "001700 ANDERSON & WOOTEN PARK", "location_type": "", "zone_id": "", "stop_lat": "30.352790", "wheelchair_boarding": "0", "stop_code": "1078", "stop_lon": "-97.723620", "route_id": "323", "stop_name": "1700 Anderson/Wooten Park"}, {"stop_timezone": "", "parent_station": "", "direction_id": "0", "stop_url": "https://www.capmetro.org/stopdetail/index.php?stop=1080", "stop_sequence": "41", "stop_id": "1080", "stop_desc": "1900 ANDERSON & MULLEN", "location_type": "", "zone_id": "", "stop_lat": "30.354010", "wheelchair_boarding": "0", "stop_code": "1080", "stop_lon": "-97.726220", "route_id": "323", "stop_name": "Anderson/Mullen"}, {"stop_timezone": "", "parent_station": "", "direction_id": "0", "stop_url": "https://www.capmetro.org/stopdetail/index.php?stop=3281", "stop_sequence": "42", "stop_id": "3281", "stop_desc": "002114 ANDERSON & HARDY", "location_type": "", "zone_id": "", "stop_lat": "30.354997", "wheelchair_boarding": "0", "stop_code": "3281", "stop_lon": "-97.728269", "route_id": "323", "stop_name": "2114 Anderson/Hardy"}, {"stop_timezone": "", "parent_station": "", "direction_id": "0", "stop_url": "https://www.capmetro.org/stopdetail/index.php?stop=5849", "stop_sequence": "43", "stop_id": "5849", "stop_desc": "007800 BURNET & ANDERSON", "location_type": "", "zone_id": "", "stop_lat": "30.354217", "wheelchair_boarding": "0", "stop_code": "5849", "stop_lon": "-97.732117", "route_id": "323", "stop_name": "Northcross Station (SB)"}, {"stop_timezone": "", "parent_station": "", "direction_id": "0", "stop_url": "https://www.capmetro.org/stopdetail/index.php?stop=5851", "stop_sequence": "44", "stop_id": "5851", "stop_desc": "007719 NORTHCROSS & FOSTER", "location_type": "", "zone_id": "", "stop_lat": "30.354986", "wheelchair_boarding": "0", "stop_code": "5851", "stop_lon": "-97.736170", "route_id": "323", "stop_name": "7719 Northcross/Foster"}, {"stop_timezone": "", "parent_station": "", "direction_id": "0", "stop_url": "https://www.capmetro.org/stopdetail/index.php?stop=5854", "stop_sequence": "45", "stop_id": "5854", "stop_desc": "002535 ANDERSON & NORTHCROSS", "location_type": "", "zone_id": "", "stop_lat": "30.357183", "wheelchair_boarding": "0", "stop_code": "5854", "stop_lon": "-97.733456", "route_id": "323", "stop_name": "2535 Anderson/Northcross"}, {"stop_timezone": "", "parent_station": "", "direction_id": "0", "stop_url": "https://www.capmetro.org/stopdetail/index.php?stop=3278", "stop_sequence": "5", "stop_id": "3278", "stop_desc": "001011 ANDERSON & WATSON", "location_type": "", "zone_id": "", "stop_lat": "30.349206", "wheelchair_boarding": "0", "stop_code": "3278", "stop_lon": "-97.716025", "route_id": "323", "stop_name": "Anderson/Watson"}, {"stop_timezone": "", "parent_station": "", "direction_id": "0", "stop_url": "https://www.capmetro.org/stopdetail/index.php?stop=4933", "stop_sequence": "5", "stop_id": "4933", "stop_desc": "004700 CRAIGWOOD & LITTLE HILL CIRCLE", "location_type": "", "zone_id": "", "stop_lat": "30.282093", "wheelchair_boarding": "0", "stop_code": "4933", "stop_lon": "-97.660457", "route_id": "323", "stop_name": "Craigwood/Little Hill Circle"}, {"stop_timezone": "", "parent_station": "", "direction_id": "0", "stop_url": "https://www.capmetro.org/stopdetail/index.php?stop=4580", "stop_sequence": "6", "stop_id": "4580", "stop_desc": "001220 ANDERSON & GAULT", "location_type": "", "zone_id": "", "stop_lat": "30.350302", "wheelchair_boarding": "0", "stop_code": "4580", "stop_lon": "-97.718359", "route_id": "323", "stop_name": "Anderson/Gault"}, {"stop_timezone": "", "parent_station": "", "direction_id": "0", "stop_url": "https://www.capmetro.org/stopdetail/index.php?stop=4935", "stop_sequence": "6", "stop_id": "4935", "stop_desc": "004501 LITTLE HILL & CRAIGWOOD", "location_type": "", "zone_id": "", "stop_lat": "30.280509", "wheelchair_boarding": "0", "stop_code": "4935", "stop_lon": "-97.660926", "route_id": "323", "stop_name": "4501 Little Hill/Craigwood"}, {"stop_timezone": "", "parent_station": "", "direction_id": "0", "stop_url": "https://www.capmetro.org/stopdetail/index.php?stop=3279", "stop_sequence": "7", "stop_id": "3279", "stop_desc": "001500 ANDERSON & LAZY", "location_type": "", "zone_id": "", "stop_lat": "30.351463", "wheelchair_boarding": "0", "stop_code": "3279", "stop_lon": "-97.720782", "route_id": "323", "stop_name": "Anderson/Lazy"}, {"stop_timezone": "", "parent_station": "", "direction_id": "0", "stop_url": "https://www.capmetro.org/stopdetail/index.php?stop=4936", "stop_sequence": "7", "stop_id": "4936", "stop_desc": "004801 CRAIGWOOD & HUNTLEIGH", "location_type": "", "zone_id": "", "stop_lat": "30.282824", "wheelchair_boarding": "0", "stop_code": "4936", "stop_lon": "-97.660147", "route_id": "323", "stop_name": "4801 Craigwood/Huntleigh"}, {"stop_timezone": "", "parent_station": "", "direction_id": "0", "stop_url": "https://www.capmetro.org/stopdetail/index.php?stop=1078", "stop_sequence": "8", "stop_id": "1078", "stop_desc": "001700 ANDERSON & WOOTEN PARK", "location_type": "", "zone_id": "", "stop_lat": "30.352790", "wheelchair_boarding": "0", "stop_code": "1078", "stop_lon": "-97.723620", "route_id": "323", "stop_name": "1700 Anderson/Wooten Park"}, {"stop_timezone": "", "parent_station": "", "direction_id": "0", "stop_url": "https://www.capmetro.org/stopdetail/index.php?stop=66", "stop_sequence": "8", "stop_id": "66", "stop_desc": "004925 CRAIGWOOD & FM 969", "location_type": "", "zone_id": "", "stop_lat": "30.284171", "wheelchair_boarding": "0", "stop_code": "66", "stop_lon": "-97.659854", "route_id": "323", "stop_name": "4925 Craigwood/FM 969"}, {"stop_timezone": "", "parent_station": "", "direction_id": "0", "stop_url": "https://www.capmetro.org/stopdetail/index.php?stop=1080", "stop_sequence": "9", "stop_id": "1080", "stop_desc": "1900 ANDERSON & MULLEN", "location_type": "", "zone_id": "", "stop_lat": "30.354010", "wheelchair_boarding": "0", "stop_code": "1080", "stop_lon": "-97.726220", "route_id": "323", "stop_name": "Anderson/Mullen"}, {"stop_timezone": "", "parent_station": "", "direction_id": "0", "stop_url": "https://www.capmetro.org/stopdetail/index.php?stop=4937", "stop_sequence": "9", "stop_id": "4937", "stop_desc": "005701 JOHNNY MORRIS & FM 969 (WEBBERVILLE )", "location_type": "", "zone_id": "", "stop_lat": "30.292629", "wheelchair_boarding": "0", "stop_code": "4937", "stop_lon": "-97.653013", "route_id": "323", "stop_name": "5701 Johnny Morris/FM 969"}]
