[{"stop_timezone": "", "parent_station": "", "direction_id": "1", "stop_url": "https://www.capmetro.org/stopdetail/index.php?stop=5230", "stop_sequence": "1", "stop_id": "5230", "stop_desc": "10900G LYNDHURST & LAKELINE", "location_type": "", "zone_id": "", "stop_lat": "30.480719", "wheelchair_boarding": "0", "stop_code": "5230", "stop_lon": "-97.786775", "route_id": "122", "stop_name": "Lakeline Station Bay G"}, {"stop_timezone": "", "parent_station": "", "direction_id": "1", "stop_url": "https://www.capmetro.org/stopdetail/index.php?stop=5428", "stop_sequence": "2", "stop_id": "5428", "stop_desc": "011020 LAKELINE MALL & PECAN PARK", "location_type": "", "zone_id": "", "stop_lat": "30.472378", "wheelchair_boarding": "0", "stop_code": "5428", "stop_lon": "-97.801255", "route_id": "122", "stop_name": "11020 Lakeline Mall/Pecan Park"}, {"stop_timezone": "", "parent_station": "", "direction_id": "1", "stop_url": "https://www.capmetro.org/stopdetail/index.php?stop=5031", "stop_sequence": "3", "stop_id": "5031", "stop_desc": "011401 FOUR POINTS & FM 620", "location_type": "", "zone_id": "", "stop_lat": "30.405800", "wheelchair_boarding": "0", "stop_code": "5031", "stop_lon": "-97.850842", "route_id": "122", "stop_name": "11401 Four Points/FM 620"}, {"stop_timezone": "", "parent_station": "", "direction_id": "1", "stop_url": "https://www.capmetro.org/stopdetail/index.php?stop=3329", "stop_sequence": "4", "stop_id": "3329", "stop_desc": "000000 MCNEIL & FM 2222", "location_type": "", "zone_id": "", "stop_lat": "30.393268", "wheelchair_boarding": "0", "stop_code": "3329", "stop_lon": "-97.837839", "route_id": "122", "stop_name": "3M Company at Skywalk"}, {"stop_timezone": "", "parent_station": "", "direction_id": "1", "stop_url": "https://www.capmetro.org/stopdetail/index.php?stop=4086", "stop_sequence": "5", "stop_id": "4086", "stop_desc": "001500 5TH & WEST LYNN", "location_type": "", "zone_id": "", "stop_lat": "30.273605", "wheelchair_boarding": "0", "stop_code": "4086", "stop_lon": "-97.763241", "route_id": "122", "stop_name": "5th/West Lynn"}, {"stop_timezone": "", "parent_station": "", "direction_id": "1", "stop_url": "https://www.capmetro.org/stopdetail/index.php?stop=2106", "stop_sequence": "6", "stop_id": "2106", "stop_desc": "001025 5TH & BAYLOR", "location_type": "", "zone_id": "", "stop_lat": "30.270977", "wheelchair_boarding": "0", "stop_code": "2106", "stop_lon": "-97.756406", "route_id": "122", "stop_name": "5th/Baylor"}, {"stop_timezone": "", "parent_station": "", "direction_id": "1", "stop_url": "https://www.capmetro.org/stopdetail/index.php?stop=2114", "stop_sequence": "7", "stop_id": "2114", "stop_desc": "000201 5TH & COLORADO", "location_type": "", "zone_id": "", "stop_lat": "30.267457", "wheelchair_boarding": "0", "stop_code": "2114", "stop_lon": "-97.744660", "route_id": "122", "stop_name": "5th/Colorado"}, {"stop_timezone": "", "parent_station": "", "direction_id": "1", "stop_url": "https://www.capmetro.org/stopdetail/index.php?stop=5935", "stop_sequence": "8", "stop_id": "5935", "stop_desc": "000511 RED RIVER & 6TH", "location_type": "", "zone_id": "", "stop_lat": "30.266322", "wheelchair_boarding": "0", "stop_code": "5935", "stop_lon": "-97.737157", "route_id": "122", "stop_name": "511 Red River/6th"}, {"stop_timezone": "", "parent_station": "", "direction_id": "1", "stop_url": "https://www.capmetro.org/stopdetail/index.php?stop=3330", "stop_sequence": "9", "stop_id": "3330", "stop_desc": "00000 PLEASANT VALLEY & 5TH", "location_type": "", "zone_id": "", "stop_lat": "30.257395", "wheelchair_boarding": "0", "stop_code": "3330", "stop_lon": "-97.710733", "route_id": "122", "stop_name": "Garage Gate"}]
