[{"stop_lat": 30.267505, "stop_timezone": null, "wheelchair_boarding": 0, "stop_code": "5998", "direction_id": 1, "stop_lon": -97.748007, "parent_station": null, "route_id": "6", "stop_url": null, "stop_sequence": 1, "stop_id": "5998", "stop_desc": "000419 4TH & SAN ANTONIO", "stop_name": "419 4TH/SAN ANTONIO", "location_type": null, "platform_code": null, "zone_id": null}, {"stop_lat": 30.270952, "stop_timezone": null, "wheelchair_boarding": 0, "stop_code": "5965", "direction_id": 1, "stop_lon": -97.744272, "parent_station": null, "route_id": "6", "stop_url": null, "stop_sequence": 2, "stop_id": "5965", "stop_desc": "000813 LAVACA & 8TH", "stop_name": "813 LAVACA/8TH (FARSIDE)", "location_type": null, "platform_code": null, "zone_id": null}, {"stop_lat": 30.2727, "stop_timezone": null, "wheelchair_boarding": 0, "stop_code": "506", "direction_id": 1, "stop_lon": -97.741376, "parent_station": null, "route_id": "6", "stop_url": null, "stop_sequence": 3, "stop_id": "506", "stop_desc": "000100 11TH & CONGRESS", "stop_name": "11TH/CONGRESS", "location_type": null, "platform_code": null, "zone_id": null}, {"stop_lat": 30.272, "stop_timezone": null, "wheelchair_boarding": 0, "stop_code": "863", "direction_id": 1, "stop_lon": -97.73884, "parent_station": null, "route_id": "6", "stop_url": null, "stop_sequence": 4, "stop_id": "863", "stop_desc": "000200 11TH & SAN JACINTO", "stop_name": "11TH/SAN JACINTO SW CORNER", "location_type": null, "platform_code": null, "zone_id": null}, {"stop_lat": 30.272138, "stop_timezone": null, "wheelchair_boarding": 0, "stop_code": "1569", "direction_id": 1, "stop_lon": -97.734944, "parent_station": null, "route_id": "6", "stop_url": null, "stop_sequence": 5, "stop_id": "1569", "stop_desc": "001121 RED RIVER & 12TH", "stop_name": "1121 RED RIVER/12TH", "location_type": null, "platform_code": null, "zone_id": null}, {"stop_lat": 30.271886, "stop_timezone": null, "wheelchair_boarding": 0, "stop_code": "1113", "direction_id": 1, "stop_lon": -97.731306, "parent_station": null, "route_id": "6", "stop_url": null, "stop_sequence": 6, "stop_id": "1113", "stop_desc": "000800 12TH & BRANCH", "stop_name": "12TH/BRANCH", "location_type": null, "platform_code": null, "zone_id": null}, {"stop_lat": 30.272434, "stop_timezone": null, "wheelchair_boarding": 0, "stop_code": "1114", "direction_id": 1, "stop_lon": -97.727844, "parent_station": null, "route_id": "6", "stop_url": null, "stop_sequence": 7, "stop_id": "1114", "stop_desc": "001100 12TH & NAVASOTA", "stop_name": "12TH/NAVASOTA", "location_type": null, "platform_code": null, "zone_id": null}, {"stop_lat": 30.27288, "stop_timezone": null, "wheelchair_boarding": 0, "stop_code": "4173", "direction_id": 1, "stop_lon": -97.72505, "parent_station": null, "route_id": "6", "stop_url": null, "stop_sequence": 8, "stop_id": "4173", "stop_desc": "001321 12TH & ANGELINA", "stop_name": "1321 12TH/ANGELINA", "location_type": null, "platform_code": null, "zone_id": null}, {"stop_lat": 30.273472, "stop_timezone": null, "wheelchair_boarding": 0, "stop_code": "2856", "direction_id": 1, "stop_lon": -97.721367, "parent_station": null, "route_id": "6", "stop_url": null, "stop_sequence": 9, "stop_id": "2856", "stop_desc": "001703 12TH & LEONA", "stop_name": "1703 12TH/LEONA", "location_type": null, "platform_code": null, "zone_id": null}, {"stop_lat": 30.2737, "stop_timezone": null, "wheelchair_boarding": 0, "stop_code": "1118", "direction_id": 1, "stop_lon": -97.72, "parent_station": null, "route_id": "6", "stop_url": null, "stop_sequence": 10, "stop_id": "1118", "stop_desc": "001819 12TH & CHICON", "stop_name": "1819 12TH/CHICON", "location_type": null, "platform_code": null, "zone_id": null}, {"stop_lat": 30.27384, "stop_timezone": null, "wheelchair_boarding": 0, "stop_code": "1119", "direction_id": 1, "stop_lon": -97.71896, "parent_station": null, "route_id": "6", "stop_url": null, "stop_sequence": 11, "stop_id": "1119", "stop_desc": "001919 12TH & POQUITO", "stop_name": "1919 12TH/POQUITO", "location_type": null, "platform_code": null, "zone_id": null}, {"stop_lat": 30.274488, "stop_timezone": null, "wheelchair_boarding": 0, "stop_code": "5747", "direction_id": 1, "stop_lon": -97.714983, "parent_station": null, "route_id": "6", "stop_url": null, "stop_sequence": 12, "stop_id": "5747", "stop_desc": "002401 12TH & PLEASANT VALLEY", "stop_name": "2401 12TH/PLEASANT VALLEY", "location_type": null, "platform_code": null, "zone_id": null}, {"stop_lat": 30.274815, "stop_timezone": null, "wheelchair_boarding": 0, "stop_code": "1121", "direction_id": 1, "stop_lon": -97.712846, "parent_station": null, "route_id": "6", "stop_url": null, "stop_sequence": 13, "stop_id": "1121", "stop_desc": "002601 12TH & CEDAR", "stop_name": "2601 12TH/CEDAR", "location_type": null, "platform_code": null, "zone_id": null}, {"stop_lat": 30.275203, "stop_timezone": null, "wheelchair_boarding": 0, "stop_code": "1122", "direction_id": 1, "stop_lon": -97.710441, "parent_station": null, "route_id": "6", "stop_url": null, "stop_sequence": 14, "stop_id": "1122", "stop_desc": "002733 12TH & NEW YORK", "stop_name": "2733 12TH/NEW YORK", "location_type": null, "platform_code": null, "zone_id": null}, {"stop_lat": 30.275533, "stop_timezone": null, "wheelchair_boarding": 0, "stop_code": "1123", "direction_id": 1, "stop_lon": -97.708349, "parent_station": null, "route_id": "6", "stop_url": null, "stop_sequence": 15, "stop_id": "1123", "stop_desc": "002863 12TH & ALEXANDER", "stop_name": "2863 12TH/ALEXANDER", "location_type": null, "platform_code": null, "zone_id": null}, {"stop_lat": 30.275868, "stop_timezone": null, "wheelchair_boarding": 0, "stop_code": "1124", "direction_id": 1, "stop_lon": -97.706343, "parent_station": null, "route_id": "6", "stop_url": null, "stop_sequence": 16, "stop_id": "1124", "stop_desc": "002917 12TH & HARGRAVE", "stop_name": "2917 12TH/HARGRAVE", "location_type": null, "platform_code": null, "zone_id": null}, {"stop_lat": 30.276207, "stop_timezone": null, "wheelchair_boarding": 0, "stop_code": "4200", "direction_id": 1, "stop_lon": -97.70414, "parent_station": null, "route_id": "6", "stop_url": null, "stop_sequence": 17, "stop_id": "4200", "stop_desc": "002900 12TH & OAK GROVE", "stop_name": "12TH/OAK GROVE", "location_type": null, "platform_code": null, "zone_id": null}, {"stop_lat": 30.27647, "stop_timezone": null, "wheelchair_boarding": 0, "stop_code": "1125", "direction_id": 1, "stop_lon": -97.70236, "parent_station": null, "route_id": "6", "stop_url": null, "stop_sequence": 18, "stop_id": "1125", "stop_desc": "003021 12TH & MCKINLEY", "stop_name": "3021 12TH/MCKINLEY", "location_type": null, "platform_code": null, "zone_id": null}, {"stop_lat": 30.276731, "stop_timezone": null, "wheelchair_boarding": 0, "stop_code": "1126", "direction_id": 1, "stop_lon": -97.700547, "parent_station": null, "route_id": "6", "stop_url": null, "stop_sequence": 19, "stop_id": "1126", "stop_desc": "003245 12TH & AIRPORT", "stop_name": "3245 12TH/AIRPORT", "location_type": null, "platform_code": null, "zone_id": null}, {"stop_lat": 30.2773, "stop_timezone": null, "wheelchair_boarding": 0, "stop_code": "1127", "direction_id": 1, "stop_lon": -97.69709, "parent_station": null, "route_id": "6", "stop_url": null, "stop_sequence": 20, "stop_id": "1127", "stop_desc": "003403 12TH & GREENWOOD", "stop_name": "3403 12TH/GREENWOOD", "location_type": null, "platform_code": null, "zone_id": null}, {"stop_lat": 30.27772, "stop_timezone": null, "wheelchair_boarding": 0, "stop_code": "1128", "direction_id": 1, "stop_lon": -97.6944, "parent_station": null, "route_id": "6", "stop_url": null, "stop_sequence": 21, "stop_id": "1128", "stop_desc": "003525 12TH & E M FRANKLIN", "stop_name": "3525 12TH/E M FRANKLIN", "location_type": null, "platform_code": null, "zone_id": null}, {"stop_lat": 30.27828, "stop_timezone": null, "wheelchair_boarding": 0, "stop_code": "4668", "direction_id": 1, "stop_lon": -97.69077, "parent_station": null, "route_id": "6", "stop_url": null, "stop_sequence": 22, "stop_id": "4668", "stop_desc": "3900 12TH & LUNA", "stop_name": "12TH/LUNA", "location_type": null, "platform_code": null, "zone_id": null}, {"stop_lat": 30.278604, "stop_timezone": null, "wheelchair_boarding": 0, "stop_code": "4667", "direction_id": 1, "stop_lon": -97.686295, "parent_station": null, "route_id": "6", "stop_url": null, "stop_sequence": 23, "stop_id": "4667", "stop_desc": "004609 12TH & SPRINGDALE", "stop_name": "4609 12TH/SPRINGDALE", "location_type": null, "platform_code": null, "zone_id": null}, {"stop_lat": 30.278282, "stop_timezone": null, "wheelchair_boarding": 0, "stop_code": "1130", "direction_id": 1, "stop_lon": -97.684544, "parent_station": null, "route_id": "6", "stop_url": null, "stop_sequence": 24, "stop_id": "1130", "stop_desc": "001201 WEBBERVILLE & 12TH", "stop_name": "1201 WEBBERVILLE/12TH", "location_type": null, "platform_code": null, "zone_id": null}, {"stop_lat": 30.279406, "stop_timezone": null, "wheelchair_boarding": 0, "stop_code": "1131", "direction_id": 1, "stop_lon": -97.682614, "parent_station": null, "route_id": "6", "stop_url": null, "stop_sequence": 25, "stop_id": "1131", "stop_desc": "001401 WEBBERVILLE & RIBBECKE", "stop_name": "1401 WEBBERVILLE/RIBBECKE", "location_type": null, "platform_code": null, "zone_id": null}, {"stop_lat": 30.279744, "stop_timezone": null, "wheelchair_boarding": 0, "stop_code": "1132", "direction_id": 1, "stop_lon": -97.680966, "parent_station": null, "route_id": "6", "stop_url": null, "stop_sequence": 26, "stop_id": "1132", "stop_desc": "001419 WEBBERVILLE & FORT BRANCH", "stop_name": "1419 WEBBERVILLE/FORT BRANCH", "location_type": null, "platform_code": null, "zone_id": null}, {"stop_lat": 30.278343, "stop_timezone": null, "wheelchair_boarding": 0, "stop_code": "5461", "direction_id": 1, "stop_lon": -97.680174, "parent_station": null, "route_id": "6", "stop_url": null, "stop_sequence": 27, "stop_id": "5461", "stop_desc": "001404 FORT BRANCH & DELANO", "stop_name": "1404 FORT BRANCH/DELANO", "location_type": null, "platform_code": null, "zone_id": null}, {"stop_lat": 30.27693, "stop_timezone": null, "wheelchair_boarding": 0, "stop_code": "1133", "direction_id": 1, "stop_lon": -97.680222, "parent_station": null, "route_id": "6", "stop_url": null, "stop_sequence": 28, "stop_id": "1133", "stop_desc": "001302 FORT BRANCH & ELEANOR", "stop_name": "1302 FORT BRANCH/ELEANOR", "location_type": null, "platform_code": null, "zone_id": null}, {"stop_lat": 30.27398, "stop_timezone": null, "wheelchair_boarding": 0, "stop_code": "1087", "direction_id": 1, "stop_lon": -97.67936, "parent_station": null, "route_id": "6", "stop_url": null, "stop_sequence": 29, "stop_id": "1087", "stop_desc": "001200 ELEANOR & HUDSON", "stop_name": "HUDSON/ELEANOR", "location_type": null, "platform_code": null, "zone_id": null}, {"stop_lat": 30.273423, "stop_timezone": null, "wheelchair_boarding": 0, "stop_code": "1135", "direction_id": 1, "stop_lon": -97.677929, "parent_station": null, "route_id": "6", "stop_url": null, "stop_sequence": 30, "stop_id": "1135", "stop_desc": "001201 DELANO & HUDSON", "stop_name": "1201 DELANO/HUDSON", "location_type": null, "platform_code": null, "zone_id": null}, {"stop_lat": 30.276475, "stop_timezone": null, "wheelchair_boarding": 0, "stop_code": "5911", "direction_id": 1, "stop_lon": -97.678406, "parent_station": null, "route_id": "6", "stop_url": null, "stop_sequence": 31, "stop_id": "5911", "stop_desc": "005507 JACKIE ROBINSON & DELANO", "stop_name": "5507 JACKIE ROBINSON/DELANO", "location_type": null, "platform_code": null, "zone_id": null}, {"stop_lat": 30.27658, "stop_timezone": null, "wheelchair_boarding": 0, "stop_code": "1137", "direction_id": 1, "stop_lon": -97.6757, "parent_station": null, "route_id": "6", "stop_url": null, "stop_sequence": 32, "stop_id": "1137", "stop_desc": "003811 TANNEHILL & JACKIE ROBINSON", "stop_name": "3811 TANNEHILL/JACKIE ROBINSON", "location_type": null, "platform_code": null, "zone_id": null}, {"stop_lat": 30.279192, "stop_timezone": null, "wheelchair_boarding": 0, "stop_code": "1138", "direction_id": 1, "stop_lon": -97.673977, "parent_station": null, "route_id": "6", "stop_url": null, "stop_sequence": 33, "stop_id": "1138", "stop_desc": "004021 TANNEHILL & SAMUEL HUSTON", "stop_name": "4021 TANNEHILL/SAMUEL HUSTON", "location_type": null, "platform_code": null, "zone_id": null}, {"stop_lat": 30.283973, "stop_timezone": null, "wheelchair_boarding": 0, "stop_code": "5007", "direction_id": 1, "stop_lon": -97.671344, "parent_station": null, "route_id": "6", "stop_url": null, "stop_sequence": 34, "stop_id": "5007", "stop_desc": "004700 TANNEHILL & WEBBERVILLE", "stop_name": "TANNEHILL/WEBBERVILLE", "location_type": null, "platform_code": null, "zone_id": null}]
