[{"stop_lat": 30.185521, "stop_timezone": null, "wheelchair_boarding": 0, "stop_code": "5909", "direction_id": 0, "stop_lon": -97.894708, "parent_station": null, "route_id": "111", "stop_url": null, "stop_sequence": 1, "stop_id": "5909", "stop_desc": "011241 ESCARPMENT & SOUTH BAY", "stop_name": "11241 ESCARPMENT/SOUTH BAY", "location_type": null, "platform_code": null, "zone_id": null}, {"stop_lat": 30.193652, "stop_timezone": null, "wheelchair_boarding": 0, "stop_code": "5908", "direction_id": 0, "stop_lon": -97.885356, "parent_station": null, "route_id": "111", "stop_url": null, "stop_sequence": 2, "stop_id": "5908", "stop_desc": "010405 ESCARPMENT & LA CROSSE", "stop_name": "10405 ESCARPMENT/LA CROSSE", "location_type": null, "platform_code": null, "zone_id": null}, {"stop_lat": 30.200218, "stop_timezone": null, "wheelchair_boarding": 0, "stop_code": "5889", "direction_id": 0, "stop_lon": -97.876027, "parent_station": null, "route_id": "111", "stop_url": null, "stop_sequence": 3, "stop_id": "5889", "stop_desc": "005801 SLAUGHTER & ESCARPMENT", "stop_name": "5801 SLAUGHTER/ESCARPMENT", "location_type": null, "platform_code": null, "zone_id": null}, {"stop_lat": 30.203832, "stop_timezone": null, "wheelchair_boarding": 0, "stop_code": "5891", "direction_id": 0, "stop_lon": -97.870754, "parent_station": null, "route_id": "111", "stop_url": null, "stop_sequence": 4, "stop_id": "5891", "stop_desc": "009111 BECKETT & LA CRESADA", "stop_name": "9111 BECKETT/LA CRESADA", "location_type": null, "platform_code": null, "zone_id": null}, {"stop_lat": 30.208187, "stop_timezone": null, "wheelchair_boarding": 0, "stop_code": "5893", "direction_id": 0, "stop_lon": -97.869105, "parent_station": null, "route_id": "111", "stop_url": null, "stop_sequence": 5, "stop_id": "5893", "stop_desc": "008719 BECKETT & DAVIS", "stop_name": "8719 BECKETT/DAVIS", "location_type": null, "platform_code": null, "zone_id": null}, {"stop_lat": 30.213884, "stop_timezone": null, "wheelchair_boarding": 0, "stop_code": "5896", "direction_id": 0, "stop_lon": -97.863891, "parent_station": null, "route_id": "111", "stop_url": null, "stop_sequence": 6, "stop_id": "5896", "stop_desc": "008101 BECKETT & NEW HORIZONS", "stop_name": "8101 BECKETT AT DICK NICHOLS PARK", "location_type": null, "platform_code": null, "zone_id": null}, {"stop_lat": 30.219823, "stop_timezone": null, "wheelchair_boarding": 0, "stop_code": "5898", "direction_id": 0, "stop_lon": -97.858161, "parent_station": null, "route_id": "111", "stop_url": null, "stop_sequence": 7, "stop_id": "5898", "stop_desc": "007405 BECKETT & PONOMA", "stop_name": "7405 BECKETT/PONOMA", "location_type": null, "platform_code": null, "zone_id": null}, {"stop_lat": 30.2189, "stop_timezone": null, "wheelchair_boarding": 0, "stop_code": "4446", "direction_id": 0, "stop_lon": -97.85469, "parent_station": null, "route_id": "111", "stop_url": null, "stop_sequence": 8, "stop_id": "4446", "stop_desc": "005125 CONVICT HILL & WOODCREEK", "stop_name": "5125 CONVICT HILL/WOODCREEK", "location_type": null, "platform_code": null, "zone_id": null}, {"stop_lat": 30.217966, "stop_timezone": null, "wheelchair_boarding": 0, "stop_code": "4445", "direction_id": 0, "stop_lon": -97.852755, "parent_station": null, "route_id": "111", "stop_url": null, "stop_sequence": 9, "stop_id": "4445", "stop_desc": "004923 CONVICT HILL & FLAMING OAK", "stop_name": "4923 CONVICT HILL/FLAMING OAK", "location_type": null, "platform_code": null, "zone_id": null}, {"stop_lat": 30.219895, "stop_timezone": null, "wheelchair_boarding": 0, "stop_code": "5900", "direction_id": 0, "stop_lon": -97.843893, "parent_station": null, "route_id": "111", "stop_url": null, "stop_sequence": 10, "stop_id": "5900", "stop_desc": "006911 BRUSH COUNTRY & ONE OAK", "stop_name": "6911 BRUSH COUNTRY/ONE OAK", "location_type": null, "platform_code": null, "zone_id": null}, {"stop_lat": 30.222951, "stop_timezone": null, "wheelchair_boarding": 0, "stop_code": "5902", "direction_id": 0, "stop_lon": -97.841813, "parent_station": null, "route_id": "111", "stop_url": null, "stop_sequence": 11, "stop_id": "5902", "stop_desc": "006703 BRUSH COUNTRY & WILLIAM CANNON", "stop_name": "6703 BRUSH COUNTRY/WILLIAM CANNON", "location_type": null, "platform_code": null, "zone_id": null}, {"stop_lat": 30.265065, "stop_timezone": null, "wheelchair_boarding": 0, "stop_code": "5498", "direction_id": 0, "stop_lon": -97.750824, "parent_station": null, "route_id": "111", "stop_url": null, "stop_sequence": 12, "stop_id": "5498", "stop_desc": "000601 CESAR CHAVEZ & SAN ANTONIO", "stop_name": "SEAHOLM STATION (NB)", "location_type": null, "platform_code": null, "zone_id": null}, {"stop_lat": 30.265792, "stop_timezone": null, "wheelchair_boarding": 0, "stop_code": "5944", "direction_id": 0, "stop_lon": -97.746213, "parent_station": null, "route_id": "111", "stop_url": null, "stop_sequence": 13, "stop_id": "5944", "stop_desc": "000215 LAVACA & 3RD", "stop_name": "LAVACA/3RD", "location_type": null, "platform_code": null, "zone_id": null}, {"stop_lat": 30.268613, "stop_timezone": null, "wheelchair_boarding": 0, "stop_code": "2605", "direction_id": 0, "stop_lon": -97.745114, "parent_station": null, "route_id": "111", "stop_url": null, "stop_sequence": 14, "stop_id": "2605", "stop_desc": "000517 LAVACA & 6TH", "stop_name": "517 LAVACA/6TH", "location_type": null, "platform_code": null, "zone_id": null}, {"stop_lat": 30.271378, "stop_timezone": null, "wheelchair_boarding": 0, "stop_code": "4007", "direction_id": 0, "stop_lon": -97.744115, "parent_station": null, "route_id": "111", "stop_url": null, "stop_sequence": 15, "stop_id": "4007", "stop_desc": "000800 LAVACA & 9TH", "stop_name": "LAVACA/9TH", "location_type": null, "platform_code": null, "zone_id": null}, {"stop_lat": 30.2727, "stop_timezone": null, "wheelchair_boarding": 0, "stop_code": "506", "direction_id": 0, "stop_lon": -97.741376, "parent_station": null, "route_id": "111", "stop_url": null, "stop_sequence": 16, "stop_id": "506", "stop_desc": "000100 11TH & CONGRESS", "stop_name": "11TH/CONGRESS", "location_type": null, "platform_code": null, "zone_id": null}, {"stop_lat": 30.272, "stop_timezone": null, "wheelchair_boarding": 0, "stop_code": "863", "direction_id": 0, "stop_lon": -97.73884, "parent_station": null, "route_id": "111", "stop_url": null, "stop_sequence": 17, "stop_id": "863", "stop_desc": "000200 11TH & SAN JACINTO", "stop_name": "11TH/SAN JACINTO SW CORNER", "location_type": null, "platform_code": null, "zone_id": null}, {"stop_lat": 30.27271, "stop_timezone": null, "wheelchair_boarding": 0, "stop_code": "864", "direction_id": 0, "stop_lon": -97.73715, "parent_station": null, "route_id": "111", "stop_url": null, "stop_sequence": 18, "stop_id": "864", "stop_desc": "001117 TRINITY & 12TH", "stop_name": "TRINITY/12TH", "location_type": null, "platform_code": null, "zone_id": null}, {"stop_lat": 30.27579, "stop_timezone": null, "wheelchair_boarding": 0, "stop_code": "865", "direction_id": 0, "stop_lon": -97.73603, "parent_station": null, "route_id": "111", "stop_url": null, "stop_sequence": 19, "stop_id": "865", "stop_desc": "001400 TRINITY & 15TH", "stop_name": "TRINITY/15TH", "location_type": null, "platform_code": null, "zone_id": null}, {"stop_lat": 30.2831, "stop_timezone": null, "wheelchair_boarding": 0, "stop_code": "1253", "direction_id": 0, "stop_lon": -97.73391, "parent_station": null, "route_id": "111", "stop_url": null, "stop_sequence": 20, "stop_id": "1253", "stop_desc": "002031 SAN JACINTO & 21ST", "stop_name": "2031 SAN JACINTO/21ST", "location_type": null, "platform_code": null, "zone_id": null}, {"stop_lat": 30.28555, "stop_timezone": null, "wheelchair_boarding": 0, "stop_code": "3491", "direction_id": 0, "stop_lon": -97.733531, "parent_station": null, "route_id": "111", "stop_url": null, "stop_sequence": 21, "stop_id": "3491", "stop_desc": "002301 SAN JACINTO & 23RD", "stop_name": "2301 SAN JACINTO/23RD", "location_type": null, "platform_code": null, "zone_id": null}, {"stop_lat": 30.28694, "stop_timezone": null, "wheelchair_boarding": 0, "stop_code": "1255", "direction_id": 0, "stop_lon": -97.73343, "parent_station": null, "route_id": "111", "stop_url": null, "stop_sequence": 22, "stop_id": "1255", "stop_desc": "002329 SAN JACINTO & 24TH", "stop_name": "2329 SAN JACINTO/24TH", "location_type": null, "platform_code": null, "zone_id": null}]
