[{"stop_lat": 30.26882, "stop_timezone": null, "wheelchair_boarding": 0, "stop_code": "631", "direction_id": 0, "stop_lon": -97.68306, "parent_station": null, "route_id": "2", "stop_url": "http://www.capmetro.org/gismaps/stops/631.html", "stop_sequence": 1, "stop_id": "631", "stop_desc": "Northwest corner of LOTT and CHICO - Nearside", "stop_name": "LOTT/CHICO", "location_type": null, "platform_code": null, "zone_id": null}, {"stop_lat": 30.267656, "stop_timezone": null, "wheelchair_boarding": 0, "stop_code": "3724", "direction_id": 0, "stop_lon": -97.683815, "parent_station": null, "route_id": "2", "stop_url": "http://www.capmetro.org/gismaps/stops/3724.html", "stop_sequence": 2, "stop_id": "3724", "stop_desc": "Northwest corner of LOTT and PROCK - Nearside", "stop_name": "LOTT/PROCK", "location_type": null, "platform_code": null, "zone_id": null}, {"stop_lat": 30.26752, "stop_timezone": null, "wheelchair_boarding": 1, "stop_code": "3725", "direction_id": 0, "stop_lon": -97.68593, "parent_station": null, "route_id": "2", "stop_url": "http://www.capmetro.org/gismaps/stops/3725.html", "stop_sequence": 3, "stop_id": "3725", "stop_desc": "Northeast corner of PROCK and RICHARDINE - Nearside", "stop_name": "PROCK/RICHARDINE", "location_type": null, "platform_code": null, "zone_id": null}, {"stop_lat": 30.269099, "stop_timezone": null, "wheelchair_boarding": 1, "stop_code": "3726", "direction_id": 0, "stop_lon": -97.688482, "parent_station": null, "route_id": "2", "stop_url": "http://www.capmetro.org/gismaps/stops/3726.html", "stop_sequence": 4, "stop_id": "3726", "stop_desc": "Northeast corner of SARA and BERGER - Nearside", "stop_name": "SARA/BERGER", "location_type": null, "platform_code": null, "zone_id": null}, {"stop_lat": 30.271938, "stop_timezone": null, "wheelchair_boarding": 0, "stop_code": "3727", "direction_id": 0, "stop_lon": -97.691014, "parent_station": null, "route_id": "2", "stop_url": "http://www.capmetro.org/gismaps/stops/3727.html", "stop_sequence": 5, "stop_id": "3727", "stop_desc": "Northwest corner of SARA and MAP - Farside", "stop_name": "4600 SARA/MAP", "location_type": null, "platform_code": null, "zone_id": null}, {"stop_lat": 30.273662, "stop_timezone": null, "wheelchair_boarding": 0, "stop_code": "632", "direction_id": 0, "stop_lon": -97.69085, "parent_station": null, "route_id": "2", "stop_url": "http://www.capmetro.org/gismaps/stops/632.html", "stop_sequence": 6, "stop_id": "632", "stop_desc": "Northwest corner of OAK SPRINGS and SPRINGDALE - Farside", "stop_name": "3810 OAK SPRINGS/SPRINGDALE", "location_type": null, "platform_code": null, "zone_id": null}, {"stop_lat": 30.273773, "stop_timezone": null, "wheelchair_boarding": 0, "stop_code": "633", "direction_id": 0, "stop_lon": -97.692771, "parent_station": null, "route_id": "2", "stop_url": "http://www.capmetro.org/gismaps/stops/633.html", "stop_sequence": 7, "stop_id": "633", "stop_desc": "Northwest corner of OAK SPRINGS and SPRINGDALE - Mid-Block", "stop_name": "3700 OAK SPRINGS/SPRINGDALE", "location_type": null, "platform_code": null, "zone_id": null}, {"stop_lat": 30.273894, "stop_timezone": null, "wheelchair_boarding": 0, "stop_code": "5618", "direction_id": 0, "stop_lon": -97.695063, "parent_station": null, "route_id": "2", "stop_url": "http://www.capmetro.org/gismaps/stops/5618.html", "stop_sequence": 8, "stop_id": "5618", "stop_desc": "Northwest corner of OAK SPRINGS and GUNTER - Farside", "stop_name": "3508 OAK SPRINGS/GUNTER", "location_type": null, "platform_code": null, "zone_id": null}, {"stop_lat": 30.27361, "stop_timezone": null, "wheelchair_boarding": 0, "stop_code": "634", "direction_id": 0, "stop_lon": -97.69835, "parent_station": null, "route_id": "2", "stop_url": "http://www.capmetro.org/gismaps/stops/634.html", "stop_sequence": 9, "stop_id": "634", "stop_desc": "Northwest corner of OAK SPRINGS and AIRPORT - Farside", "stop_name": "3200 OAK SPRINGS/AIRPORT", "location_type": null, "platform_code": null, "zone_id": null}, {"stop_lat": 30.273206, "stop_timezone": null, "wheelchair_boarding": 0, "stop_code": "5433", "direction_id": 0, "stop_lon": -97.700665, "parent_station": null, "route_id": "2", "stop_url": "http://www.capmetro.org/gismaps/stops/5433.html", "stop_sequence": 10, "stop_id": "5433", "stop_desc": "Northwest corner of OAK SPRINGS and TILLERY - Mid-Block", "stop_name": "3000 OAK SPRINGS/TILLERY", "location_type": null, "platform_code": null, "zone_id": null}, {"stop_lat": 30.272939, "stop_timezone": null, "wheelchair_boarding": 0, "stop_code": "5464", "direction_id": 0, "stop_lon": -97.70225, "parent_station": null, "route_id": "2", "stop_url": "http://www.capmetro.org/gismaps/stops/5464.html", "stop_sequence": 11, "stop_id": "5464", "stop_desc": "Northeast corner of OAK SPRINGS and WEBBERVILLE - Mid-Block", "stop_name": "2810 OAK SPRINGS/WEBBERVILLE", "location_type": null, "platform_code": null, "zone_id": null}, {"stop_lat": 30.272556, "stop_timezone": null, "wheelchair_boarding": 0, "stop_code": "635", "direction_id": 0, "stop_lon": -97.704568, "parent_station": null, "route_id": "2", "stop_url": "http://www.capmetro.org/gismaps/stops/635.html", "stop_sequence": 12, "stop_id": "635", "stop_desc": "Northeast corner of OAK SPRINGS and RIDGEWAY - Nearside", "stop_name": "OAK SPRINGS/RIDGEWAY", "location_type": null, "platform_code": null, "zone_id": null}, {"stop_lat": 30.272509, "stop_timezone": null, "wheelchair_boarding": 0, "stop_code": "636", "direction_id": 0, "stop_lon": -97.706241, "parent_station": null, "route_id": "2", "stop_url": "http://www.capmetro.org/gismaps/stops/636.html", "stop_sequence": 13, "stop_id": "636", "stop_desc": "Northwest corner of ROSEWOOD and RIDGEWAY - Mid-Block", "stop_name": "2600 ROSEWOOD/RIDGEWAY", "location_type": null, "platform_code": null, "zone_id": null}, {"stop_lat": 30.272319, "stop_timezone": null, "wheelchair_boarding": 0, "stop_code": "637", "direction_id": 0, "stop_lon": -97.708296, "parent_station": null, "route_id": "2", "stop_url": "http://www.capmetro.org/gismaps/stops/637.html", "stop_sequence": 14, "stop_id": "637", "stop_desc": "Northwest corner of ROSEWOOD and BEDFORD - Farside", "stop_name": "2420 ROSEWOOD/BEDFORD", "location_type": null, "platform_code": null, "zone_id": null}, {"stop_lat": 30.271236, "stop_timezone": null, "wheelchair_boarding": 0, "stop_code": "638", "direction_id": 0, "stop_lon": -97.710649, "parent_station": null, "route_id": "2", "stop_url": "http://www.capmetro.org/gismaps/stops/638.html", "stop_sequence": 15, "stop_id": "638", "stop_desc": "Northwest corner of ROSEWOOD and HARGRAVE - Mid-Block", "stop_name": "2370 ROSEWOOD/HARGRAVE", "location_type": null, "platform_code": null, "zone_id": null}, {"stop_lat": 30.270419, "stop_timezone": null, "wheelchair_boarding": 1, "stop_code": "3728", "direction_id": 0, "stop_lon": -97.715, "parent_station": null, "route_id": "2", "stop_url": "http://www.capmetro.org/gismaps/stops/3728.html", "stop_sequence": 16, "stop_id": "3728", "stop_desc": "Northeast corner of ROSEWOOD and CHESTNUT - Nearside", "stop_name": "ROSEWOOD/CHESTNUT", "location_type": null, "platform_code": null, "zone_id": null}, {"stop_lat": 30.270096, "stop_timezone": null, "wheelchair_boarding": 0, "stop_code": "3729", "direction_id": 0, "stop_lon": -97.717001, "parent_station": null, "route_id": "2", "stop_url": "http://www.capmetro.org/gismaps/stops/3729.html", "stop_sequence": 17, "stop_id": "3729", "stop_desc": "Northeast corner of ROSEWOOD and ALAMO - Nearside", "stop_name": "ROSEWOOD/ALAMO", "location_type": null, "platform_code": null, "zone_id": null}, {"stop_lat": 30.269698, "stop_timezone": null, "wheelchair_boarding": 0, "stop_code": "4172", "direction_id": 0, "stop_lon": -97.719604, "parent_station": null, "route_id": "2", "stop_url": "http://www.capmetro.org/gismaps/stops/4172.html", "stop_sequence": 18, "stop_id": "4172", "stop_desc": "Northwest corner of ROSEWOOD and CHICON - Mid-Block", "stop_name": "ROSEWOOD/CHICON", "location_type": null, "platform_code": null, "zone_id": null}, {"stop_lat": 30.269427, "stop_timezone": null, "wheelchair_boarding": 1, "stop_code": "4170", "direction_id": 0, "stop_lon": -97.72125, "parent_station": null, "route_id": "2", "stop_url": "http://www.capmetro.org/gismaps/stops/4170.html", "stop_sequence": 19, "stop_id": "4170", "stop_desc": "Northwest corner of ROSEWOOD and LEONA - Farside", "stop_name": "ROSEWOOD/LEONA", "location_type": null, "platform_code": null, "zone_id": null}, {"stop_lat": 30.268978, "stop_timezone": null, "wheelchair_boarding": 0, "stop_code": "3730", "direction_id": 0, "stop_lon": -97.724138, "parent_station": null, "route_id": "2", "stop_url": "http://www.capmetro.org/gismaps/stops/3730.html", "stop_sequence": 20, "stop_id": "3730", "stop_desc": "Northeast corner of ROSEWOOD and ANGELINA - Nearside", "stop_name": "1422 ROSEWOOD/ANGELINA", "location_type": null, "platform_code": null, "zone_id": null}, {"stop_lat": 30.268756, "stop_timezone": null, "wheelchair_boarding": 1, "stop_code": "642", "direction_id": 0, "stop_lon": -97.725507, "parent_station": null, "route_id": "2", "stop_url": "http://www.capmetro.org/gismaps/stops/642.html", "stop_sequence": 21, "stop_id": "642", "stop_desc": "Northeast corner of ROSEWOOD and SAN BERNARD - Nearside", "stop_name": "ROSEWOOD/SAN BERNARD", "location_type": null, "platform_code": null, "zone_id": null}, {"stop_lat": 30.268704, "stop_timezone": null, "wheelchair_boarding": 0, "stop_code": "3731", "direction_id": 0, "stop_lon": -97.727634, "parent_station": null, "route_id": "2", "stop_url": "http://www.capmetro.org/gismaps/stops/3731.html", "stop_sequence": 22, "stop_id": "3731", "stop_desc": "Northwest corner of 11TH and LYDIA - Farside", "stop_name": "1200 11TH/LYDIA", "location_type": null, "platform_code": null, "zone_id": null}, {"stop_lat": 30.269995, "stop_timezone": null, "wheelchair_boarding": 0, "stop_code": "5496", "direction_id": 0, "stop_lon": -97.731193, "parent_station": null, "route_id": "2", "stop_url": "http://www.capmetro.org/gismaps/stops/5496.html", "stop_sequence": 23, "stop_id": "5496", "stop_desc": "Northeast corner of 11TH and BRANCH - Nearside", "stop_name": "904 11TH/BRANCH", "location_type": null, "platform_code": null, "zone_id": null}, {"stop_lat": 30.270893, "stop_timezone": null, "wheelchair_boarding": 0, "stop_code": "645", "direction_id": 0, "stop_lon": -97.734212, "parent_station": null, "route_id": "2", "stop_url": "http://www.capmetro.org/gismaps/stops/645.html", "stop_sequence": 24, "stop_id": "645", "stop_desc": "Northeast corner of 11TH and SABINE - Nearside", "stop_name": "E. 11TH/SABINE", "location_type": null, "platform_code": null, "zone_id": null}, {"stop_lat": 30.27116, "stop_timezone": null, "wheelchair_boarding": 0, "stop_code": "5780", "direction_id": 0, "stop_lon": -97.738825, "parent_station": null, "route_id": "2", "stop_url": "http://www.capmetro.org/gismaps/stops/5780.html", "stop_sequence": 25, "stop_id": "5780", "stop_desc": "Northeast corner of 10TH and SAN JACINTO - Nearside", "stop_name": "300 10TH/SAN JACINTO", "location_type": null, "platform_code": null, "zone_id": null}, {"stop_lat": 30.272292, "stop_timezone": null, "wheelchair_boarding": 0, "stop_code": "5804", "direction_id": 0, "stop_lon": -97.739054, "parent_station": null, "route_id": "2", "stop_url": "http://www.capmetro.org/gismaps/stops/5804.html", "stop_sequence": 25, "stop_id": "5804", "stop_desc": "Northwest corner of 11TH and SAN JACINTO - Farside", "stop_name": "219 11TH/SAN JACINTO", "location_type": null, "platform_code": null, "zone_id": null}, {"stop_lat": 30.271811, "stop_timezone": null, "wheelchair_boarding": 0, "stop_code": "5556", "direction_id": 0, "stop_lon": -97.741229, "parent_station": null, "route_id": "2", "stop_url": "http://www.capmetro.org/gismaps/stops/5556.html", "stop_sequence": 26, "stop_id": "5556", "stop_desc": "Northeast corner of 10TH and CONGRESS - Nearside", "stop_name": "NE CORNER 10TH/CONGRESS", "location_type": null, "platform_code": null, "zone_id": null}, {"stop_lat": 30.271503, "stop_timezone": null, "wheelchair_boarding": 0, "stop_code": "5950", "direction_id": 0, "stop_lon": -97.745478, "parent_station": null, "route_id": "2", "stop_url": "http://www.capmetro.org/gismaps/stops/5950.html", "stop_sequence": 26, "stop_id": "5950", "stop_desc": "Northwest corner of GUADALUPE and 8TH - Mid-Block", "stop_name": "GUADALUPE/8TH", "location_type": null, "platform_code": null, "zone_id": null}, {"stop_lat": 30.267331, "stop_timezone": null, "wheelchair_boarding": 0, "stop_code": "2613", "direction_id": 0, "stop_lon": -97.747037, "parent_station": null, "route_id": "2", "stop_url": "http://www.capmetro.org/gismaps/stops/2613.html", "stop_sequence": 27, "stop_id": "2613", "stop_desc": "Northwest corner of GUADALUPE and 4TH - Nearside", "stop_name": "GUADALUPE/4TH", "location_type": null, "platform_code": null, "zone_id": null}, {"stop_lat": 30.271366, "stop_timezone": null, "wheelchair_boarding": 0, "stop_code": "650", "direction_id": 0, "stop_lon": -97.743155, "parent_station": null, "route_id": "2", "stop_url": "http://www.capmetro.org/gismaps/stops/650.html", "stop_sequence": 27, "stop_id": "650", "stop_desc": "Northwest corner of COLORADO and 9TH - Nearside", "stop_name": "COLORADO/9TH", "location_type": null, "platform_code": null, "zone_id": null}, {"stop_lat": 30.267243, "stop_timezone": null, "wheelchair_boarding": 0, "stop_code": "5975", "direction_id": 0, "stop_lon": -97.747662, "parent_station": null, "route_id": "2", "stop_url": "http://www.capmetro.org/gismaps/stops/5975.html", "stop_sequence": 28, "stop_id": "5975", "stop_desc": "Northeast corner of 4TH and SAN ANTONIO - Farside", "stop_name": "415 4TH/SAN ANTONIO", "location_type": null, "platform_code": null, "zone_id": null}]
