[{"stop_timezone": "", "parent_station": "", "direction_id": "0", "stop_url": "https://www.capmetro.org/stopdetail/index.php?stop=5283", "stop_sequence": "1", "stop_id": "5283", "stop_desc": "000000 RED RIVER & 41ST", "location_type": "", "zone_id": "", "stop_lat": "30.300218", "wheelchair_boarding": "0", "stop_code": "5283", "stop_lon": "-97.720574", "route_id": "322", "stop_name": "Hancock Center"}, {"stop_timezone": "", "parent_station": "", "direction_id": "0", "stop_url": "https://www.capmetro.org/stopdetail/index.php?stop=2021", "stop_sequence": "10", "stop_id": "2021", "stop_desc": "001810 CHICON & MARTIN LUTHER KING", "location_type": "", "zone_id": "", "stop_lat": "30.279458", "wheelchair_boarding": "0", "stop_code": "2021", "stop_lon": "-97.721226", "route_id": "322", "stop_name": "1810 Chicon/Martin Luther King"}, {"stop_timezone": "", "parent_station": "", "direction_id": "0", "stop_url": "https://www.capmetro.org/stopdetail/index.php?stop=2022", "stop_sequence": "11", "stop_id": "2022", "stop_desc": "001600 CHICON & 16TH", "location_type": "", "zone_id": "", "stop_lat": "30.276889", "wheelchair_boarding": "0", "stop_code": "2022", "stop_lon": "-97.720647", "route_id": "322", "stop_name": "Chicon/16th"}, {"stop_timezone": "", "parent_station": "", "direction_id": "0", "stop_url": "https://www.capmetro.org/stopdetail/index.php?stop=2023", "stop_sequence": "12", "stop_id": "2023", "stop_desc": "001300 CHICON & 13TH", "location_type": "", "zone_id": "", "stop_lat": "30.274873", "wheelchair_boarding": "0", "stop_code": "2023", "stop_lon": "-97.720216", "route_id": "322", "stop_name": "Chicon/13th"}, {"stop_timezone": "", "parent_station": "", "direction_id": "0", "stop_url": "https://www.capmetro.org/stopdetail/index.php?stop=2024", "stop_sequence": "13", "stop_id": "2024", "stop_desc": "001196 CHICON & 12TH", "location_type": "", "zone_id": "", "stop_lat": "30.273484", "wheelchair_boarding": "0", "stop_code": "2024", "stop_lon": "-97.719920", "route_id": "322", "stop_name": "1196 Chicon/12th"}, {"stop_timezone": "", "parent_station": "", "direction_id": "0", "stop_url": "https://www.capmetro.org/stopdetail/index.php?stop=2025", "stop_sequence": "14", "stop_id": "2025", "stop_desc": "001100 CHICON & NEW YORK", "location_type": "", "zone_id": "", "stop_lat": "30.272537", "wheelchair_boarding": "0", "stop_code": "2025", "stop_lon": "-97.719729", "route_id": "322", "stop_name": "Chicon/New York"}, {"stop_timezone": "", "parent_station": "", "direction_id": "0", "stop_url": "https://www.capmetro.org/stopdetail/index.php?stop=2026", "stop_sequence": "15", "stop_id": "2026", "stop_desc": "001150 CHICON & ROSEWOOD", "location_type": "", "zone_id": "", "stop_lat": "30.269775", "wheelchair_boarding": "0", "stop_code": "2026", "stop_lon": "-97.719137", "route_id": "322", "stop_name": "1150 Chicon/Rosewood"}, {"stop_timezone": "", "parent_station": "", "direction_id": "0", "stop_url": "https://www.capmetro.org/stopdetail/index.php?stop=2027", "stop_sequence": "16", "stop_id": "2027", "stop_desc": "001140 CHICON & CORNELL", "location_type": "", "zone_id": "", "stop_lat": "30.268434", "wheelchair_boarding": "0", "stop_code": "2027", "stop_lon": "-97.719497", "route_id": "322", "stop_name": "Chicon/Cornell"}, {"stop_timezone": "", "parent_station": "", "direction_id": "0", "stop_url": "https://www.capmetro.org/stopdetail/index.php?stop=2028", "stop_sequence": "17", "stop_id": "2028", "stop_desc": "001100 CHICON & 11TH", "location_type": "", "zone_id": "", "stop_lat": "30.266178", "wheelchair_boarding": "0", "stop_code": "2028", "stop_lon": "-97.720553", "route_id": "322", "stop_name": "Chicon/11th"}, {"stop_timezone": "", "parent_station": "", "direction_id": "0", "stop_url": "https://www.capmetro.org/stopdetail/index.php?stop=2029", "stop_sequence": "18", "stop_id": "2029", "stop_desc": "000900 CHICON & 9TH", "location_type": "", "zone_id": "", "stop_lat": "30.264536", "wheelchair_boarding": "0", "stop_code": "2029", "stop_lon": "-97.721293", "route_id": "322", "stop_name": "900 Chicon (Huston-Tillotson)"}, {"stop_timezone": "", "parent_station": "", "direction_id": "0", "stop_url": "https://www.capmetro.org/stopdetail/index.php?stop=2030", "stop_sequence": "19", "stop_id": "2030", "stop_desc": "000700 CHICON & 7TH", "location_type": "", "zone_id": "", "stop_lat": "30.262761", "wheelchair_boarding": "0", "stop_code": "2030", "stop_lon": "-97.722107", "route_id": "322", "stop_name": "700 Chicon/7th"}, {"stop_timezone": "", "parent_station": "", "direction_id": "0", "stop_url": "https://www.capmetro.org/stopdetail/index.php?stop=1703", "stop_sequence": "2", "stop_id": "1703", "stop_desc": "004000 RED RIVER & 40TH", "location_type": "", "zone_id": "", "stop_lat": "30.298607", "wheelchair_boarding": "0", "stop_code": "1703", "stop_lon": "-97.722783", "route_id": "322", "stop_name": "4000 Red River/40th"}, {"stop_timezone": "", "parent_station": "", "direction_id": "0", "stop_url": "https://www.capmetro.org/stopdetail/index.php?stop=2031", "stop_sequence": "20", "stop_id": "2031", "stop_desc": "000600 CHICON & 6TH", "location_type": "", "zone_id": "", "stop_lat": "30.261800", "wheelchair_boarding": "0", "stop_code": "2031", "stop_lon": "-97.722548", "route_id": "322", "stop_name": "Chicon/6th"}, {"stop_timezone": "", "parent_station": "", "direction_id": "0", "stop_url": "https://www.capmetro.org/stopdetail/index.php?stop=2032", "stop_sequence": "21", "stop_id": "2032", "stop_desc": "000314 CHICON & 4TH", "location_type": "", "zone_id": "", "stop_lat": "30.259509", "wheelchair_boarding": "0", "stop_code": "2032", "stop_lon": "-97.723601", "route_id": "322", "stop_name": "314 Chicon/4th"}, {"stop_timezone": "", "parent_station": "", "direction_id": "0", "stop_url": "https://www.capmetro.org/stopdetail/index.php?stop=2033", "stop_sequence": "22", "stop_id": "2033", "stop_desc": "000206 CHICON & 2ND", "location_type": "", "zone_id": "", "stop_lat": "30.258414", "wheelchair_boarding": "0", "stop_code": "2033", "stop_lon": "-97.724115", "route_id": "322", "stop_name": "206 Chicon/2nd"}, {"stop_timezone": "", "parent_station": "", "direction_id": "0", "stop_url": "https://www.capmetro.org/stopdetail/index.php?stop=6330", "stop_sequence": "23", "stop_id": "6330", "stop_desc": "000091 CHICON & Cesar Chavez", "location_type": "", "zone_id": "", "stop_lat": "30.257258", "wheelchair_boarding": "0", "stop_code": "6330", "stop_lon": "-97.724661", "route_id": "322", "stop_name": "102 Chicon/Cesar Chavez"}, {"stop_timezone": "", "parent_station": "", "direction_id": "0", "stop_url": "https://www.capmetro.org/stopdetail/index.php?stop=2039", "stop_sequence": "24", "stop_id": "2039", "stop_desc": "001700 HOLLY & CHALMERS", "location_type": "", "zone_id": "", "stop_lat": "30.254220", "wheelchair_boarding": "0", "stop_code": "2039", "stop_lon": "-97.728132", "route_id": "322", "stop_name": "1700 Holly/Chalmers"}, {"stop_timezone": "", "parent_station": "", "direction_id": "0", "stop_url": "https://www.capmetro.org/stopdetail/index.php?stop=2040", "stop_sequence": "25", "stop_id": "2040", "stop_desc": "001600 HOLLY & COMAL", "location_type": "", "zone_id": "", "stop_lat": "30.254921", "wheelchair_boarding": "0", "stop_code": "2040", "stop_lon": "-97.730153", "route_id": "322", "stop_name": "1600 Holly/Comal"}, {"stop_timezone": "", "parent_station": "", "direction_id": "0", "stop_url": "https://www.capmetro.org/stopdetail/index.php?stop=2041", "stop_sequence": "26", "stop_id": "2041", "stop_desc": "001400 HOLLY & NAVASOTA", "location_type": "", "zone_id": "", "stop_lat": "30.255619", "wheelchair_boarding": "0", "stop_code": "2041", "stop_lon": "-97.732075", "route_id": "322", "stop_name": "1400 Holly/Navasota"}, {"stop_timezone": "", "parent_station": "", "direction_id": "0", "stop_url": "https://www.capmetro.org/stopdetail/index.php?stop=5427", "stop_sequence": "27", "stop_id": "5427", "stop_desc": "000058 WALLER & HOLLY", "location_type": "", "zone_id": "", "stop_lat": "30.256066", "wheelchair_boarding": "0", "stop_code": "5427", "stop_lon": "-97.734469", "route_id": "322", "stop_name": "58 Waller/Holly"}, {"stop_timezone": "", "parent_station": "", "direction_id": "0", "stop_url": "https://www.capmetro.org/stopdetail/index.php?stop=2121", "stop_sequence": "28", "stop_id": "2121", "stop_desc": "000038 WALLER & CLERMONT", "location_type": "", "zone_id": "", "stop_lat": "30.254144", "wheelchair_boarding": "0", "stop_code": "2121", "stop_lon": "-97.735340", "route_id": "322", "stop_name": "Waller/Clermont"}, {"stop_timezone": "", "parent_station": "", "direction_id": "0", "stop_url": "https://www.capmetro.org/stopdetail/index.php?stop=5234", "stop_sequence": "29", "stop_id": "5234", "stop_desc": "000021 RBJ CENTER & FESTIVAL BEACH", "location_type": "", "zone_id": "", "stop_lat": "30.252344", "wheelchair_boarding": "0", "stop_code": "5234", "stop_lon": "-97.734224", "route_id": "322", "stop_name": "Health Center EB"}, {"stop_timezone": "", "parent_station": "", "direction_id": "0", "stop_url": "https://www.capmetro.org/stopdetail/index.php?stop=2012", "stop_sequence": "3", "stop_id": "2012", "stop_desc": "001101 38TH HALF & ROBINSON", "location_type": "", "zone_id": "", "stop_lat": "30.294337", "wheelchair_boarding": "0", "stop_code": "2012", "stop_lon": "-97.718708", "route_id": "322", "stop_name": "1101 38th Half/Robinson"}, {"stop_timezone": "", "parent_station": "", "direction_id": "0", "stop_url": "https://www.capmetro.org/stopdetail/index.php?stop=1956", "stop_sequence": "30", "stop_id": "1956", "stop_desc": "000021 FESTIVAL BEACH & RBJ CENTER", "location_type": "", "zone_id": "", "stop_lat": "30.253413", "wheelchair_boarding": "0", "stop_code": "1956", "stop_lon": "-97.733849", "route_id": "322", "stop_name": "RBJ Center Stop 1"}, {"stop_timezone": "", "parent_station": "", "direction_id": "0", "stop_url": "https://www.capmetro.org/stopdetail/index.php?stop=5235", "stop_sequence": "31", "stop_id": "5235", "stop_desc": "000021 FESTIVAL BEACH & RBJ CENTER", "location_type": "", "zone_id": "", "stop_lat": "30.253786", "wheelchair_boarding": "0", "stop_code": "5235", "stop_lon": "-97.733840", "route_id": "322", "stop_name": "RBJ Center Stop 2"}, {"stop_timezone": "", "parent_station": "", "direction_id": "0", "stop_url": "https://www.capmetro.org/stopdetail/index.php?stop=2013", "stop_sequence": "4", "stop_id": "2013", "stop_desc": "001405 38TH HALF & CLARKSON", "location_type": "", "zone_id": "", "stop_lat": "30.292700", "wheelchair_boarding": "0", "stop_code": "2013", "stop_lon": "-97.715740", "route_id": "322", "stop_name": "1405 38th Half/Clarkson"}, {"stop_timezone": "", "parent_station": "", "direction_id": "0", "stop_url": "https://www.capmetro.org/stopdetail/index.php?stop=2014", "stop_sequence": "5", "stop_id": "2014", "stop_desc": "003710 CHERRYWOOD & 38TH", "location_type": "", "zone_id": "", "stop_lat": "30.291308", "wheelchair_boarding": "0", "stop_code": "2014", "stop_lon": "-97.713951", "route_id": "322", "stop_name": "38th 1/2 /Cherrywood"}, {"stop_timezone": "", "parent_station": "", "direction_id": "0", "stop_url": "https://www.capmetro.org/stopdetail/index.php?stop=2015", "stop_sequence": "6", "stop_id": "2015", "stop_desc": "003200 CHERRYWOOD & 32ND", "location_type": "", "zone_id": "", "stop_lat": "30.286857", "wheelchair_boarding": "0", "stop_code": "2015", "stop_lon": "-97.716876", "route_id": "322", "stop_name": "Cherrywood/32nd"}, {"stop_timezone": "", "parent_station": "", "direction_id": "0", "stop_url": "https://www.capmetro.org/stopdetail/index.php?stop=1643", "stop_sequence": "7", "stop_id": "1643", "stop_desc": "001400 DEAN KEETON & FRENCH", "location_type": "", "zone_id": "", "stop_lat": "30.284134", "wheelchair_boarding": "0", "stop_code": "1643", "stop_lon": "-97.720595", "route_id": "322", "stop_name": "Dean Keeton/French"}, {"stop_timezone": "", "parent_station": "", "direction_id": "0", "stop_url": "https://www.capmetro.org/stopdetail/index.php?stop=2019", "stop_sequence": "8", "stop_id": "2019", "stop_desc": "002300 LAFAYETTE & MANOR", "location_type": "", "zone_id": "", "stop_lat": "30.283897", "wheelchair_boarding": "0", "stop_code": "2019", "stop_lon": "-97.722231", "route_id": "322", "stop_name": "Lafayette/Manor"}, {"stop_timezone": "", "parent_station": "", "direction_id": "0", "stop_url": "https://www.capmetro.org/stopdetail/index.php?stop=2020", "stop_sequence": "9", "stop_id": "2020", "stop_desc": "002012 CHICON & 21ST", "location_type": "", "zone_id": "", "stop_lat": "30.281539", "wheelchair_boarding": "0", "stop_code": "2020", "stop_lon": "-97.721679", "route_id": "322", "stop_name": "2012 Chicon/21st"}]
