[{"stop_timezone": "", "parent_station": "", "direction_id": "0", "stop_url": "https://www.capmetro.org/stopdetail/index.php?stop=2908", "stop_sequence": "1", "stop_id": "2908", "stop_desc": "007925 ROCKWOOD & ASHDALE", "location_type": "", "zone_id": "", "stop_lat": "30.360488", "wheelchair_boarding": "0", "stop_code": "2908", "stop_lon": "-97.735877", "route_id": "491", "stop_name": "7925 Rockwood/Ashdale"}, {"stop_timezone": "", "parent_station": "", "direction_id": "0", "stop_url": "https://www.capmetro.org/stopdetail/index.php?stop=1997", "stop_sequence": "10", "stop_id": "1997", "stop_desc": "001400 35TH & CRAWFORD", "location_type": "", "zone_id": "", "stop_lat": "30.307130", "wheelchair_boarding": "0", "stop_code": "1997", "stop_lon": "-97.749270", "route_id": "491", "stop_name": "35th/Crawford"}, {"stop_timezone": "", "parent_station": "", "direction_id": "0", "stop_url": "https://www.capmetro.org/stopdetail/index.php?stop=1999", "stop_sequence": "11", "stop_id": "1999", "stop_desc": "001000 38TH & MEDICAL", "location_type": "", "zone_id": "", "stop_lat": "30.305323", "wheelchair_boarding": "0", "stop_code": "1999", "stop_lon": "-97.743760", "route_id": "491", "stop_name": "38th/Medical Parkway"}, {"stop_timezone": "", "parent_station": "", "direction_id": "0", "stop_url": "https://www.capmetro.org/stopdetail/index.php?stop=1902", "stop_sequence": "2", "stop_id": "1902", "stop_desc": "007920 ROCKWOOD & ASHDALE", "location_type": "", "zone_id": "", "stop_lat": "30.360677", "wheelchair_boarding": "0", "stop_code": "1902", "stop_lon": "-97.737737", "route_id": "491", "stop_name": "7920 Rockwood/Ashdale"}, {"stop_timezone": "", "parent_station": "", "direction_id": "0", "stop_url": "https://www.capmetro.org/stopdetail/index.php?stop=674", "stop_sequence": "3", "stop_id": "674", "stop_desc": "007656 NORTHCROSS & FOSTER", "location_type": "", "zone_id": "", "stop_lat": "30.353610", "wheelchair_boarding": "0", "stop_code": "674", "stop_lon": "-97.735920", "route_id": "491", "stop_name": "Northcross Transfer Center"}, {"stop_timezone": "", "parent_station": "", "direction_id": "0", "stop_url": "https://www.capmetro.org/stopdetail/index.php?stop=5160", "stop_sequence": "4", "stop_id": "5160", "stop_desc": "005700 BURNET & ALLANDALE", "location_type": "", "zone_id": "", "stop_lat": "30.334400", "wheelchair_boarding": "0", "stop_code": "5160", "stop_lon": "-97.740705", "route_id": "491", "stop_name": "Burnet/Allandale (HEB)"}, {"stop_timezone": "", "parent_station": "", "direction_id": "0", "stop_url": "https://www.capmetro.org/stopdetail/index.php?stop=5964", "stop_sequence": "5", "stop_id": "5964", "stop_desc": "005350 BURNET & LAWNMONT", "location_type": "", "zone_id": "", "stop_lat": "30.327517", "wheelchair_boarding": "0", "stop_code": "5964", "stop_lon": "-97.739833", "route_id": "491", "stop_name": "5350 Burnet/Lawnmont"}, {"stop_timezone": "", "parent_station": "", "direction_id": "0", "stop_url": "https://www.capmetro.org/stopdetail/index.php?stop=5006", "stop_sequence": "6", "stop_id": "5006", "stop_desc": "002300 NORTH LOOP & BURNET", "location_type": "", "zone_id": "", "stop_lat": "30.325594", "wheelchair_boarding": "0", "stop_code": "5006", "stop_lon": "-97.742036", "route_id": "491", "stop_name": "North Loop/Burnet"}, {"stop_timezone": "", "parent_station": "", "direction_id": "0", "stop_url": "https://www.capmetro.org/stopdetail/index.php?stop=1935", "stop_sequence": "7", "stop_id": "1935", "stop_desc": "004318 BULL CREEK & 44TH", "location_type": "", "zone_id": "", "stop_lat": "30.318162", "wheelchair_boarding": "0", "stop_code": "1935", "stop_lon": "-97.755038", "route_id": "491", "stop_name": "4318 Bull Creek/44th"}, {"stop_timezone": "", "parent_station": "", "direction_id": "0", "stop_url": "https://www.capmetro.org/stopdetail/index.php?stop=1936", "stop_sequence": "8", "stop_id": "1936", "stop_desc": "004220 BULL CREEK & JACKSON", "location_type": "", "zone_id": "", "stop_lat": "30.316658", "wheelchair_boarding": "0", "stop_code": "1936", "stop_lon": "-97.754834", "route_id": "491", "stop_name": "4220 Bull Creek/Jackson"}, {"stop_timezone": "", "parent_station": "", "direction_id": "0", "stop_url": "https://www.capmetro.org/stopdetail/index.php?stop=1938", "stop_sequence": "9", "stop_id": "1938", "stop_desc": "003800 BULL CREEK & 38TH", "location_type": "", "zone_id": "", "stop_lat": "30.311138", "wheelchair_boarding": "0", "stop_code": "1938", "stop_lon": "-97.752058", "route_id": "491", "stop_name": "Bull Creek/38th"}]
