[{"stop_lat": 30.283826, "stop_timezone": null, "wheelchair_boarding": 0, "stop_code": "5178", "direction_id": 0, "stop_lon": -97.740899, "parent_station": null, "route_id": "663", "stop_url": null, "stop_sequence": 1, "stop_id": "5178", "stop_desc": "000300 21ST & WHITIS", "stop_name": "21ST/WHITIS", "location_type": null, "platform_code": null, "zone_id": null}, {"stop_lat": 30.27896, "stop_timezone": null, "wheelchair_boarding": 0, "stop_code": "501", "direction_id": 0, "stop_lon": -97.74271, "parent_station": null, "route_id": "663", "stop_url": null, "stop_sequence": 2, "stop_id": "501", "stop_desc": "001600 GUADALUPE & 16TH", "stop_name": "GUADALUPE/16TH STREET", "location_type": null, "platform_code": null, "zone_id": null}, {"stop_lat": 30.27002, "stop_timezone": null, "wheelchair_boarding": 0, "stop_code": "1969", "direction_id": 0, "stop_lon": -97.74939, "parent_station": null, "route_id": "663", "stop_url": null, "stop_sequence": 3, "stop_id": "1969", "stop_desc": "000600 6TH & RIO GRANDE", "stop_name": "6TH/RIO GRANDE", "location_type": null, "platform_code": null, "zone_id": null}, {"stop_lat": 30.271955, "stop_timezone": null, "wheelchair_boarding": 0, "stop_code": "1971", "direction_id": 0, "stop_lon": -97.754879, "parent_station": null, "route_id": "663", "stop_url": null, "stop_sequence": 4, "stop_id": "1971", "stop_desc": "001000 6TH & BAYLOR", "stop_name": "6TH/BAYLOR", "location_type": null, "platform_code": null, "zone_id": null}, {"stop_lat": 30.273935, "stop_timezone": null, "wheelchair_boarding": 0, "stop_code": "1973", "direction_id": 0, "stop_lon": -97.760118, "parent_station": null, "route_id": "663", "stop_url": null, "stop_sequence": 5, "stop_id": "1973", "stop_desc": "001315 6TH & PRESSLER", "stop_name": "6TH/PRESSLER", "location_type": null, "platform_code": null, "zone_id": null}, {"stop_lat": 30.276005, "stop_timezone": null, "wheelchair_boarding": 0, "stop_code": "3519", "direction_id": 0, "stop_lon": -97.76454, "parent_station": null, "route_id": "663", "stop_url": null, "stop_sequence": 6, "stop_id": "3519", "stop_desc": "001618 6TH & CAMPBELL", "stop_name": "6TH/CAMPBELL", "location_type": null, "platform_code": null, "zone_id": null}, {"stop_lat": 30.279419, "stop_timezone": null, "wheelchair_boarding": 0, "stop_code": "5825", "direction_id": 0, "stop_lon": -97.774048, "parent_station": null, "route_id": "663", "stop_url": null, "stop_sequence": 7, "stop_id": "5825", "stop_desc": "002530 LAKE AUSTIN & HEARN", "stop_name": "2530 LAKE AUSTIN/HEARN", "location_type": null, "platform_code": null, "zone_id": null}, {"stop_lat": 30.282319, "stop_timezone": null, "wheelchair_boarding": 0, "stop_code": "1981", "direction_id": 0, "stop_lon": -97.776058, "parent_station": null, "route_id": "663", "stop_url": null, "stop_sequence": 8, "stop_id": "1981", "stop_desc": "002800 LAKE AUSTIN & 7TH", "stop_name": "LAKE AUSTIN/7TH", "location_type": null, "platform_code": null, "zone_id": null}, {"stop_lat": 30.288949, "stop_timezone": null, "wheelchair_boarding": 0, "stop_code": "4985", "direction_id": 0, "stop_lon": -97.783344, "parent_station": null, "route_id": "663", "stop_url": null, "stop_sequence": 9, "stop_id": "4985", "stop_desc": "003350 KERMIT & LUFKIN", "stop_name": "KERMIT/LUFKIN", "location_type": null, "platform_code": null, "zone_id": null}]
