[{"stop_lat": 30.289236, "stop_timezone": null, "wheelchair_boarding": 0, "stop_code": "5038", "direction_id": 0, "stop_lon": -97.735366, "parent_station": null, "route_id": "656", "stop_url": "http://www.capmetro.org/gismaps/stops/5038.html", "stop_sequence": 1, "stop_id": "5038", "stop_desc": "Southwest corner of DEAN KEETON and SAN JACINTO - Mid-Block", "stop_name": "301 DEAN KEETON/SAN JACINTO", "location_type": null, "platform_code": null, "zone_id": null}, {"stop_lat": 30.294287, "stop_timezone": null, "wheelchair_boarding": 0, "stop_code": "4117", "direction_id": 0, "stop_lon": -97.735581, "parent_station": null, "route_id": "656", "stop_url": "http://www.capmetro.org/gismaps/stops/4117.html", "stop_sequence": 2, "stop_id": "4117", "stop_desc": "Northwest corner of 31ST and WALLING - Mid-Block", "stop_name": "31ST/WALLING", "location_type": null, "platform_code": null, "zone_id": null}, {"stop_lat": 30.29722, "stop_timezone": null, "wheelchair_boarding": 1, "stop_code": "4115", "direction_id": 0, "stop_lon": -97.735581, "parent_station": null, "route_id": "656", "stop_url": "http://www.capmetro.org/gismaps/stops/4115.html", "stop_sequence": 3, "stop_id": "4115", "stop_desc": "Southeast corner of SPEEDWAY and 33RD - Nearside", "stop_name": "3201 SPEEDWAY/33RD", "location_type": null, "platform_code": null, "zone_id": null}, {"stop_lat": 30.299217, "stop_timezone": null, "wheelchair_boarding": 0, "stop_code": "1049", "direction_id": 0, "stop_lon": -97.734341, "parent_station": null, "route_id": "656", "stop_url": "http://www.capmetro.org/gismaps/stops/1049.html", "stop_sequence": 4, "stop_id": "1049", "stop_desc": "Southeast corner of SPEEDWAY and 35TH - Nearside", "stop_name": "SPEEDWAY/35TH", "location_type": null, "platform_code": null, "zone_id": null}, {"stop_lat": 30.301591, "stop_timezone": null, "wheelchair_boarding": 0, "stop_code": "1051", "direction_id": 0, "stop_lon": -97.732825, "parent_station": null, "route_id": "656", "stop_url": "http://www.capmetro.org/gismaps/stops/1051.html", "stop_sequence": 5, "stop_id": "1051", "stop_desc": "Southeast corner of SPEEDWAY and 39TH - Nearside", "stop_name": "SPEEDWAY/39TH", "location_type": null, "platform_code": null, "zone_id": null}, {"stop_lat": 30.303334, "stop_timezone": null, "wheelchair_boarding": 0, "stop_code": "3515", "direction_id": 0, "stop_lon": -97.731711, "parent_station": null, "route_id": "656", "stop_url": "http://www.capmetro.org/gismaps/stops/3515.html", "stop_sequence": 6, "stop_id": "3515", "stop_desc": "Northeast corner of SPEEDWAY and 40TH - Mid-Block", "stop_name": "4001 SPEEDWAY/40TH", "location_type": null, "platform_code": null, "zone_id": null}, {"stop_lat": 30.306616, "stop_timezone": null, "wheelchair_boarding": 0, "stop_code": "1053", "direction_id": 0, "stop_lon": -97.729616, "parent_station": null, "route_id": "656", "stop_url": "http://www.capmetro.org/gismaps/stops/1053.html", "stop_sequence": 7, "stop_id": "1053", "stop_desc": "Northeast corner of SPEEDWAY and 43RD - Farside", "stop_name": "4301 SPEEDWAY/43RD", "location_type": null, "platform_code": null, "zone_id": null}, {"stop_lat": 30.308091, "stop_timezone": null, "wheelchair_boarding": 0, "stop_code": "4113", "direction_id": 0, "stop_lon": -97.728681, "parent_station": null, "route_id": "656", "stop_url": "http://www.capmetro.org/gismaps/stops/4113.html", "stop_sequence": 8, "stop_id": "4113", "stop_desc": "Northeast corner of SPEEDWAY and 44TH - Mid-Block", "stop_name": "SPEEDWAY/44TH", "location_type": null, "platform_code": null, "zone_id": null}, {"stop_lat": 30.312711, "stop_timezone": null, "wheelchair_boarding": 1, "stop_code": "4515", "direction_id": 0, "stop_lon": -97.731308, "parent_station": null, "route_id": "656", "stop_url": "http://www.capmetro.org/gismaps/stops/4515.html", "stop_sequence": 9, "stop_id": "4515", "stop_desc": "Northeast corner of 46TH and GUADALUPE - Nearside", "stop_name": "46TH/GUADALUPE", "location_type": null, "platform_code": null, "zone_id": null}, {"stop_lat": 30.314726, "stop_timezone": null, "wheelchair_boarding": 0, "stop_code": "4516", "direction_id": 0, "stop_lon": -97.730353, "parent_station": null, "route_id": "656", "stop_url": "http://www.capmetro.org/gismaps/stops/4516.html", "stop_sequence": 10, "stop_id": "4516", "stop_desc": "Northeast corner of GUADALUPE and 46TH - Mid-Block", "stop_name": "4801 GUADALUPE/46TH", "location_type": null, "platform_code": null, "zone_id": null}, {"stop_lat": 30.316531, "stop_timezone": null, "wheelchair_boarding": 0, "stop_code": "4518", "direction_id": 0, "stop_lon": -97.72913, "parent_station": null, "route_id": "656", "stop_url": "http://www.capmetro.org/gismaps/stops/4518.html", "stop_sequence": 11, "stop_id": "4518", "stop_desc": "Northeast corner of GUADALUPE and 46TH - Mid-Block", "stop_name": "4903 GUADALUPE/46TH", "location_type": null, "platform_code": null, "zone_id": null}]
