[{"stop_timezone": "", "parent_station": "", "direction_id": "1", "stop_url": "https://www.capmetro.org/stopdetail/index.php?stop=4985", "stop_sequence": "1", "stop_id": "4985", "stop_desc": "003350 KERMIT & LUFKIN", "location_type": "", "zone_id": "", "stop_lat": "30.288949", "wheelchair_boarding": "0", "stop_code": "4985", "stop_lon": "-97.783344", "route_id": "663", "stop_name": "Kermit/Lufkin"}, {"stop_timezone": "", "parent_station": "", "direction_id": "1", "stop_url": "https://www.capmetro.org/stopdetail/index.php?stop=2110", "stop_sequence": "10", "stop_id": "2110", "stop_desc": "000600 5TH & NUECES", "location_type": "", "zone_id": "", "stop_lat": "30.268672", "wheelchair_boarding": "0", "stop_code": "2110", "stop_lon": "-97.748979", "route_id": "663", "stop_name": "5th/Nueces"}, {"stop_timezone": "", "parent_station": "", "direction_id": "1", "stop_url": "https://www.capmetro.org/stopdetail/index.php?stop=593", "stop_sequence": "11", "stop_id": "593", "stop_desc": "001415 LAVACA & 15TH", "location_type": "", "zone_id": "", "stop_lat": "30.277383", "wheelchair_boarding": "0", "stop_code": "593", "stop_lon": "-97.741894", "route_id": "663", "stop_name": "Lavaca/15th"}, {"stop_timezone": "", "parent_station": "", "direction_id": "1", "stop_url": "https://www.capmetro.org/stopdetail/index.php?stop=6159", "stop_sequence": "12", "stop_id": "6159", "stop_desc": "002007 UNIVERSITY & 21ST", "location_type": "", "zone_id": "", "stop_lat": "30.283593", "wheelchair_boarding": "0", "stop_code": "6159", "stop_lon": "-97.739574", "route_id": "663", "stop_name": "University/21st"}, {"stop_timezone": "", "parent_station": "", "direction_id": "1", "stop_url": "https://www.capmetro.org/stopdetail/index.php?stop=5178", "stop_sequence": "13", "stop_id": "5178", "stop_desc": "000300 21ST & WHITIS", "location_type": "", "zone_id": "", "stop_lat": "30.283826", "wheelchair_boarding": "0", "stop_code": "5178", "stop_lon": "-97.740900", "route_id": "663", "stop_name": "21st/Whitis"}, {"stop_timezone": "", "parent_station": "", "direction_id": "1", "stop_url": "https://www.capmetro.org/stopdetail/index.php?stop=3520", "stop_sequence": "2", "stop_id": "3520", "stop_desc": "003300 KERMIT & JASPER", "location_type": "", "zone_id": "", "stop_lat": "30.287388", "wheelchair_boarding": "0", "stop_code": "3520", "stop_lon": "-97.782369", "route_id": "663", "stop_name": "Kermit/Jasper"}, {"stop_timezone": "", "parent_station": "", "direction_id": "1", "stop_url": "https://www.capmetro.org/stopdetail/index.php?stop=4838", "stop_sequence": "3", "stop_id": "4838", "stop_desc": "003200 JASPER & LAKE AUSTIN", "location_type": "", "zone_id": "", "stop_lat": "30.287732", "wheelchair_boarding": "0", "stop_code": "4838", "stop_lon": "-97.780403", "route_id": "663", "stop_name": "Jasper/Lake Austin"}, {"stop_timezone": "", "parent_station": "", "direction_id": "1", "stop_url": "https://www.capmetro.org/stopdetail/index.php?stop=4986", "stop_sequence": "4", "stop_id": "4986", "stop_desc": "002900 LAKE AUSTIN & JASPER", "location_type": "", "zone_id": "", "stop_lat": "30.284539", "wheelchair_boarding": "0", "stop_code": "4986", "stop_lon": "-97.777864", "route_id": "663", "stop_name": "Lake Austin/Jasper"}, {"stop_timezone": "", "parent_station": "", "direction_id": "1", "stop_url": "https://www.capmetro.org/stopdetail/index.php?stop=5626", "stop_sequence": "5", "stop_id": "5626", "stop_desc": "002629 LAKE AUSTIN & EXPOSITION", "location_type": "", "zone_id": "", "stop_lat": "30.282567", "wheelchair_boarding": "0", "stop_code": "5626", "stop_lon": "-97.776462", "route_id": "663", "stop_name": "2629 Lake Austin/Exposition"}, {"stop_timezone": "", "parent_station": "", "direction_id": "1", "stop_url": "https://www.capmetro.org/stopdetail/index.php?stop=4162", "stop_sequence": "6", "stop_id": "4162", "stop_desc": "002531 LAKE AUSTIN & DUMAS", "location_type": "", "zone_id": "", "stop_lat": "30.279378", "wheelchair_boarding": "0", "stop_code": "4162", "stop_lon": "-97.774279", "route_id": "663", "stop_name": "2531 Lake Austin/Dumas"}, {"stop_timezone": "", "parent_station": "", "direction_id": "1", "stop_url": "https://www.capmetro.org/stopdetail/index.php?stop=4086", "stop_sequence": "7", "stop_id": "4086", "stop_desc": "001500 5TH & WEST LYNN", "location_type": "", "zone_id": "", "stop_lat": "30.273605", "wheelchair_boarding": "0", "stop_code": "4086", "stop_lon": "-97.763241", "route_id": "663", "stop_name": "5th/West Lynn"}, {"stop_timezone": "", "parent_station": "", "direction_id": "1", "stop_url": "https://www.capmetro.org/stopdetail/index.php?stop=2104", "stop_sequence": "8", "stop_id": "2104", "stop_desc": "001400 5TH & PRESSLER", "location_type": "", "zone_id": "", "stop_lat": "30.272678", "wheelchair_boarding": "0", "stop_code": "2104", "stop_lon": "-97.760934", "route_id": "663", "stop_name": "5th/Pressler"}, {"stop_timezone": "", "parent_station": "", "direction_id": "1", "stop_url": "https://www.capmetro.org/stopdetail/index.php?stop=2106", "stop_sequence": "9", "stop_id": "2106", "stop_desc": "001025 5TH & BAYLOR", "location_type": "", "zone_id": "", "stop_lat": "30.270977", "wheelchair_boarding": "0", "stop_code": "2106", "stop_lon": "-97.756406", "route_id": "663", "stop_name": "5th/Baylor"}]
