[{"stop_lat": 30.305323, "stop_timezone": null, "wheelchair_boarding": 0, "stop_code": "1999", "direction_id": 1, "stop_lon": -97.74376, "parent_station": null, "route_id": "491", "stop_url": null, "stop_sequence": 1, "stop_id": "1999", "stop_desc": "001000 38TH & MEDICAL", "stop_name": "38TH/MEDICAL PARKWAY", "location_type": null, "platform_code": null, "zone_id": null}, {"stop_lat": 30.30282, "stop_timezone": null, "wheelchair_boarding": 0, "stop_code": "2913", "direction_id": 1, "stop_lon": -97.744768, "parent_station": null, "route_id": "491", "stop_url": null, "stop_sequence": 2, "stop_id": "2913", "stop_desc": "003400 LAMAR & 34TH", "stop_name": "3400 LAMAR/34TH", "location_type": null, "platform_code": null, "zone_id": null}, {"stop_lat": 30.31166, "stop_timezone": null, "wheelchair_boarding": 0, "stop_code": "1866", "direction_id": 1, "stop_lon": -97.75222, "parent_station": null, "route_id": "491", "stop_url": null, "stop_sequence": 3, "stop_id": "1866", "stop_desc": "003800 BULL CREEK & 39TH", "stop_name": "BULL CREEK/39TH", "location_type": null, "platform_code": null, "zone_id": null}, {"stop_lat": 30.316743, "stop_timezone": null, "wheelchair_boarding": 0, "stop_code": "4497", "direction_id": 1, "stop_lon": -97.754711, "parent_station": null, "route_id": "491", "stop_url": null, "stop_sequence": 4, "stop_id": "4497", "stop_desc": "004219 BULL CREEK & JACKSON", "stop_name": "4219 BULL CREEK/JACKSON", "location_type": null, "platform_code": null, "zone_id": null}, {"stop_lat": 30.3204, "stop_timezone": null, "wheelchair_boarding": 0, "stop_code": "1871", "direction_id": 1, "stop_lon": -97.75347, "parent_station": null, "route_id": "491", "stop_url": null, "stop_sequence": 5, "stop_id": "1871", "stop_desc": "004419 BULL CREEK & 45TH", "stop_name": "4419 BULL CREEK/45TH", "location_type": null, "platform_code": null, "zone_id": null}, {"stop_lat": 30.325374, "stop_timezone": null, "wheelchair_boarding": 0, "stop_code": "5002", "direction_id": 1, "stop_lon": -97.742201, "parent_station": null, "route_id": "491", "stop_url": null, "stop_sequence": 6, "stop_id": "5002", "stop_desc": "002233 NORTH LOOP & WOODVIEW", "stop_name": "NORTH LOOP/WOODVIEW", "location_type": null, "platform_code": null, "zone_id": null}, {"stop_lat": 30.32877, "stop_timezone": null, "wheelchair_boarding": 0, "stop_code": "819", "direction_id": 1, "stop_lon": -97.73974, "parent_station": null, "route_id": "491", "stop_url": null, "stop_sequence": 7, "stop_id": "819", "stop_desc": "005411 BURNET & HOUSTON", "stop_name": "BURNET/HOUSTON", "location_type": null, "platform_code": null, "zone_id": null}, {"stop_lat": 30.330446, "stop_timezone": null, "wheelchair_boarding": 0, "stop_code": "820", "direction_id": 1, "stop_lon": -97.739876, "parent_station": null, "route_id": "491", "stop_url": null, "stop_sequence": 8, "stop_id": "820", "stop_desc": "005500 BURNET & ADAMS", "stop_name": "BURNET/ADAMS", "location_type": null, "platform_code": null, "zone_id": null}, {"stop_lat": 30.3344, "stop_timezone": null, "wheelchair_boarding": 0, "stop_code": "5160", "direction_id": 1, "stop_lon": -97.740705, "parent_station": null, "route_id": "491", "stop_url": null, "stop_sequence": 9, "stop_id": "5160", "stop_desc": "005700 BURNET & ALLANDALE", "stop_name": "BURNET/ALLANDALE (HEB)", "location_type": null, "platform_code": null, "zone_id": null}, {"stop_lat": 30.3342, "stop_timezone": null, "wheelchair_boarding": 0, "stop_code": "822", "direction_id": 1, "stop_lon": -97.7398, "parent_station": null, "route_id": "491", "stop_url": null, "stop_sequence": 10, "stop_id": "822", "stop_desc": "005829 BURNET & KOENIG", "stop_name": "ALLANDALE STATION (NB)", "location_type": null, "platform_code": null, "zone_id": null}, {"stop_lat": 30.356147, "stop_timezone": null, "wheelchair_boarding": 0, "stop_code": "830", "direction_id": 1, "stop_lon": -97.733647, "parent_station": null, "route_id": "491", "stop_url": null, "stop_sequence": 11, "stop_id": "830", "stop_desc": "007711 BURNET & NORTHCROSS MALL", "stop_name": "NORTHCROSS MALL", "location_type": null, "platform_code": null, "zone_id": null}, {"stop_lat": 30.36084, "stop_timezone": null, "wheelchair_boarding": 0, "stop_code": "1904", "direction_id": 1, "stop_lon": -97.73743, "parent_station": null, "route_id": "491", "stop_url": null, "stop_sequence": 12, "stop_id": "1904", "stop_desc": "007921 ROCKWOOD & ANDERSON", "stop_name": "7921 ROCKWOOD/ANDERSON", "location_type": null, "platform_code": null, "zone_id": null}, {"stop_lat": 30.360488, "stop_timezone": null, "wheelchair_boarding": 0, "stop_code": "2908", "direction_id": 1, "stop_lon": -97.735877, "parent_station": null, "route_id": "491", "stop_url": null, "stop_sequence": 13, "stop_id": "2908", "stop_desc": "007925 ROCKWOOD & ASHDALE", "stop_name": "7925 ROCKWOOD/ASHDALE", "location_type": null, "platform_code": null, "zone_id": null}]
