[{"stop_timezone": "", "parent_station": "", "direction_id": "1", "stop_url": "https://www.capmetro.org/stopdetail/index.php?stop=1398", "stop_sequence": "1", "stop_id": "1398", "stop_desc": "006001 BERKMAN & BRIARCLIFF", "location_type": "", "zone_id": "", "stop_lat": "30.314779", "wheelchair_boarding": "0", "stop_code": "1398", "stop_lon": "-97.692038", "route_id": "300", "stop_name": "6001 Berkman/Briarcliff"}, {"stop_timezone": "", "parent_station": "", "direction_id": "1", "stop_url": "https://www.capmetro.org/stopdetail/index.php?stop=4219", "stop_sequence": "1", "stop_id": "4219", "stop_desc": "002700 WESTERN TRAILS & SAGEBRUSH", "location_type": "", "zone_id": "", "stop_lat": "30.229104", "wheelchair_boarding": "0", "stop_code": "4219", "stop_lon": "-97.800500", "route_id": "300", "stop_name": "2700 Western Trails/Sagebrush"}, {"stop_timezone": "", "parent_station": "", "direction_id": "1", "stop_url": "https://www.capmetro.org/stopdetail/index.php?stop=5544", "stop_sequence": "1", "stop_id": "5544", "stop_desc": "000301 BEN WHITE & CONGRESS", "location_type": "", "zone_id": "", "stop_lat": "30.222917", "wheelchair_boarding": "0", "stop_code": "5544", "stop_lon": "-97.766932", "route_id": "300", "stop_name": "South Congress Bay B"}, {"stop_timezone": "", "parent_station": "", "direction_id": "1", "stop_url": "https://www.capmetro.org/stopdetail/index.php?stop=1239", "stop_sequence": "10", "stop_id": "1239", "stop_desc": "002501 PARKER & BRAXTON", "location_type": "", "zone_id": "", "stop_lat": "30.230144", "wheelchair_boarding": "0", "stop_code": "1239", "stop_lon": "-97.738200", "route_id": "300", "stop_name": "2501 Parker/Braxton"}, {"stop_timezone": "", "parent_station": "", "direction_id": "1", "stop_url": "https://www.capmetro.org/stopdetail/index.php?stop=5505", "stop_sequence": "10", "stop_id": "5505", "stop_desc": "001120 ST JOHNS & GRAND CANYON", "location_type": "", "zone_id": "", "stop_lat": "30.328380", "wheelchair_boarding": "0", "stop_code": "5505", "stop_lon": "-97.694615", "route_id": "300", "stop_name": "1120 St Johns/Grand Canyon"}, {"stop_timezone": "", "parent_station": "", "direction_id": "1", "stop_url": "https://www.capmetro.org/stopdetail/index.php?stop=772", "stop_sequence": "10", "stop_id": "772", "stop_desc": "002401 LAMAR & BLUEBONNET", "location_type": "", "zone_id": "", "stop_lat": "30.246752", "wheelchair_boarding": "0", "stop_code": "772", "stop_lon": "-97.777395", "route_id": "300", "stop_name": "2401 Lamar/Bluebonnet"}, {"stop_timezone": "", "parent_station": "", "direction_id": "1", "stop_url": "https://www.capmetro.org/stopdetail/index.php?stop=1240", "stop_sequence": "11", "stop_id": "1240", "stop_desc": "002301 PARKER & OLTORF", "location_type": "", "zone_id": "", "stop_lat": "30.232116", "wheelchair_boarding": "0", "stop_code": "1240", "stop_lon": "-97.736934", "route_id": "300", "stop_name": "2301 Parker/Oltorf"}, {"stop_timezone": "", "parent_station": "", "direction_id": "1", "stop_url": "https://www.capmetro.org/stopdetail/index.php?stop=1408", "stop_sequence": "11", "stop_id": "1408", "stop_desc": "001034 ST JOHNS & MEADOR", "location_type": "", "zone_id": "", "stop_lat": "30.329250", "wheelchair_boarding": "0", "stop_code": "1408", "stop_lon": "-97.696440", "route_id": "300", "stop_name": "1034 St Johns/Meador"}, {"stop_timezone": "", "parent_station": "", "direction_id": "1", "stop_url": "https://www.capmetro.org/stopdetail/index.php?stop=773", "stop_sequence": "11", "stop_id": "773", "stop_desc": "002201 LAMAR & KINNEY", "location_type": "", "zone_id": "", "stop_lat": "30.247279", "wheelchair_boarding": "0", "stop_code": "773", "stop_lon": "-97.774278", "route_id": "300", "stop_name": "2201 Lamar/Kinney"}, {"stop_timezone": "", "parent_station": "", "direction_id": "1", "stop_url": "https://www.capmetro.org/stopdetail/index.php?stop=1409", "stop_sequence": "12", "stop_id": "1409", "stop_desc": "001008 ST JOHNS & BETHUNE", "location_type": "", "zone_id": "", "stop_lat": "30.330320", "wheelchair_boarding": "0", "stop_code": "1409", "stop_lon": "-97.698540", "route_id": "300", "stop_name": "1008 St Johns/Bethune"}, {"stop_timezone": "", "parent_station": "", "direction_id": "1", "stop_url": "https://www.capmetro.org/stopdetail/index.php?stop=2260", "stop_sequence": "12", "stop_id": "2260", "stop_desc": "002113 LAMAR & OLTORF", "location_type": "", "zone_id": "", "stop_lat": "30.248024", "wheelchair_boarding": "0", "stop_code": "2260", "stop_lon": "-97.771014", "route_id": "300", "stop_name": "Oltorf West Station (NB)"}, {"stop_timezone": "", "parent_station": "", "direction_id": "1", "stop_url": "https://www.capmetro.org/stopdetail/index.php?stop=4290", "stop_sequence": "12", "stop_id": "4290", "stop_desc": "001900 OLTORF & BURLESON", "location_type": "", "zone_id": "", "stop_lat": "30.231078", "wheelchair_boarding": "0", "stop_code": "4290", "stop_lon": "-97.735306", "route_id": "300", "stop_name": "Oltorf/Burleson"}, {"stop_timezone": "", "parent_station": "", "direction_id": "1", "stop_url": "https://www.capmetro.org/stopdetail/index.php?stop=1410", "stop_sequence": "13", "stop_id": "1410", "stop_desc": "000900 ST JOHNS & BENNETT", "location_type": "", "zone_id": "", "stop_lat": "30.331118", "wheelchair_boarding": "0", "stop_code": "1410", "stop_lon": "-97.700252", "route_id": "300", "stop_name": "900 St Johns/Bennett"}, {"stop_timezone": "", "parent_station": "", "direction_id": "1", "stop_url": "https://www.capmetro.org/stopdetail/index.php?stop=2261", "stop_sequence": "13", "stop_id": "2261", "stop_desc": "001401 OLTORF & THORNTON", "location_type": "", "zone_id": "", "stop_lat": "30.246668", "wheelchair_boarding": "0", "stop_code": "2261", "stop_lon": "-97.769395", "route_id": "300", "stop_name": "1401 Oltorf/Thornton"}, {"stop_timezone": "", "parent_station": "", "direction_id": "1", "stop_url": "https://www.capmetro.org/stopdetail/index.php?stop=4296", "stop_sequence": "13", "stop_id": "4296", "stop_desc": "002121 OLTORF & BURTON", "location_type": "", "zone_id": "", "stop_lat": "30.230285", "wheelchair_boarding": "0", "stop_code": "4296", "stop_lon": "-97.732372", "route_id": "300", "stop_name": "Oltorf/Burton"}, {"stop_timezone": "", "parent_station": "", "direction_id": "1", "stop_url": "https://www.capmetro.org/stopdetail/index.php?stop=1027", "stop_sequence": "14", "stop_id": "1027", "stop_desc": "002433 PLEASANT VALLEY & OLTORF", "location_type": "", "zone_id": "", "stop_lat": "30.228028", "wheelchair_boarding": "0", "stop_code": "1027", "stop_lon": "-97.727241", "route_id": "300", "stop_name": "2433 Pleasant Valley/Oltorf"}, {"stop_timezone": "", "parent_station": "", "direction_id": "1", "stop_url": "https://www.capmetro.org/stopdetail/index.php?stop=2262", "stop_sequence": "14", "stop_id": "2262", "stop_desc": "000905 OLTORF & 5TH", "location_type": "", "zone_id": "", "stop_lat": "30.243370", "wheelchair_boarding": "0", "stop_code": "2262", "stop_lon": "-97.763557", "route_id": "300", "stop_name": "905 Oltorf/ South 5th"}, {"stop_timezone": "", "parent_station": "", "direction_id": "1", "stop_url": "https://www.capmetro.org/stopdetail/index.php?stop=2872", "stop_sequence": "14", "stop_id": "2872", "stop_desc": "000800 ST JOHNS & IH 35", "location_type": "", "zone_id": "", "stop_lat": "30.332336", "wheelchair_boarding": "0", "stop_code": "2872", "stop_lon": "-97.702985", "route_id": "300", "stop_name": "800 St Johns/IH 35"}, {"stop_timezone": "", "parent_station": "", "direction_id": "1", "stop_url": "https://www.capmetro.org/stopdetail/index.php?stop=1028", "stop_sequence": "15", "stop_id": "1028", "stop_desc": "002209 PLEASANT VALLEY & SHERINGHAM", "location_type": "", "zone_id": "", "stop_lat": "30.231097", "wheelchair_boarding": "0", "stop_code": "1028", "stop_lon": "-97.725299", "route_id": "300", "stop_name": "2209 Pleasant Valley/Sheringham"}, {"stop_timezone": "", "parent_station": "", "direction_id": "1", "stop_url": "https://www.capmetro.org/stopdetail/index.php?stop=1412", "stop_sequence": "15", "stop_id": "1412", "stop_desc": "007100 ROLAND JOHNSON & ST JOHNS", "location_type": "", "zone_id": "", "stop_lat": "30.333174", "wheelchair_boarding": "0", "stop_code": "1412", "stop_lon": "-97.706079", "route_id": "300", "stop_name": "7100 Roland Johnson/St Johns"}, {"stop_timezone": "", "parent_station": "", "direction_id": "1", "stop_url": "https://www.capmetro.org/stopdetail/index.php?stop=2263", "stop_sequence": "15", "stop_id": "2263", "stop_desc": "000539 OLTORF & 1ST", "location_type": "", "zone_id": "", "stop_lat": "30.241847", "wheelchair_boarding": "0", "stop_code": "2263", "stop_lon": "-97.759236", "route_id": "300", "stop_name": "539 Oltorf/1st"}, {"stop_timezone": "", "parent_station": "", "direction_id": "1", "stop_url": "https://www.capmetro.org/stopdetail/index.php?stop=1413", "stop_sequence": "16", "stop_id": "1413", "stop_desc": "006970 ROLAND JOHNSON & HUNTLAND", "location_type": "", "zone_id": "", "stop_lat": "30.330907", "wheelchair_boarding": "0", "stop_code": "1413", "stop_lon": "-97.706983", "route_id": "300", "stop_name": "6970 Roland Johnson/Huntland"}, {"stop_timezone": "", "parent_station": "", "direction_id": "1", "stop_url": "https://www.capmetro.org/stopdetail/index.php?stop=4044", "stop_sequence": "16", "stop_id": "4044", "stop_desc": "000121 OLTORF & EUCLID", "location_type": "", "zone_id": "", "stop_lat": "30.239387", "wheelchair_boarding": "0", "stop_code": "4044", "stop_lon": "-97.754655", "route_id": "300", "stop_name": "121 Oltorf/Euclid (HEB)"}, {"stop_timezone": "", "parent_station": "", "direction_id": "1", "stop_url": "https://www.capmetro.org/stopdetail/index.php?stop=5779", "stop_sequence": "16", "stop_id": "5779", "stop_desc": "001717 PLEASANT VALLEY & RIVERSIDE", "location_type": "", "zone_id": "", "stop_lat": "30.235778", "wheelchair_boarding": "0", "stop_code": "5779", "stop_lon": "-97.721346", "route_id": "300", "stop_name": "1717 Pleasant Valley/Riverside"}, {"stop_timezone": "", "parent_station": "", "direction_id": "1", "stop_url": "https://www.capmetro.org/stopdetail/index.php?stop=1414", "stop_sequence": "17", "stop_id": "1414", "stop_desc": "000300 HUNTLAND & BRENDA", "location_type": "", "zone_id": "", "stop_lat": "30.330854", "wheelchair_boarding": "0", "stop_code": "1414", "stop_lon": "-97.710681", "route_id": "300", "stop_name": "300 Huntland/Brenda"}, {"stop_timezone": "", "parent_station": "", "direction_id": "1", "stop_url": "https://www.capmetro.org/stopdetail/index.php?stop=4040", "stop_sequence": "17", "stop_id": "4040", "stop_desc": "000100 OLTORF & CONGRESS", "location_type": "", "zone_id": "", "stop_lat": "30.237921", "wheelchair_boarding": "0", "stop_code": "4040", "stop_lon": "-97.752284", "route_id": "300", "stop_name": "Oltorf/Congress"}, {"stop_timezone": "", "parent_station": "", "direction_id": "1", "stop_url": "https://www.capmetro.org/stopdetail/index.php?stop=4284", "stop_sequence": "17", "stop_id": "4284", "stop_desc": "001225 PLEASANT VALLEY & ELMONT", "location_type": "", "zone_id": "", "stop_lat": "30.239813", "wheelchair_boarding": "0", "stop_code": "4284", "stop_lon": "-97.718786", "route_id": "300", "stop_name": "1225 Pleasant Valley/Elmont"}, {"stop_timezone": "", "parent_station": "", "direction_id": "1", "stop_url": "https://www.capmetro.org/stopdetail/index.php?stop=1364", "stop_sequence": "18", "stop_id": "1364", "stop_desc": "001100 PLEASANT VALLEY & LAKESHORE", "location_type": "", "zone_id": "", "stop_lat": "30.242291", "wheelchair_boarding": "0", "stop_code": "1364", "stop_lon": "-97.717206", "route_id": "300", "stop_name": "1100 Pleasant Valley/Lakeshore"}, {"stop_timezone": "", "parent_station": "", "direction_id": "1", "stop_url": "https://www.capmetro.org/stopdetail/index.php?stop=1415", "stop_sequence": "18", "stop_id": "1415", "stop_desc": "006500 JONATHON & HIGHLAND MALL", "location_type": "", "zone_id": "", "stop_lat": "30.328767", "wheelchair_boarding": "0", "stop_code": "1415", "stop_lon": "-97.713056", "route_id": "300", "stop_name": "6500 Jonathan Dr (Highland Mall)"}, {"stop_timezone": "", "parent_station": "", "direction_id": "1", "stop_url": "https://www.capmetro.org/stopdetail/index.php?stop=2266", "stop_sequence": "18", "stop_id": "2266", "stop_desc": "000643 OLTORF & EAST SIDE", "location_type": "", "zone_id": "", "stop_lat": "30.236660", "wheelchair_boarding": "0", "stop_code": "2266", "stop_lon": "-97.749040", "route_id": "300", "stop_name": "643 Oltorf/East Side"}, {"stop_timezone": "", "parent_station": "", "direction_id": "1", "stop_url": "https://www.capmetro.org/stopdetail/index.php?stop=1273", "stop_sequence": "19", "stop_id": "1273", "stop_desc": "006902 AIRPORT & GUADALUPE", "location_type": "", "zone_id": "", "stop_lat": "30.333977", "wheelchair_boarding": "0", "stop_code": "1273", "stop_lon": "-97.716818", "route_id": "300", "stop_name": "6902 Airport Blvd/Guadalupe"}, {"stop_timezone": "", "parent_station": "", "direction_id": "1", "stop_url": "https://www.capmetro.org/stopdetail/index.php?stop=1365", "stop_sequence": "19", "stop_id": "1365", "stop_desc": "000517 PLEASANT VALLEY & CANTERBURY", "location_type": "", "zone_id": "", "stop_lat": "30.245846", "wheelchair_boarding": "0", "stop_code": "1365", "stop_lon": "-97.714948", "route_id": "300", "stop_name": "517 Pleasant Valley (Krieg Field)"}, {"stop_timezone": "", "parent_station": "", "direction_id": "1", "stop_url": "https://www.capmetro.org/stopdetail/index.php?stop=1465", "stop_sequence": "19", "stop_id": "1465", "stop_desc": "000900 OLTORF & ALTA VISTA", "location_type": "", "zone_id": "", "stop_lat": "30.236320", "wheelchair_boarding": "0", "stop_code": "1465", "stop_lon": "-97.747190", "route_id": "300", "stop_name": "Oltorf/Alta Vista"}, {"stop_timezone": "", "parent_station": "", "direction_id": "1", "stop_url": "https://www.capmetro.org/stopdetail/index.php?stop=1399", "stop_sequence": "2", "stop_id": "1399", "stop_desc": "006207 BERKMAN & GLEN VALLEY", "location_type": "", "zone_id": "", "stop_lat": "30.316460", "wheelchair_boarding": "0", "stop_code": "1399", "stop_lon": "-97.691029", "route_id": "300", "stop_name": "6207 Berkman/Glen Valley"}, {"stop_timezone": "", "parent_station": "", "direction_id": "1", "stop_url": "https://www.capmetro.org/stopdetail/index.php?stop=4220", "stop_sequence": "2", "stop_id": "4220", "stop_desc": "004631 WEST GATE & WESTERN TRAILS", "location_type": "", "zone_id": "", "stop_lat": "30.229916", "wheelchair_boarding": "0", "stop_code": "4220", "stop_lon": "-97.800895", "route_id": "300", "stop_name": "4631 West Gate/Western Trails"}, {"stop_timezone": "", "parent_station": "", "direction_id": "1", "stop_url": "https://www.capmetro.org/stopdetail/index.php?stop=5711", "stop_sequence": "2", "stop_id": "5711", "stop_desc": "000525 BEN WHITE & TERRY O", "location_type": "", "zone_id": "", "stop_lat": "30.219246", "wheelchair_boarding": "0", "stop_code": "5711", "stop_lon": "-97.757736", "route_id": "300", "stop_name": "525 Ben White/Terry O"}, {"stop_timezone": "", "parent_station": "", "direction_id": "1", "stop_url": "https://www.capmetro.org/stopdetail/index.php?stop=1366", "stop_sequence": "20", "stop_id": "1366", "stop_desc": "000100 PLEASANT VALLEY & 2ND", "location_type": "", "zone_id": "", "stop_lat": "30.253710", "wheelchair_boarding": "0", "stop_code": "1366", "stop_lon": "-97.712369", "route_id": "300", "stop_name": "Pleasant Valley/2nd"}, {"stop_timezone": "", "parent_station": "", "direction_id": "1", "stop_url": "https://www.capmetro.org/stopdetail/index.php?stop=1466", "stop_sequence": "20", "stop_id": "1466", "stop_desc": "001101 OLTORF & ALTA VISTA", "location_type": "", "zone_id": "", "stop_lat": "30.235651", "wheelchair_boarding": "0", "stop_code": "1466", "stop_lon": "-97.745688", "route_id": "300", "stop_name": "1101 Oltorf/Alta Vista"}, {"stop_timezone": "", "parent_station": "", "direction_id": "1", "stop_url": "https://www.capmetro.org/stopdetail/index.php?stop=5509", "stop_sequence": "20", "stop_id": "5509", "stop_desc": "006903 AIRPORT & KENNISTON", "location_type": "", "zone_id": "", "stop_lat": "30.336072", "wheelchair_boarding": "0", "stop_code": "5509", "stop_lon": "-97.717896", "route_id": "300", "stop_name": "6903 Airport/Kenniston"}, {"stop_timezone": "", "parent_station": "", "direction_id": "1", "stop_url": "https://www.capmetro.org/stopdetail/index.php?stop=1367", "stop_sequence": "21", "stop_id": "1367", "stop_desc": "000301 PLEASANT VALLEY & 3RD", "location_type": "", "zone_id": "", "stop_lat": "30.255151", "wheelchair_boarding": "0", "stop_code": "1367", "stop_lon": "-97.711700", "route_id": "300", "stop_name": "301 Pleasant Valley/3rd"}, {"stop_timezone": "", "parent_station": "", "direction_id": "1", "stop_url": "https://www.capmetro.org/stopdetail/index.php?stop=1467", "stop_sequence": "21", "stop_id": "1467", "stop_desc": "001313 OLTORF & SCHRIBER", "location_type": "", "zone_id": "", "stop_lat": "30.234202", "wheelchair_boarding": "0", "stop_code": "1467", "stop_lon": "-97.743018", "route_id": "300", "stop_name": "1313 Oltorf/Schriber"}, {"stop_timezone": "", "parent_station": "", "direction_id": "1", "stop_url": "https://www.capmetro.org/stopdetail/index.php?stop=2878", "stop_sequence": "21", "stop_id": "2878", "stop_desc": "007135 LAMAR & ST JOHNS", "location_type": "", "zone_id": "", "stop_lat": "30.339262", "wheelchair_boarding": "0", "stop_code": "2878", "stop_lon": "-97.717782", "route_id": "300", "stop_name": "7135 Lamar/St Johns"}, {"stop_timezone": "", "parent_station": "", "direction_id": "1", "stop_url": "https://www.capmetro.org/stopdetail/index.php?stop=1368", "stop_sequence": "22", "stop_id": "1368", "stop_desc": "000501 PLEASANT VALLEY & 5TH", "location_type": "", "zone_id": "", "stop_lat": "30.257417", "wheelchair_boarding": "0", "stop_code": "1368", "stop_lon": "-97.710603", "route_id": "300", "stop_name": "501 Pleasant Valley/5th (Capmetro)"}, {"stop_timezone": "", "parent_station": "", "direction_id": "1", "stop_url": "https://www.capmetro.org/stopdetail/index.php?stop=1417", "stop_sequence": "22", "stop_id": "1417", "stop_desc": "007401 LAMAR & ST JOHNS", "location_type": "", "zone_id": "", "stop_lat": "30.341113", "wheelchair_boarding": "0", "stop_code": "1417", "stop_lon": "-97.716607", "route_id": "300", "stop_name": "7401 Lamar/St Johns"}, {"stop_timezone": "", "parent_station": "", "direction_id": "1", "stop_url": "https://www.capmetro.org/stopdetail/index.php?stop=1474", "stop_sequence": "22", "stop_id": "1474", "stop_desc": "001605 OLTORF & IH 35", "location_type": "", "zone_id": "", "stop_lat": "30.233220", "wheelchair_boarding": "0", "stop_code": "1474", "stop_lon": "-97.739459", "route_id": "300", "stop_name": "1605 Oltorf/IH 35"}, {"stop_timezone": "", "parent_station": "", "direction_id": "1", "stop_url": "https://www.capmetro.org/stopdetail/index.php?stop=1369", "stop_sequence": "23", "stop_id": "1369", "stop_desc": "000651 PLEASANT VALLEY & 7TH", "location_type": "", "zone_id": "", "stop_lat": "30.259868", "wheelchair_boarding": "0", "stop_code": "1369", "stop_lon": "-97.709478", "route_id": "300", "stop_name": "651 Pleasant Valley/7th"}, {"stop_timezone": "", "parent_station": "", "direction_id": "1", "stop_url": "https://www.capmetro.org/stopdetail/index.php?stop=1475", "stop_sequence": "23", "stop_id": "1475", "stop_desc": "001747 OLTORF & PARKER", "location_type": "", "zone_id": "", "stop_lat": "30.232279", "wheelchair_boarding": "0", "stop_code": "1475", "stop_lon": "-97.737098", "route_id": "300", "stop_name": "1747 Oltorf/Parker"}, {"stop_timezone": "", "parent_station": "", "direction_id": "1", "stop_url": "https://www.capmetro.org/stopdetail/index.php?stop=622", "stop_sequence": "23", "stop_id": "622", "stop_desc": "007545 LAMAR & MORROW", "location_type": "", "zone_id": "", "stop_lat": "30.343850", "wheelchair_boarding": "0", "stop_code": "622", "stop_lon": "-97.714920", "route_id": "300", "stop_name": "7545 Lamar/Morrow"}, {"stop_timezone": "", "parent_station": "", "direction_id": "1", "stop_url": "https://www.capmetro.org/stopdetail/index.php?stop=1811", "stop_sequence": "24", "stop_id": "1811", "stop_desc": "000795 PLEASANT VALLEY & PRADO", "location_type": "", "zone_id": "", "stop_lat": "30.261742", "wheelchair_boarding": "0", "stop_code": "1811", "stop_lon": "-97.708819", "route_id": "300", "stop_name": "795 Pleasant Valley/Prado"}, {"stop_timezone": "", "parent_station": "", "direction_id": "1", "stop_url": "https://www.capmetro.org/stopdetail/index.php?stop=4290", "stop_sequence": "24", "stop_id": "4290", "stop_desc": "001900 OLTORF & BURLESON", "location_type": "", "zone_id": "", "stop_lat": "30.231078", "wheelchair_boarding": "0", "stop_code": "4290", "stop_lon": "-97.735306", "route_id": "300", "stop_name": "Oltorf/Burleson"}, {"stop_timezone": "", "parent_station": "", "direction_id": "1", "stop_url": "https://www.capmetro.org/stopdetail/index.php?stop=5226", "stop_sequence": "24", "stop_id": "5226", "stop_desc": "07900B RESEARCH & LAMAR", "location_type": "", "zone_id": "", "stop_lat": "30.350167", "wheelchair_boarding": "0", "stop_code": "5226", "stop_lon": "-97.712099", "route_id": "300", "stop_name": "North Lamar Bay 2"}, {"stop_timezone": "", "parent_station": "", "direction_id": "1", "stop_url": "https://www.capmetro.org/stopdetail/index.php?stop=1372", "stop_sequence": "25", "stop_id": "1372", "stop_desc": "000819 PLEASANT VALLEY & LYONS", "location_type": "", "zone_id": "", "stop_lat": "30.263527", "wheelchair_boarding": "0", "stop_code": "1372", "stop_lon": "-97.708225", "route_id": "300", "stop_name": "819 Pleasant Valley/Lyons"}, {"stop_timezone": "", "parent_station": "", "direction_id": "1", "stop_url": "https://www.capmetro.org/stopdetail/index.php?stop=4296", "stop_sequence": "25", "stop_id": "4296", "stop_desc": "002121 OLTORF & BURTON", "location_type": "", "zone_id": "", "stop_lat": "30.230285", "wheelchair_boarding": "0", "stop_code": "4296", "stop_lon": "-97.732372", "route_id": "300", "stop_name": "Oltorf/Burton"}, {"stop_timezone": "", "parent_station": "", "direction_id": "1", "stop_url": "https://www.capmetro.org/stopdetail/index.php?stop=1027", "stop_sequence": "26", "stop_id": "1027", "stop_desc": "002433 PLEASANT VALLEY & OLTORF", "location_type": "", "zone_id": "", "stop_lat": "30.228028", "wheelchair_boarding": "0", "stop_code": "1027", "stop_lon": "-97.727241", "route_id": "300", "stop_name": "2433 Pleasant Valley/Oltorf"}, {"stop_timezone": "", "parent_station": "", "direction_id": "1", "stop_url": "https://www.capmetro.org/stopdetail/index.php?stop=1373", "stop_sequence": "26", "stop_id": "1373", "stop_desc": "000851 PLEASANT VALLEY & WEBBERVILLE", "location_type": "", "zone_id": "", "stop_lat": "30.265300", "wheelchair_boarding": "0", "stop_code": "1373", "stop_lon": "-97.708760", "route_id": "300", "stop_name": "851 Pleasant Valley/Webberville"}, {"stop_timezone": "", "parent_station": "", "direction_id": "1", "stop_url": "https://www.capmetro.org/stopdetail/index.php?stop=1028", "stop_sequence": "27", "stop_id": "1028", "stop_desc": "002209 PLEASANT VALLEY & SHERINGHAM", "location_type": "", "zone_id": "", "stop_lat": "30.231097", "wheelchair_boarding": "0", "stop_code": "1028", "stop_lon": "-97.725299", "route_id": "300", "stop_name": "2209 Pleasant Valley/Sheringham"}, {"stop_timezone": "", "parent_station": "", "direction_id": "1", "stop_url": "https://www.capmetro.org/stopdetail/index.php?stop=5150", "stop_sequence": "27", "stop_id": "5150", "stop_desc": "003113 WEBBERVILLE & GOVALLE", "location_type": "", "zone_id": "", "stop_lat": "30.267713", "wheelchair_boarding": "0", "stop_code": "5150", "stop_lon": "-97.707546", "route_id": "300", "stop_name": "3113 Webberville/Govalle"}, {"stop_timezone": "", "parent_station": "", "direction_id": "1", "stop_url": "https://www.capmetro.org/stopdetail/index.php?stop=5148", "stop_sequence": "28", "stop_id": "5148", "stop_desc": "003459 WEBBERVILLE & BEDFORD", "location_type": "", "zone_id": "", "stop_lat": "30.269777", "wheelchair_boarding": "0", "stop_code": "5148", "stop_lon": "-97.706352", "route_id": "300", "stop_name": "3459 Webberville/Bedford"}, {"stop_timezone": "", "parent_station": "", "direction_id": "1", "stop_url": "https://www.capmetro.org/stopdetail/index.php?stop=5779", "stop_sequence": "28", "stop_id": "5779", "stop_desc": "001717 PLEASANT VALLEY & RIVERSIDE", "location_type": "", "zone_id": "", "stop_lat": "30.235778", "wheelchair_boarding": "0", "stop_code": "5779", "stop_lon": "-97.721346", "route_id": "300", "stop_name": "1717 Pleasant Valley/Riverside"}, {"stop_timezone": "", "parent_station": "", "direction_id": "1", "stop_url": "https://www.capmetro.org/stopdetail/index.php?stop=4284", "stop_sequence": "29", "stop_id": "4284", "stop_desc": "001225 PLEASANT VALLEY & ELMONT", "location_type": "", "zone_id": "", "stop_lat": "30.239813", "wheelchair_boarding": "0", "stop_code": "4284", "stop_lon": "-97.718786", "route_id": "300", "stop_name": "1225 Pleasant Valley/Elmont"}, {"stop_timezone": "", "parent_station": "", "direction_id": "1", "stop_url": "https://www.capmetro.org/stopdetail/index.php?stop=5401", "stop_sequence": "29", "stop_id": "5401", "stop_desc": "003001 GOODWIN & TILLERY", "location_type": "", "zone_id": "", "stop_lat": "30.270089", "wheelchair_boarding": "0", "stop_code": "5401", "stop_lon": "-97.702239", "route_id": "300", "stop_name": "3001 Goodwin/Tillery"}, {"stop_timezone": "", "parent_station": "", "direction_id": "1", "stop_url": "https://www.capmetro.org/stopdetail/index.php?stop=1400", "stop_sequence": "3", "stop_id": "1400", "stop_desc": "006509 BERKMAN & WHELESS", "location_type": "", "zone_id": "", "stop_lat": "30.318728", "wheelchair_boarding": "0", "stop_code": "1400", "stop_lon": "-97.689634", "route_id": "300", "stop_name": "6509 Berkman/Wheless"}, {"stop_timezone": "", "parent_station": "", "direction_id": "1", "stop_url": "https://www.capmetro.org/stopdetail/index.php?stop=4212", "stop_sequence": "3", "stop_id": "4212", "stop_desc": "004205 VICTORY & BEN WHITE", "location_type": "", "zone_id": "", "stop_lat": "30.232805", "wheelchair_boarding": "0", "stop_code": "4212", "stop_lon": "-97.790700", "route_id": "300", "stop_name": "4205 Victory/Ben White"}, {"stop_timezone": "", "parent_station": "", "direction_id": "1", "stop_url": "https://www.capmetro.org/stopdetail/index.php?stop=5259", "stop_sequence": "3", "stop_id": "5259", "stop_desc": "001800 BEN WHITE & GOVERNORS ROW", "location_type": "", "zone_id": "", "stop_lat": "30.215568", "wheelchair_boarding": "0", "stop_code": "5259", "stop_lon": "-97.748582", "route_id": "300", "stop_name": "Ben White/Governors Row"}, {"stop_timezone": "", "parent_station": "", "direction_id": "1", "stop_url": "https://www.capmetro.org/stopdetail/index.php?stop=1364", "stop_sequence": "30", "stop_id": "1364", "stop_desc": "001100 PLEASANT VALLEY & LAKESHORE", "location_type": "", "zone_id": "", "stop_lat": "30.242291", "wheelchair_boarding": "0", "stop_code": "1364", "stop_lon": "-97.717206", "route_id": "300", "stop_name": "1100 Pleasant Valley/Lakeshore"}, {"stop_timezone": "", "parent_station": "", "direction_id": "1", "stop_url": "https://www.capmetro.org/stopdetail/index.php?stop=5130", "stop_sequence": "30", "stop_id": "5130", "stop_desc": "003201 GOVALLE & TILLERY", "location_type": "", "zone_id": "", "stop_lat": "30.265835", "wheelchair_boarding": "0", "stop_code": "5130", "stop_lon": "-97.701948", "route_id": "300", "stop_name": "3201 Govalle/Tillery"}, {"stop_timezone": "", "parent_station": "", "direction_id": "1", "stop_url": "https://www.capmetro.org/stopdetail/index.php?stop=1365", "stop_sequence": "31", "stop_id": "1365", "stop_desc": "000517 PLEASANT VALLEY & CANTERBURY", "location_type": "", "zone_id": "", "stop_lat": "30.245846", "wheelchair_boarding": "0", "stop_code": "1365", "stop_lon": "-97.714948", "route_id": "300", "stop_name": "517 Pleasant Valley (Krieg Field)"}, {"stop_timezone": "", "parent_station": "", "direction_id": "1", "stop_url": "https://www.capmetro.org/stopdetail/index.php?stop=1377", "stop_sequence": "31", "stop_id": "1377", "stop_desc": "003601 GOVALLE & GUNTER", "location_type": "", "zone_id": "", "stop_lat": "30.264616", "wheelchair_boarding": "0", "stop_code": "1377", "stop_lon": "-97.698463", "route_id": "300", "stop_name": "3601 Govalle/Gunter"}, {"stop_timezone": "", "parent_station": "", "direction_id": "1", "stop_url": "https://www.capmetro.org/stopdetail/index.php?stop=1366", "stop_sequence": "32", "stop_id": "1366", "stop_desc": "000100 PLEASANT VALLEY & 2ND", "location_type": "", "zone_id": "", "stop_lat": "30.253710", "wheelchair_boarding": "0", "stop_code": "1366", "stop_lon": "-97.712369", "route_id": "300", "stop_name": "Pleasant Valley/2nd"}, {"stop_timezone": "", "parent_station": "", "direction_id": "1", "stop_url": "https://www.capmetro.org/stopdetail/index.php?stop=5465", "stop_sequence": "32", "stop_id": "5465", "stop_desc": "003710 GOVALLE & SPRINGDALE", "location_type": "", "zone_id": "", "stop_lat": "30.264033", "wheelchair_boarding": "0", "stop_code": "5465", "stop_lon": "-97.696785", "route_id": "300", "stop_name": "Govalle/Springdale"}, {"stop_timezone": "", "parent_station": "", "direction_id": "1", "stop_url": "https://www.capmetro.org/stopdetail/index.php?stop=1367", "stop_sequence": "33", "stop_id": "1367", "stop_desc": "000301 PLEASANT VALLEY & 3RD", "location_type": "", "zone_id": "", "stop_lat": "30.255151", "wheelchair_boarding": "0", "stop_code": "1367", "stop_lon": "-97.711700", "route_id": "300", "stop_name": "301 Pleasant Valley/3rd"}, {"stop_timezone": "", "parent_station": "", "direction_id": "1", "stop_url": "https://www.capmetro.org/stopdetail/index.php?stop=4534", "stop_sequence": "33", "stop_id": "4534", "stop_desc": "000961 SPRINGDALE & GOVALLE", "location_type": "", "zone_id": "", "stop_lat": "30.264596", "wheelchair_boarding": "0", "stop_code": "4534", "stop_lon": "-97.696074", "route_id": "300", "stop_name": "961 Springdale/Govalle"}, {"stop_timezone": "", "parent_station": "", "direction_id": "1", "stop_url": "https://www.capmetro.org/stopdetail/index.php?stop=1368", "stop_sequence": "34", "stop_id": "1368", "stop_desc": "000501 PLEASANT VALLEY & 5TH", "location_type": "", "zone_id": "", "stop_lat": "30.257417", "wheelchair_boarding": "0", "stop_code": "1368", "stop_lon": "-97.710603", "route_id": "300", "stop_name": "501 Pleasant Valley/5th (Capmetro)"}, {"stop_timezone": "", "parent_station": "", "direction_id": "1", "stop_url": "https://www.capmetro.org/stopdetail/index.php?stop=1379", "stop_sequence": "34", "stop_id": "1379", "stop_desc": "001017 SPRINGDALE & GOODWIN", "location_type": "", "zone_id": "", "stop_lat": "30.267244", "wheelchair_boarding": "0", "stop_code": "1379", "stop_lon": "-97.694388", "route_id": "300", "stop_name": "1017 Springdale/Goodwin"}, {"stop_timezone": "", "parent_station": "", "direction_id": "1", "stop_url": "https://www.capmetro.org/stopdetail/index.php?stop=1369", "stop_sequence": "35", "stop_id": "1369", "stop_desc": "000651 PLEASANT VALLEY & 7TH", "location_type": "", "zone_id": "", "stop_lat": "30.259868", "wheelchair_boarding": "0", "stop_code": "1369", "stop_lon": "-97.709478", "route_id": "300", "stop_name": "651 Pleasant Valley/7th"}, {"stop_timezone": "", "parent_station": "", "direction_id": "1", "stop_url": "https://www.capmetro.org/stopdetail/index.php?stop=1381", "stop_sequence": "35", "stop_id": "1381", "stop_desc": "001053 SPRINGDALE & PROCK", "location_type": "", "zone_id": "", "stop_lat": "30.271060", "wheelchair_boarding": "0", "stop_code": "1381", "stop_lon": "-97.691930", "route_id": "300", "stop_name": "1053 Springdale/Prock"}, {"stop_timezone": "", "parent_station": "", "direction_id": "1", "stop_url": "https://www.capmetro.org/stopdetail/index.php?stop=1382", "stop_sequence": "36", "stop_id": "1382", "stop_desc": "001107 SPRINGDALE & LEDESMA", "location_type": "", "zone_id": "", "stop_lat": "30.274299", "wheelchair_boarding": "0", "stop_code": "1382", "stop_lon": "-97.689894", "route_id": "300", "stop_name": "1107 Springdale/Ledesma"}, {"stop_timezone": "", "parent_station": "", "direction_id": "1", "stop_url": "https://www.capmetro.org/stopdetail/index.php?stop=1811", "stop_sequence": "36", "stop_id": "1811", "stop_desc": "000795 PLEASANT VALLEY & PRADO", "location_type": "", "zone_id": "", "stop_lat": "30.261742", "wheelchair_boarding": "0", "stop_code": "1811", "stop_lon": "-97.708819", "route_id": "300", "stop_name": "795 Pleasant Valley/Prado"}, {"stop_timezone": "", "parent_station": "", "direction_id": "1", "stop_url": "https://www.capmetro.org/stopdetail/index.php?stop=1372", "stop_sequence": "37", "stop_id": "1372", "stop_desc": "000819 PLEASANT VALLEY & LYONS", "location_type": "", "zone_id": "", "stop_lat": "30.263527", "wheelchair_boarding": "0", "stop_code": "1372", "stop_lon": "-97.708225", "route_id": "300", "stop_name": "819 Pleasant Valley/Lyons"}, {"stop_timezone": "", "parent_station": "", "direction_id": "1", "stop_url": "https://www.capmetro.org/stopdetail/index.php?stop=1383", "stop_sequence": "37", "stop_id": "1383", "stop_desc": "001161 SPRINGDALE & WEBBERVILLE", "location_type": "", "zone_id": "", "stop_lat": "30.277096", "wheelchair_boarding": "0", "stop_code": "1383", "stop_lon": "-97.688064", "route_id": "300", "stop_name": "1161 Springdale/Webberville"}, {"stop_timezone": "", "parent_station": "", "direction_id": "1", "stop_url": "https://www.capmetro.org/stopdetail/index.php?stop=1373", "stop_sequence": "38", "stop_id": "1373", "stop_desc": "000851 PLEASANT VALLEY & WEBBERVILLE", "location_type": "", "zone_id": "", "stop_lat": "30.265300", "wheelchair_boarding": "0", "stop_code": "1373", "stop_lon": "-97.708760", "route_id": "300", "stop_name": "851 Pleasant Valley/Webberville"}, {"stop_timezone": "", "parent_station": "", "direction_id": "1", "stop_url": "https://www.capmetro.org/stopdetail/index.php?stop=1384", "stop_sequence": "38", "stop_id": "1384", "stop_desc": "001207 SPRINGDALE & 12TH", "location_type": "", "zone_id": "", "stop_lat": "30.279924", "wheelchair_boarding": "0", "stop_code": "1384", "stop_lon": "-97.686346", "route_id": "300", "stop_name": "1207 Springdale/12th"}, {"stop_timezone": "", "parent_station": "", "direction_id": "1", "stop_url": "https://www.capmetro.org/stopdetail/index.php?stop=1385", "stop_sequence": "39", "stop_id": "1385", "stop_desc": "001500 SPRINGDALE & LESLIE", "location_type": "", "zone_id": "", "stop_lat": "30.282374", "wheelchair_boarding": "0", "stop_code": "1385", "stop_lon": "-97.684815", "route_id": "300", "stop_name": "Springdale/Leslie"}, {"stop_timezone": "", "parent_station": "", "direction_id": "1", "stop_url": "https://www.capmetro.org/stopdetail/index.php?stop=5150", "stop_sequence": "39", "stop_id": "5150", "stop_desc": "003113 WEBBERVILLE & GOVALLE", "location_type": "", "zone_id": "", "stop_lat": "30.267713", "wheelchair_boarding": "0", "stop_code": "5150", "stop_lon": "-97.707546", "route_id": "300", "stop_name": "3113 Webberville/Govalle"}, {"stop_timezone": "", "parent_station": "", "direction_id": "1", "stop_url": "https://www.capmetro.org/stopdetail/index.php?stop=1401", "stop_sequence": "4", "stop_id": "1401", "stop_desc": "006800 BERKMAN & US 290", "location_type": "", "zone_id": "", "stop_lat": "30.320741", "wheelchair_boarding": "0", "stop_code": "1401", "stop_lon": "-97.688771", "route_id": "300", "stop_name": "Berkman/US 290 SE Corner"}, {"stop_timezone": "", "parent_station": "", "direction_id": "1", "stop_url": "https://www.capmetro.org/stopdetail/index.php?stop=4234", "stop_sequence": "4", "stop_id": "4234", "stop_desc": "003900 VICTORY & PRATHER", "location_type": "", "zone_id": "", "stop_lat": "30.235810", "wheelchair_boarding": "0", "stop_code": "4234", "stop_lon": "-97.789879", "route_id": "300", "stop_name": "Ann Richards School"}, {"stop_timezone": "", "parent_station": "", "direction_id": "1", "stop_url": "https://www.capmetro.org/stopdetail/index.php?stop=5663", "stop_sequence": "4", "stop_id": "5663", "stop_desc": "002000 WOODWARD & BEN WHITE", "location_type": "", "zone_id": "", "stop_lat": "30.217996", "wheelchair_boarding": "0", "stop_code": "5663", "stop_lon": "-97.743796", "route_id": "300", "stop_name": "2000 Woodward/Ben White"}, {"stop_timezone": "", "parent_station": "", "direction_id": "1", "stop_url": "https://www.capmetro.org/stopdetail/index.php?stop=1386", "stop_sequence": "40", "stop_id": "1386", "stop_desc": "001700 SPRINGDALE & BANDERA", "location_type": "", "zone_id": "", "stop_lat": "30.283988", "wheelchair_boarding": "0", "stop_code": "1386", "stop_lon": "-97.683748", "route_id": "300", "stop_name": "Springdale/Bandera"}, {"stop_timezone": "", "parent_station": "", "direction_id": "1", "stop_url": "https://www.capmetro.org/stopdetail/index.php?stop=5130", "stop_sequence": "40", "stop_id": "5130", "stop_desc": "003201 GOVALLE & TILLERY", "location_type": "", "zone_id": "", "stop_lat": "30.265835", "wheelchair_boarding": "0", "stop_code": "5130", "stop_lon": "-97.701948", "route_id": "300", "stop_name": "3201 Govalle/Tillery"}, {"stop_timezone": "", "parent_station": "", "direction_id": "1", "stop_url": "https://www.capmetro.org/stopdetail/index.php?stop=1377", "stop_sequence": "41", "stop_id": "1377", "stop_desc": "003601 GOVALLE & GUNTER", "location_type": "", "zone_id": "", "stop_lat": "30.264616", "wheelchair_boarding": "0", "stop_code": "1377", "stop_lon": "-97.698463", "route_id": "300", "stop_name": "3601 Govalle/Gunter"}, {"stop_timezone": "", "parent_station": "", "direction_id": "1", "stop_url": "https://www.capmetro.org/stopdetail/index.php?stop=1387", "stop_sequence": "41", "stop_id": "1387", "stop_desc": "001819 SPRINGDALE & MARTIN LUTHER KING", "location_type": "", "zone_id": "", "stop_lat": "30.285570", "wheelchair_boarding": "0", "stop_code": "1387", "stop_lon": "-97.682730", "route_id": "300", "stop_name": "1819 Springdale/Martin Luther King"}, {"stop_timezone": "", "parent_station": "", "direction_id": "1", "stop_url": "https://www.capmetro.org/stopdetail/index.php?stop=4742", "stop_sequence": "42", "stop_id": "4742", "stop_desc": "004311 SPRINGDALE & MARTIN LUTHER KING", "location_type": "", "zone_id": "", "stop_lat": "30.286366", "wheelchair_boarding": "0", "stop_code": "4742", "stop_lon": "-97.682192", "route_id": "300", "stop_name": "4311 Springdale/Martin Luther King"}, {"stop_timezone": "", "parent_station": "", "direction_id": "1", "stop_url": "https://www.capmetro.org/stopdetail/index.php?stop=5465", "stop_sequence": "42", "stop_id": "5465", "stop_desc": "003710 GOVALLE & SPRINGDALE", "location_type": "", "zone_id": "", "stop_lat": "30.264033", "wheelchair_boarding": "0", "stop_code": "5465", "stop_lon": "-97.696785", "route_id": "300", "stop_name": "Govalle/Springdale"}, {"stop_timezone": "", "parent_station": "", "direction_id": "1", "stop_url": "https://www.capmetro.org/stopdetail/index.php?stop=4534", "stop_sequence": "43", "stop_id": "4534", "stop_desc": "000961 SPRINGDALE & GOVALLE", "location_type": "", "zone_id": "", "stop_lat": "30.264596", "wheelchair_boarding": "0", "stop_code": "4534", "stop_lon": "-97.696074", "route_id": "300", "stop_name": "961 Springdale/Govalle"}, {"stop_timezone": "", "parent_station": "", "direction_id": "1", "stop_url": "https://www.capmetro.org/stopdetail/index.php?stop=4743", "stop_sequence": "43", "stop_id": "4743", "stop_desc": "004609 SPRINGDALE & TOUCHSTONE", "location_type": "", "zone_id": "", "stop_lat": "30.289398", "wheelchair_boarding": "0", "stop_code": "4743", "stop_lon": "-97.680250", "route_id": "300", "stop_name": "4609 Springdale/Touchstone"}, {"stop_timezone": "", "parent_station": "", "direction_id": "1", "stop_url": "https://www.capmetro.org/stopdetail/index.php?stop=1379", "stop_sequence": "44", "stop_id": "1379", "stop_desc": "001017 SPRINGDALE & GOODWIN", "location_type": "", "zone_id": "", "stop_lat": "30.267244", "wheelchair_boarding": "0", "stop_code": "1379", "stop_lon": "-97.694388", "route_id": "300", "stop_name": "1017 Springdale/Goodwin"}, {"stop_timezone": "", "parent_station": "", "direction_id": "1", "stop_url": "https://www.capmetro.org/stopdetail/index.php?stop=1388", "stop_sequence": "44", "stop_id": "1388", "stop_desc": "005101 SPRINGDALE & 51ST", "location_type": "", "zone_id": "", "stop_lat": "30.293860", "wheelchair_boarding": "0", "stop_code": "1388", "stop_lon": "-97.677570", "route_id": "300", "stop_name": "5101 Springdale/51st"}, {"stop_timezone": "", "parent_station": "", "direction_id": "1", "stop_url": "https://www.capmetro.org/stopdetail/index.php?stop=1381", "stop_sequence": "45", "stop_id": "1381", "stop_desc": "001053 SPRINGDALE & PROCK", "location_type": "", "zone_id": "", "stop_lat": "30.271060", "wheelchair_boarding": "0", "stop_code": "1381", "stop_lon": "-97.691930", "route_id": "300", "stop_name": "1053 Springdale/Prock"}, {"stop_timezone": "", "parent_station": "", "direction_id": "1", "stop_url": "https://www.capmetro.org/stopdetail/index.php?stop=1389", "stop_sequence": "45", "stop_id": "1389", "stop_desc": "005401 SPRINGDALE & NORWOOD HILL", "location_type": "", "zone_id": "", "stop_lat": "30.297446", "wheelchair_boarding": "0", "stop_code": "1389", "stop_lon": "-97.675242", "route_id": "300", "stop_name": "5401 Springdale/Norwood Hill"}, {"stop_timezone": "", "parent_station": "", "direction_id": "1", "stop_url": "https://www.capmetro.org/stopdetail/index.php?stop=1382", "stop_sequence": "46", "stop_id": "1382", "stop_desc": "001107 SPRINGDALE & LEDESMA", "location_type": "", "zone_id": "", "stop_lat": "30.274299", "wheelchair_boarding": "0", "stop_code": "1382", "stop_lon": "-97.689894", "route_id": "300", "stop_name": "1107 Springdale/Ledesma"}, {"stop_timezone": "", "parent_station": "", "direction_id": "1", "stop_url": "https://www.capmetro.org/stopdetail/index.php?stop=6097", "stop_sequence": "46", "stop_id": "6097", "stop_desc": "005605 SPRINGDALE & CHADWYCK", "location_type": "", "zone_id": "", "stop_lat": "30.299361", "wheelchair_boarding": "0", "stop_code": "6097", "stop_lon": "-97.674018", "route_id": "300", "stop_name": "5605 Springdale/Chadwyck"}, {"stop_timezone": "", "parent_station": "", "direction_id": "1", "stop_url": "https://www.capmetro.org/stopdetail/index.php?stop=1383", "stop_sequence": "47", "stop_id": "1383", "stop_desc": "001161 SPRINGDALE & WEBBERVILLE", "location_type": "", "zone_id": "", "stop_lat": "30.277096", "wheelchair_boarding": "0", "stop_code": "1383", "stop_lon": "-97.688064", "route_id": "300", "stop_name": "1161 Springdale/Webberville"}, {"stop_timezone": "", "parent_station": "", "direction_id": "1", "stop_url": "https://www.capmetro.org/stopdetail/index.php?stop=1390", "stop_sequence": "47", "stop_id": "1390", "stop_desc": "003506 ROGGE & SPRINGDALE", "location_type": "", "zone_id": "", "stop_lat": "30.300896", "wheelchair_boarding": "0", "stop_code": "1390", "stop_lon": "-97.673522", "route_id": "300", "stop_name": "3506 Rogge/Springdale"}, {"stop_timezone": "", "parent_station": "", "direction_id": "1", "stop_url": "https://www.capmetro.org/stopdetail/index.php?stop=1384", "stop_sequence": "48", "stop_id": "1384", "stop_desc": "001207 SPRINGDALE & 12TH", "location_type": "", "zone_id": "", "stop_lat": "30.279924", "wheelchair_boarding": "0", "stop_code": "1384", "stop_lon": "-97.686346", "route_id": "300", "stop_name": "1207 Springdale/12th"}, {"stop_timezone": "", "parent_station": "", "direction_id": "1", "stop_url": "https://www.capmetro.org/stopdetail/index.php?stop=1391", "stop_sequence": "48", "stop_id": "1391", "stop_desc": "003100 ROGGE & REICHER", "location_type": "", "zone_id": "", "stop_lat": "30.302753", "wheelchair_boarding": "0", "stop_code": "1391", "stop_lon": "-97.677408", "route_id": "300", "stop_name": "3100 Rogge/Reicher"}, {"stop_timezone": "", "parent_station": "", "direction_id": "1", "stop_url": "https://www.capmetro.org/stopdetail/index.php?stop=1385", "stop_sequence": "49", "stop_id": "1385", "stop_desc": "001500 SPRINGDALE & LESLIE", "location_type": "", "zone_id": "", "stop_lat": "30.282374", "wheelchair_boarding": "0", "stop_code": "1385", "stop_lon": "-97.684815", "route_id": "300", "stop_name": "Springdale/Leslie"}, {"stop_timezone": "", "parent_station": "", "direction_id": "1", "stop_url": "https://www.capmetro.org/stopdetail/index.php?stop=1392", "stop_sequence": "49", "stop_id": "1392", "stop_desc": "002806 ROGGE & MANOR", "location_type": "", "zone_id": "", "stop_lat": "30.304865", "wheelchair_boarding": "0", "stop_code": "1392", "stop_lon": "-97.681812", "route_id": "300", "stop_name": "2806 Rogge/Manor"}, {"stop_timezone": "", "parent_station": "", "direction_id": "1", "stop_url": "https://www.capmetro.org/stopdetail/index.php?stop=1235", "stop_sequence": "5", "stop_id": "1235", "stop_desc": "001901 WOODWARD & PARKER", "location_type": "", "zone_id": "", "stop_lat": "30.219456", "wheelchair_boarding": "0", "stop_code": "1235", "stop_lon": "-97.743789", "route_id": "300", "stop_name": "1901 Woodward/Parker"}, {"stop_timezone": "", "parent_station": "", "direction_id": "1", "stop_url": "https://www.capmetro.org/stopdetail/index.php?stop=1402", "stop_sequence": "5", "stop_id": "1402", "stop_desc": "007000 BERKMAN & US 290", "location_type": "", "zone_id": "", "stop_lat": "30.322440", "wheelchair_boarding": "0", "stop_code": "1402", "stop_lon": "-97.688990", "route_id": "300", "stop_name": "Berkman/US 290 NE Corner"}, {"stop_timezone": "", "parent_station": "", "direction_id": "1", "stop_url": "https://www.capmetro.org/stopdetail/index.php?stop=4216", "stop_sequence": "5", "stop_id": "4216", "stop_desc": "002300 PANTHER & LAMAR", "location_type": "", "zone_id": "", "stop_lat": "30.238522", "wheelchair_boarding": "0", "stop_code": "4216", "stop_lon": "-97.789058", "route_id": "300", "stop_name": "2300 Panther/Lamar"}, {"stop_timezone": "", "parent_station": "", "direction_id": "1", "stop_url": "https://www.capmetro.org/stopdetail/index.php?stop=1386", "stop_sequence": "50", "stop_id": "1386", "stop_desc": "001700 SPRINGDALE & BANDERA", "location_type": "", "zone_id": "", "stop_lat": "30.283988", "wheelchair_boarding": "0", "stop_code": "1386", "stop_lon": "-97.683748", "route_id": "300", "stop_name": "Springdale/Bandera"}, {"stop_timezone": "", "parent_station": "", "direction_id": "1", "stop_url": "https://www.capmetro.org/stopdetail/index.php?stop=5525", "stop_sequence": "50", "stop_id": "5525", "stop_desc": "000000 ROGGE & COVENTRY", "location_type": "", "zone_id": "", "stop_lat": "30.306435", "wheelchair_boarding": "0", "stop_code": "5525", "stop_lon": "-97.685093", "route_id": "300", "stop_name": "Rogge/Coventry"}, {"stop_timezone": "", "parent_station": "", "direction_id": "1", "stop_url": "https://www.capmetro.org/stopdetail/index.php?stop=1387", "stop_sequence": "51", "stop_id": "1387", "stop_desc": "001819 SPRINGDALE & MARTIN LUTHER KING", "location_type": "", "zone_id": "", "stop_lat": "30.285570", "wheelchair_boarding": "0", "stop_code": "1387", "stop_lon": "-97.682730", "route_id": "300", "stop_name": "1819 Springdale/Martin Luther King"}, {"stop_timezone": "", "parent_station": "", "direction_id": "1", "stop_url": "https://www.capmetro.org/stopdetail/index.php?stop=1393", "stop_sequence": "51", "stop_id": "1393", "stop_desc": "002000 ROGGE & WESTMINSTER", "location_type": "", "zone_id": "", "stop_lat": "30.307945", "wheelchair_boarding": "0", "stop_code": "1393", "stop_lon": "-97.689927", "route_id": "300", "stop_name": "2000 Rogge/Westminster"}, {"stop_timezone": "", "parent_station": "", "direction_id": "1", "stop_url": "https://www.capmetro.org/stopdetail/index.php?stop=1394", "stop_sequence": "52", "stop_id": "1394", "stop_desc": "001908 ROGGE & RIDGEMONT", "location_type": "", "zone_id": "", "stop_lat": "30.307165", "wheelchair_boarding": "0", "stop_code": "1394", "stop_lon": "-97.693007", "route_id": "300", "stop_name": "1908 Rogge/Ridgemont"}, {"stop_timezone": "", "parent_station": "", "direction_id": "1", "stop_url": "https://www.capmetro.org/stopdetail/index.php?stop=4742", "stop_sequence": "52", "stop_id": "4742", "stop_desc": "004311 SPRINGDALE & MARTIN LUTHER KING", "location_type": "", "zone_id": "", "stop_lat": "30.286366", "wheelchair_boarding": "0", "stop_code": "4742", "stop_lon": "-97.682192", "route_id": "300", "stop_name": "4311 Springdale/Martin Luther King"}, {"stop_timezone": "", "parent_station": "", "direction_id": "1", "stop_url": "https://www.capmetro.org/stopdetail/index.php?stop=1396", "stop_sequence": "53", "stop_id": "1396", "stop_desc": "005600 BERKMAN & LARKWOOD", "location_type": "", "zone_id": "", "stop_lat": "30.310360", "wheelchair_boarding": "0", "stop_code": "1396", "stop_lon": "-97.694730", "route_id": "300", "stop_name": "Berkman/Larkwood"}, {"stop_timezone": "", "parent_station": "", "direction_id": "1", "stop_url": "https://www.capmetro.org/stopdetail/index.php?stop=4743", "stop_sequence": "53", "stop_id": "4743", "stop_desc": "004609 SPRINGDALE & TOUCHSTONE", "location_type": "", "zone_id": "", "stop_lat": "30.289398", "wheelchair_boarding": "0", "stop_code": "4743", "stop_lon": "-97.680250", "route_id": "300", "stop_name": "4609 Springdale/Touchstone"}, {"stop_timezone": "", "parent_station": "", "direction_id": "1", "stop_url": "https://www.capmetro.org/stopdetail/index.php?stop=1398", "stop_sequence": "54", "stop_id": "1398", "stop_desc": "006001 BERKMAN & BRIARCLIFF", "location_type": "", "zone_id": "", "stop_lat": "30.314779", "wheelchair_boarding": "0", "stop_code": "1398", "stop_lon": "-97.692038", "route_id": "300", "stop_name": "6001 Berkman/Briarcliff"}, {"stop_timezone": "", "parent_station": "", "direction_id": "1", "stop_url": "https://www.capmetro.org/stopdetail/index.php?stop=6296", "stop_sequence": "54", "stop_id": "6296", "stop_desc": "004281 51ST & SPRINGDALE", "location_type": "", "zone_id": "", "stop_lat": "30.293984", "wheelchair_boarding": "0", "stop_code": "6296", "stop_lon": "-97.678299", "route_id": "300", "stop_name": "4281 51st/Springdale"}, {"stop_timezone": "", "parent_station": "", "direction_id": "1", "stop_url": "https://www.capmetro.org/stopdetail/index.php?stop=1399", "stop_sequence": "55", "stop_id": "1399", "stop_desc": "006207 BERKMAN & GLEN VALLEY", "location_type": "", "zone_id": "", "stop_lat": "30.316460", "wheelchair_boarding": "0", "stop_code": "1399", "stop_lon": "-97.691029", "route_id": "300", "stop_name": "6207 Berkman/Glen Valley"}, {"stop_timezone": "", "parent_station": "", "direction_id": "1", "stop_url": "https://www.capmetro.org/stopdetail/index.php?stop=6301", "stop_sequence": "55", "stop_id": "6301", "stop_desc": "002901 51ST & MANOR", "location_type": "", "zone_id": "", "stop_lat": "30.298344", "wheelchair_boarding": "0", "stop_code": "6301", "stop_lon": "-97.687272", "route_id": "300", "stop_name": "2760 51st/Manor"}, {"stop_timezone": "", "parent_station": "", "direction_id": "1", "stop_url": "https://www.capmetro.org/stopdetail/index.php?stop=1400", "stop_sequence": "56", "stop_id": "1400", "stop_desc": "006509 BERKMAN & WHELESS", "location_type": "", "zone_id": "", "stop_lat": "30.318728", "wheelchair_boarding": "0", "stop_code": "1400", "stop_lon": "-97.689634", "route_id": "300", "stop_name": "6509 Berkman/Wheless"}, {"stop_timezone": "", "parent_station": "", "direction_id": "1", "stop_url": "https://www.capmetro.org/stopdetail/index.php?stop=6343", "stop_sequence": "56", "stop_id": "6343", "stop_desc": "001818 51St & Berkman", "location_type": "", "zone_id": "", "stop_lat": "30.302466", "wheelchair_boarding": "0", "stop_code": "6343", "stop_lon": "-97.697374", "route_id": "300", "stop_name": "1818 51st/Bartholomew Pool"}, {"stop_timezone": "", "parent_station": "", "direction_id": "1", "stop_url": "https://www.capmetro.org/stopdetail/index.php?stop=1401", "stop_sequence": "57", "stop_id": "1401", "stop_desc": "006800 BERKMAN & US 290", "location_type": "", "zone_id": "", "stop_lat": "30.320741", "wheelchair_boarding": "0", "stop_code": "1401", "stop_lon": "-97.688771", "route_id": "300", "stop_name": "Berkman/US 290 SE Corner"}, {"stop_timezone": "", "parent_station": "", "direction_id": "1", "stop_url": "https://www.capmetro.org/stopdetail/index.php?stop=6302", "stop_sequence": "57", "stop_id": "6302", "stop_desc": "001823 51ST & BERKMAN", "location_type": "", "zone_id": "", "stop_lat": "30.304186", "wheelchair_boarding": "0", "stop_code": "6302", "stop_lon": "-97.699251", "route_id": "300", "stop_name": "1824 51st/Berkman"}, {"stop_timezone": "", "parent_station": "", "direction_id": "1", "stop_url": "https://www.capmetro.org/stopdetail/index.php?stop=1402", "stop_sequence": "58", "stop_id": "1402", "stop_desc": "007000 BERKMAN & US 290", "location_type": "", "zone_id": "", "stop_lat": "30.322440", "wheelchair_boarding": "0", "stop_code": "1402", "stop_lon": "-97.688990", "route_id": "300", "stop_name": "Berkman/US 290 NE Corner"}, {"stop_timezone": "", "parent_station": "", "direction_id": "1", "stop_url": "https://www.capmetro.org/stopdetail/index.php?stop=5932", "stop_sequence": "58", "stop_id": "5932", "stop_desc": "001410 51ST & MUELLER", "location_type": "", "zone_id": "", "stop_lat": "30.306564", "wheelchair_boarding": "0", "stop_code": "5932", "stop_lon": "-97.704286", "route_id": "300", "stop_name": "1410 51st/Mueller"}, {"stop_timezone": "", "parent_station": "", "direction_id": "1", "stop_url": "https://www.capmetro.org/stopdetail/index.php?stop=1404", "stop_sequence": "59", "stop_id": "1404", "stop_desc": "007249 BERKMAN & REAGAN HILL", "location_type": "", "zone_id": "", "stop_lat": "30.325726", "wheelchair_boarding": "0", "stop_code": "1404", "stop_lon": "-97.688497", "route_id": "300", "stop_name": "7249 Berkman/Reagan Hill"}, {"stop_timezone": "", "parent_station": "", "direction_id": "1", "stop_url": "https://www.capmetro.org/stopdetail/index.php?stop=5455", "stop_sequence": "59", "stop_id": "5455", "stop_desc": "001200 51ST & LANCASTER", "location_type": "", "zone_id": "", "stop_lat": "30.308232", "wheelchair_boarding": "0", "stop_code": "5455", "stop_lon": "-97.707768", "route_id": "300", "stop_name": "51st/Lancaster"}, {"stop_timezone": "", "parent_station": "", "direction_id": "1", "stop_url": "https://www.capmetro.org/stopdetail/index.php?stop=1404", "stop_sequence": "6", "stop_id": "1404", "stop_desc": "007249 BERKMAN & REAGAN HILL", "location_type": "", "zone_id": "", "stop_lat": "30.325726", "wheelchair_boarding": "0", "stop_code": "1404", "stop_lon": "-97.688497", "route_id": "300", "stop_name": "7249 Berkman/Reagan Hill"}, {"stop_timezone": "", "parent_station": "", "direction_id": "1", "stop_url": "https://www.capmetro.org/stopdetail/index.php?stop=5391", "stop_sequence": "6", "stop_id": "5391", "stop_desc": "003601 LAMAR & PANTHER", "location_type": "", "zone_id": "", "stop_lat": "30.239426", "wheelchair_boarding": "0", "stop_code": "5391", "stop_lon": "-97.788022", "route_id": "300", "stop_name": "3601 Lamar/Panther"}, {"stop_timezone": "", "parent_station": "", "direction_id": "1", "stop_url": "https://www.capmetro.org/stopdetail/index.php?stop=5456", "stop_sequence": "6", "stop_id": "5456", "stop_desc": "003435 PARKER & WOODWARD", "location_type": "", "zone_id": "", "stop_lat": "30.220006", "wheelchair_boarding": "0", "stop_code": "5456", "stop_lon": "-97.742966", "route_id": "300", "stop_name": "Mabel Davis Park"}, {"stop_timezone": "", "parent_station": "", "direction_id": "1", "stop_url": "https://www.capmetro.org/stopdetail/index.php?stop=1405", "stop_sequence": "60", "stop_id": "1405", "stop_desc": "001500 CORONADO HILLS & BERKMAN", "location_type": "", "zone_id": "", "stop_lat": "30.327290", "wheelchair_boarding": "0", "stop_code": "1405", "stop_lon": "-97.688273", "route_id": "300", "stop_name": "Coronado Hills/Berkman"}, {"stop_timezone": "", "parent_station": "", "direction_id": "1", "stop_url": "https://www.capmetro.org/stopdetail/index.php?stop=2388", "stop_sequence": "60", "stop_id": "2388", "stop_desc": "005121 CAMERON & 52ND", "location_type": "", "zone_id": "", "stop_lat": "30.309887", "wheelchair_boarding": "0", "stop_code": "2388", "stop_lon": "-97.708858", "route_id": "300", "stop_name": "Cameron/52nd"}, {"stop_timezone": "", "parent_station": "", "direction_id": "1", "stop_url": "https://www.capmetro.org/stopdetail/index.php?stop=1406", "stop_sequence": "61", "stop_id": "1406", "stop_desc": "001430 CORONADO HILLS & CAMERON", "location_type": "", "zone_id": "", "stop_lat": "30.328718", "wheelchair_boarding": "0", "stop_code": "1406", "stop_lon": "-97.689587", "route_id": "300", "stop_name": "1430 Coronado Hills/Cameron"}, {"stop_timezone": "", "parent_station": "", "direction_id": "1", "stop_url": "https://www.capmetro.org/stopdetail/index.php?stop=2389", "stop_sequence": "61", "stop_id": "2389", "stop_desc": "005340 CAMERON & BROADMOOR", "location_type": "", "zone_id": "", "stop_lat": "30.311881", "wheelchair_boarding": "0", "stop_code": "2389", "stop_lon": "-97.706361", "route_id": "300", "stop_name": "Cameron/Broadmoor"}, {"stop_timezone": "", "parent_station": "", "direction_id": "1", "stop_url": "https://www.capmetro.org/stopdetail/index.php?stop=1407", "stop_sequence": "62", "stop_id": "1407", "stop_desc": "007200 CAMERON & ST JOHNS", "location_type": "", "zone_id": "", "stop_lat": "30.326290", "wheelchair_boarding": "0", "stop_code": "1407", "stop_lon": "-97.692330", "route_id": "300", "stop_name": "7200 Cameron/St Johns"}, {"stop_timezone": "", "parent_station": "", "direction_id": "1", "stop_url": "https://www.capmetro.org/stopdetail/index.php?stop=2390", "stop_sequence": "62", "stop_id": "2390", "stop_desc": "005500 CAMERON & CORONA", "location_type": "", "zone_id": "", "stop_lat": "30.313185", "wheelchair_boarding": "0", "stop_code": "2390", "stop_lon": "-97.704679", "route_id": "300", "stop_name": "Cameron/Corona"}, {"stop_timezone": "", "parent_station": "", "direction_id": "1", "stop_url": "https://www.capmetro.org/stopdetail/index.php?stop=4609", "stop_sequence": "63", "stop_id": "4609", "stop_desc": "005700 CAMERON & RIDGEHAVEN", "location_type": "", "zone_id": "", "stop_lat": "30.315381", "wheelchair_boarding": "0", "stop_code": "4609", "stop_lon": "-97.701860", "route_id": "300", "stop_name": "Cameron/Ridgehaven"}, {"stop_timezone": "", "parent_station": "", "direction_id": "1", "stop_url": "https://www.capmetro.org/stopdetail/index.php?stop=5505", "stop_sequence": "63", "stop_id": "5505", "stop_desc": "001120 ST JOHNS & GRAND CANYON", "location_type": "", "zone_id": "", "stop_lat": "30.328380", "wheelchair_boarding": "0", "stop_code": "5505", "stop_lon": "-97.694615", "route_id": "300", "stop_name": "1120 St Johns/Grand Canyon"}, {"stop_timezone": "", "parent_station": "", "direction_id": "1", "stop_url": "https://www.capmetro.org/stopdetail/index.php?stop=1408", "stop_sequence": "64", "stop_id": "1408", "stop_desc": "001034 ST JOHNS & MEADOR", "location_type": "", "zone_id": "", "stop_lat": "30.329250", "wheelchair_boarding": "0", "stop_code": "1408", "stop_lon": "-97.696440", "route_id": "300", "stop_name": "1034 St Johns/Meador"}, {"stop_timezone": "", "parent_station": "", "direction_id": "1", "stop_url": "https://www.capmetro.org/stopdetail/index.php?stop=2392", "stop_sequence": "64", "stop_id": "2392", "stop_desc": "005913 CAMERON & BRIARCLIFF", "location_type": "", "zone_id": "", "stop_lat": "30.317126", "wheelchair_boarding": "0", "stop_code": "2392", "stop_lon": "-97.699679", "route_id": "300", "stop_name": "5913 Cameron/Briarcliff"}, {"stop_timezone": "", "parent_station": "", "direction_id": "1", "stop_url": "https://www.capmetro.org/stopdetail/index.php?stop=1409", "stop_sequence": "65", "stop_id": "1409", "stop_desc": "001008 ST JOHNS & BETHUNE", "location_type": "", "zone_id": "", "stop_lat": "30.330320", "wheelchair_boarding": "0", "stop_code": "1409", "stop_lon": "-97.698540", "route_id": "300", "stop_name": "1008 St Johns/Bethune"}, {"stop_timezone": "", "parent_station": "", "direction_id": "1", "stop_url": "https://www.capmetro.org/stopdetail/index.php?stop=4592", "stop_sequence": "65", "stop_id": "4592", "stop_desc": "006100 CAMERON & GLENCREST", "location_type": "", "zone_id": "", "stop_lat": "30.319114", "wheelchair_boarding": "0", "stop_code": "4592", "stop_lon": "-97.697490", "route_id": "300", "stop_name": "Cameron/Glencrest"}, {"stop_timezone": "", "parent_station": "", "direction_id": "1", "stop_url": "https://www.capmetro.org/stopdetail/index.php?stop=1410", "stop_sequence": "66", "stop_id": "1410", "stop_desc": "000900 ST JOHNS & BENNETT", "location_type": "", "zone_id": "", "stop_lat": "30.331118", "wheelchair_boarding": "0", "stop_code": "1410", "stop_lon": "-97.700252", "route_id": "300", "stop_name": "900 St Johns/Bennett"}, {"stop_timezone": "", "parent_station": "", "direction_id": "1", "stop_url": "https://www.capmetro.org/stopdetail/index.php?stop=2870", "stop_sequence": "66", "stop_id": "2870", "stop_desc": "006717 CAMERON & ATHLETIC", "location_type": "", "zone_id": "", "stop_lat": "30.322830", "wheelchair_boarding": "0", "stop_code": "2870", "stop_lon": "-97.694130", "route_id": "300", "stop_name": "6717 Cameron/Athletic"}, {"stop_timezone": "", "parent_station": "", "direction_id": "1", "stop_url": "https://www.capmetro.org/stopdetail/index.php?stop=2872", "stop_sequence": "67", "stop_id": "2872", "stop_desc": "000800 ST JOHNS & IH 35", "location_type": "", "zone_id": "", "stop_lat": "30.332336", "wheelchair_boarding": "0", "stop_code": "2872", "stop_lon": "-97.702985", "route_id": "300", "stop_name": "800 St Johns/IH 35"}, {"stop_timezone": "", "parent_station": "", "direction_id": "1", "stop_url": "https://www.capmetro.org/stopdetail/index.php?stop=5505", "stop_sequence": "67", "stop_id": "5505", "stop_desc": "001120 ST JOHNS & GRAND CANYON", "location_type": "", "zone_id": "", "stop_lat": "30.328380", "wheelchair_boarding": "0", "stop_code": "5505", "stop_lon": "-97.694615", "route_id": "300", "stop_name": "1120 St Johns/Grand Canyon"}, {"stop_timezone": "", "parent_station": "", "direction_id": "1", "stop_url": "https://www.capmetro.org/stopdetail/index.php?stop=1408", "stop_sequence": "68", "stop_id": "1408", "stop_desc": "001034 ST JOHNS & MEADOR", "location_type": "", "zone_id": "", "stop_lat": "30.329250", "wheelchair_boarding": "0", "stop_code": "1408", "stop_lon": "-97.696440", "route_id": "300", "stop_name": "1034 St Johns/Meador"}, {"stop_timezone": "", "parent_station": "", "direction_id": "1", "stop_url": "https://www.capmetro.org/stopdetail/index.php?stop=1412", "stop_sequence": "68", "stop_id": "1412", "stop_desc": "007100 ROLAND JOHNSON & ST JOHNS", "location_type": "", "zone_id": "", "stop_lat": "30.333174", "wheelchair_boarding": "0", "stop_code": "1412", "stop_lon": "-97.706079", "route_id": "300", "stop_name": "7100 Roland Johnson/St Johns"}, {"stop_timezone": "", "parent_station": "", "direction_id": "1", "stop_url": "https://www.capmetro.org/stopdetail/index.php?stop=1409", "stop_sequence": "69", "stop_id": "1409", "stop_desc": "001008 ST JOHNS & BETHUNE", "location_type": "", "zone_id": "", "stop_lat": "30.330320", "wheelchair_boarding": "0", "stop_code": "1409", "stop_lon": "-97.698540", "route_id": "300", "stop_name": "1008 St Johns/Bethune"}, {"stop_timezone": "", "parent_station": "", "direction_id": "1", "stop_url": "https://www.capmetro.org/stopdetail/index.php?stop=1413", "stop_sequence": "69", "stop_id": "1413", "stop_desc": "006970 ROLAND JOHNSON & HUNTLAND", "location_type": "", "zone_id": "", "stop_lat": "30.330907", "wheelchair_boarding": "0", "stop_code": "1413", "stop_lon": "-97.706983", "route_id": "300", "stop_name": "6970 Roland Johnson/Huntland"}, {"stop_timezone": "", "parent_station": "", "direction_id": "1", "stop_url": "https://www.capmetro.org/stopdetail/index.php?stop=1405", "stop_sequence": "7", "stop_id": "1405", "stop_desc": "001500 CORONADO HILLS & BERKMAN", "location_type": "", "zone_id": "", "stop_lat": "30.327290", "wheelchair_boarding": "0", "stop_code": "1405", "stop_lon": "-97.688273", "route_id": "300", "stop_name": "Coronado Hills/Berkman"}, {"stop_timezone": "", "parent_station": "", "direction_id": "1", "stop_url": "https://www.capmetro.org/stopdetail/index.php?stop=4211", "stop_sequence": "7", "stop_id": "4211", "stop_desc": "003101 LAMAR & WESTFOREST", "location_type": "", "zone_id": "", "stop_lat": "30.242203", "wheelchair_boarding": "0", "stop_code": "4211", "stop_lon": "-97.784040", "route_id": "300", "stop_name": "3101 Lamar/Westforest"}, {"stop_timezone": "", "parent_station": "", "direction_id": "1", "stop_url": "https://www.capmetro.org/stopdetail/index.php?stop=4324", "stop_sequence": "7", "stop_id": "4324", "stop_desc": "003301 PARKER & TIMBER RIDGE", "location_type": "", "zone_id": "", "stop_lat": "30.222918", "wheelchair_boarding": "0", "stop_code": "4324", "stop_lon": "-97.742100", "route_id": "300", "stop_name": "3301 Parker/Timber Ridge"}, {"stop_timezone": "", "parent_station": "", "direction_id": "1", "stop_url": "https://www.capmetro.org/stopdetail/index.php?stop=1410", "stop_sequence": "70", "stop_id": "1410", "stop_desc": "000900 ST JOHNS & BENNETT", "location_type": "", "zone_id": "", "stop_lat": "30.331118", "wheelchair_boarding": "0", "stop_code": "1410", "stop_lon": "-97.700252", "route_id": "300", "stop_name": "900 St Johns/Bennett"}, {"stop_timezone": "", "parent_station": "", "direction_id": "1", "stop_url": "https://www.capmetro.org/stopdetail/index.php?stop=1414", "stop_sequence": "70", "stop_id": "1414", "stop_desc": "000300 HUNTLAND & BRENDA", "location_type": "", "zone_id": "", "stop_lat": "30.330854", "wheelchair_boarding": "0", "stop_code": "1414", "stop_lon": "-97.710681", "route_id": "300", "stop_name": "300 Huntland/Brenda"}, {"stop_timezone": "", "parent_station": "", "direction_id": "1", "stop_url": "https://www.capmetro.org/stopdetail/index.php?stop=1415", "stop_sequence": "71", "stop_id": "1415", "stop_desc": "006500 JONATHON & HIGHLAND MALL", "location_type": "", "zone_id": "", "stop_lat": "30.328767", "wheelchair_boarding": "0", "stop_code": "1415", "stop_lon": "-97.713056", "route_id": "300", "stop_name": "6500 Jonathan Dr (Highland Mall)"}, {"stop_timezone": "", "parent_station": "", "direction_id": "1", "stop_url": "https://www.capmetro.org/stopdetail/index.php?stop=2872", "stop_sequence": "71", "stop_id": "2872", "stop_desc": "000800 ST JOHNS & IH 35", "location_type": "", "zone_id": "", "stop_lat": "30.332336", "wheelchair_boarding": "0", "stop_code": "2872", "stop_lon": "-97.702985", "route_id": "300", "stop_name": "800 St Johns/IH 35"}, {"stop_timezone": "", "parent_station": "", "direction_id": "1", "stop_url": "https://www.capmetro.org/stopdetail/index.php?stop=1273", "stop_sequence": "72", "stop_id": "1273", "stop_desc": "006902 AIRPORT & GUADALUPE", "location_type": "", "zone_id": "", "stop_lat": "30.333977", "wheelchair_boarding": "0", "stop_code": "1273", "stop_lon": "-97.716818", "route_id": "300", "stop_name": "6902 Airport Blvd/Guadalupe"}, {"stop_timezone": "", "parent_station": "", "direction_id": "1", "stop_url": "https://www.capmetro.org/stopdetail/index.php?stop=6306", "stop_sequence": "72", "stop_id": "6306", "stop_desc": "000467 ST JOHNS & DUVAL", "location_type": "", "zone_id": "", "stop_lat": "30.334122", "wheelchair_boarding": "0", "stop_code": "6306", "stop_lon": "-97.706753", "route_id": "300", "stop_name": "467 St Johns/Duval"}, {"stop_timezone": "", "parent_station": "", "direction_id": "1", "stop_url": "https://www.capmetro.org/stopdetail/index.php?stop=2874", "stop_sequence": "73", "stop_id": "2874", "stop_desc": "000514 ST JOHNS & GUADALUPE", "location_type": "", "zone_id": "", "stop_lat": "30.337813", "wheelchair_boarding": "0", "stop_code": "2874", "stop_lon": "-97.714297", "route_id": "300", "stop_name": "514 St Johns/Guadalupe"}, {"stop_timezone": "", "parent_station": "", "direction_id": "1", "stop_url": "https://www.capmetro.org/stopdetail/index.php?stop=5509", "stop_sequence": "73", "stop_id": "5509", "stop_desc": "006903 AIRPORT & KENNISTON", "location_type": "", "zone_id": "", "stop_lat": "30.336072", "wheelchair_boarding": "0", "stop_code": "5509", "stop_lon": "-97.717896", "route_id": "300", "stop_name": "6903 Airport/Kenniston"}, {"stop_timezone": "", "parent_station": "", "direction_id": "1", "stop_url": "https://www.capmetro.org/stopdetail/index.php?stop=2878", "stop_sequence": "74", "stop_id": "2878", "stop_desc": "007135 LAMAR & ST JOHNS", "location_type": "", "zone_id": "", "stop_lat": "30.339262", "wheelchair_boarding": "0", "stop_code": "2878", "stop_lon": "-97.717782", "route_id": "300", "stop_name": "7135 Lamar/St Johns"}, {"stop_timezone": "", "parent_station": "", "direction_id": "1", "stop_url": "https://www.capmetro.org/stopdetail/index.php?stop=5604", "stop_sequence": "74", "stop_id": "5604", "stop_desc": "000000 EASY WIND & ST JOHNS", "location_type": "", "zone_id": "", "stop_lat": "30.338721", "wheelchair_boarding": "0", "stop_code": "5604", "stop_lon": "-97.719548", "route_id": "300", "stop_name": "Easy Wind/St Johns"}, {"stop_timezone": "", "parent_station": "", "direction_id": "1", "stop_url": "https://www.capmetro.org/stopdetail/index.php?stop=1417", "stop_sequence": "75", "stop_id": "1417", "stop_desc": "007401 LAMAR & ST JOHNS", "location_type": "", "zone_id": "", "stop_lat": "30.341113", "wheelchair_boarding": "0", "stop_code": "1417", "stop_lon": "-97.716607", "route_id": "300", "stop_name": "7401 Lamar/St Johns"}, {"stop_timezone": "", "parent_station": "", "direction_id": "1", "stop_url": "https://www.capmetro.org/stopdetail/index.php?stop=622", "stop_sequence": "76", "stop_id": "622", "stop_desc": "007545 LAMAR & MORROW", "location_type": "", "zone_id": "", "stop_lat": "30.343850", "wheelchair_boarding": "0", "stop_code": "622", "stop_lon": "-97.714920", "route_id": "300", "stop_name": "7545 Lamar/Morrow"}, {"stop_timezone": "", "parent_station": "", "direction_id": "1", "stop_url": "https://www.capmetro.org/stopdetail/index.php?stop=5226", "stop_sequence": "77", "stop_id": "5226", "stop_desc": "07900B RESEARCH & LAMAR", "location_type": "", "zone_id": "", "stop_lat": "30.350167", "wheelchair_boarding": "0", "stop_code": "5226", "stop_lon": "-97.712099", "route_id": "300", "stop_name": "North Lamar Bay 2"}, {"stop_timezone": "", "parent_station": "", "direction_id": "1", "stop_url": "https://www.capmetro.org/stopdetail/index.php?stop=1237", "stop_sequence": "8", "stop_id": "1237", "stop_desc": "003101 PARKER & WICKSHIRE", "location_type": "", "zone_id": "", "stop_lat": "30.224517", "wheelchair_boarding": "0", "stop_code": "1237", "stop_lon": "-97.742158", "route_id": "300", "stop_name": "3101 Parker/Wickshire"}, {"stop_timezone": "", "parent_station": "", "direction_id": "1", "stop_url": "https://www.capmetro.org/stopdetail/index.php?stop=1406", "stop_sequence": "8", "stop_id": "1406", "stop_desc": "001430 CORONADO HILLS & CAMERON", "location_type": "", "zone_id": "", "stop_lat": "30.328718", "wheelchair_boarding": "0", "stop_code": "1406", "stop_lon": "-97.689587", "route_id": "300", "stop_name": "1430 Coronado Hills/Cameron"}, {"stop_timezone": "", "parent_station": "", "direction_id": "1", "stop_url": "https://www.capmetro.org/stopdetail/index.php?stop=2374", "stop_sequence": "8", "stop_id": "2374", "stop_desc": "002801 LAMAR & MANCHACA", "location_type": "", "zone_id": "", "stop_lat": "30.244014", "wheelchair_boarding": "0", "stop_code": "2374", "stop_lon": "-97.781577", "route_id": "300", "stop_name": "2801 Lamar/Manchaca"}, {"stop_timezone": "", "parent_station": "", "direction_id": "1", "stop_url": "https://www.capmetro.org/stopdetail/index.php?stop=1238", "stop_sequence": "9", "stop_id": "1238", "stop_desc": "002801 PARKER & ROYAL HILL", "location_type": "", "zone_id": "", "stop_lat": "30.227381", "wheelchair_boarding": "0", "stop_code": "1238", "stop_lon": "-97.740387", "route_id": "300", "stop_name": "2801 Parker/Royal Hill"}, {"stop_timezone": "", "parent_station": "", "direction_id": "1", "stop_url": "https://www.capmetro.org/stopdetail/index.php?stop=1407", "stop_sequence": "9", "stop_id": "1407", "stop_desc": "007200 CAMERON & ST JOHNS", "location_type": "", "zone_id": "", "stop_lat": "30.326290", "wheelchair_boarding": "0", "stop_code": "1407", "stop_lon": "-97.692330", "route_id": "300", "stop_name": "7200 Cameron/St Johns"}, {"stop_timezone": "", "parent_station": "", "direction_id": "1", "stop_url": "https://www.capmetro.org/stopdetail/index.php?stop=771", "stop_sequence": "9", "stop_id": "771", "stop_desc": "002639 LAMAR & DICKSON", "location_type": "", "zone_id": "", "stop_lat": "30.245377", "wheelchair_boarding": "0", "stop_code": "771", "stop_lon": "-97.779693", "route_id": "300", "stop_name": "2639 Lamar/Dickson"}]
