[{"stop_timezone": null, "parent_station": null, "direction_id": 1, "stop_url": "http://www.capmetro.org/gismaps/stops/2611.html", "stop_id": "2611", "stop_desc": "Northwest corner of GUADALUPE and 8TH - Nearside", "location_type": null, "platform_code": null, "zone_id": null, "stop_lat": 30.271057, "wheelchair_boarding": 0, "stop_code": "2611", "stop_lon": -97.745655, "route_id": "801", "stop_name": "WOOLDRIDGE SQUARE STATION (SB)"}, {"stop_timezone": null, "parent_station": null, "direction_id": 1, "stop_url": "http://www.capmetro.org/gismaps/stops/2738.html", "stop_id": "2738", "stop_desc": "Northwest corner of GUADALUPE and 12TH - Nearside", "location_type": null, "platform_code": null, "zone_id": null, "stop_lat": 30.275022, "wheelchair_boarding": 0, "stop_code": "2738", "stop_lon": -97.744169, "route_id": "801", "stop_name": "CAPITOL STATION (SB)"}, {"stop_timezone": null, "parent_station": null, "direction_id": 1, "stop_url": "http://www.capmetro.org/gismaps/stops/2763.html", "stop_id": "2763", "stop_desc": "Northwest corner of RIVERSIDE and BARTON SPRINGS - Nearside", "location_type": null, "platform_code": null, "zone_id": null, "stop_lat": 30.258765, "wheelchair_boarding": 0, "stop_code": "2763", "stop_lon": -97.748699, "route_id": "801", "stop_name": "AUDITORIUM SHORES STATION (SB)"}, {"stop_timezone": null, "parent_station": null, "direction_id": 1, "stop_url": "http://www.capmetro.org/gismaps/stops/4029.html", "stop_id": "4029", "stop_desc": "Northwest corner of CONGRESS and MONROE - Nearside", "location_type": null, "platform_code": null, "zone_id": null, "stop_lat": 30.248071, "wheelchair_boarding": 0, "stop_code": "4029", "stop_lon": -97.750404, "route_id": "801", "stop_name": "SOCO STATION (SB)"}, {"stop_timezone": null, "parent_station": null, "direction_id": 1, "stop_url": "http://www.capmetro.org/gismaps/stops/4046.html", "stop_id": "4046", "stop_desc": "Southwest corner of CONGRESS and OLTORF - Mid-Block", "location_type": null, "platform_code": null, "zone_id": null, "stop_lat": 30.238013, "wheelchair_boarding": 1, "stop_code": "4046", "stop_lon": -97.754383, "route_id": "801", "stop_name": "OLTORF STATION (SB)"}, {"stop_timezone": null, "parent_station": null, "direction_id": 1, "stop_url": "http://www.capmetro.org/gismaps/stops/4540.html", "stop_id": "4540", "stop_desc": "Northwest corner of LAMAR and RUNDBERG - Nearside", "location_type": null, "platform_code": null, "zone_id": null, "stop_lat": 30.363643, "wheelchair_boarding": 0, "stop_code": "4540", "stop_lon": -97.696839, "route_id": "801", "stop_name": "RUNDBERG STATION (SB)"}, {"stop_timezone": null, "parent_station": null, "direction_id": 1, "stop_url": "http://www.capmetro.org/gismaps/stops/484.html", "stop_id": "484", "stop_desc": "Southwest corner of GUADALUPE and LAMAR - Mid-Block", "location_type": null, "platform_code": null, "zone_id": null, "stop_lat": 30.314729, "wheelchair_boarding": 0, "stop_code": "484", "stop_lon": -97.732523, "route_id": "801", "stop_name": "TRIANGLE STATION (SB)"}, {"stop_timezone": null, "parent_station": null, "direction_id": 1, "stop_url": "http://www.capmetro.org/gismaps/stops/497.html", "stop_id": "497", "stop_desc": "Southwest corner of GUADALUPE and 23RD - Mid-Block", "location_type": null, "platform_code": null, "zone_id": null, "stop_lat": 30.286064, "wheelchair_boarding": 0, "stop_code": "497", "stop_lon": -97.741815, "route_id": "801", "stop_name": "UT WEST MALL STATION (SB)"}, {"stop_timezone": null, "parent_station": null, "direction_id": 1, "stop_url": "http://www.capmetro.org/gismaps/stops/5304.html", "stop_id": "5304", "stop_desc": "Northwest corner of CENTER RIDGE and CENTER LINE - Mid-Block", "location_type": null, "platform_code": null, "zone_id": null, "stop_lat": 30.418199, "wheelchair_boarding": 0, "stop_code": "5304", "stop_lon": -97.668243, "route_id": "801", "stop_name": "TECH RIDGE BAY I"}, {"stop_timezone": null, "parent_station": null, "direction_id": 1, "stop_url": "http://www.capmetro.org/gismaps/stops/5405.html", "stop_id": "5405", "stop_desc": "Northwest corner of GUADALUPE and 38TH HALF - Nearside", "location_type": null, "platform_code": null, "zone_id": null, "stop_lat": 30.303643, "wheelchair_boarding": 1, "stop_code": "5405", "stop_lon": -97.737705, "route_id": "801", "stop_name": "HYDE PARK STATION (SB)"}, {"stop_timezone": null, "parent_station": null, "direction_id": 1, "stop_url": "http://www.capmetro.org/gismaps/stops/5553.html", "stop_id": "5553", "stop_desc": "Northwest corner of BEN WHITE and CONGRESS - Mid-Block", "location_type": null, "platform_code": null, "zone_id": null, "stop_lat": 30.222718, "wheelchair_boarding": 0, "stop_code": "5553", "stop_lon": -97.766459, "route_id": "801", "stop_name": "SOUTH CONGRESS STATION BAY K"}, {"stop_timezone": null, "parent_station": null, "direction_id": 1, "stop_url": "http://www.capmetro.org/gismaps/stops/5606.html", "stop_id": "5606", "stop_desc": "Northwest corner of LAMAR and AIRPORT - Nearside", "location_type": null, "platform_code": null, "zone_id": null, "stop_lat": 30.337829, "wheelchair_boarding": 0, "stop_code": "5606", "stop_lon": -97.719023, "route_id": "801", "stop_name": "CRESTVIEW STATION (SB)"}, {"stop_timezone": null, "parent_station": null, "direction_id": 1, "stop_url": "http://www.capmetro.org/gismaps/stops/5857.html", "stop_id": "5857", "stop_desc": "Northwest corner of LAMAR and KRAMER - Mid-Block", "location_type": null, "platform_code": null, "zone_id": null, "stop_lat": 30.380328, "wheelchair_boarding": 0, "stop_code": "5857", "stop_lon": -97.687413, "route_id": "801", "stop_name": "CHINATOWN STATION (SB)"}, {"stop_timezone": null, "parent_station": null, "direction_id": 1, "stop_url": "http://www.capmetro.org/gismaps/stops/5858.html", "stop_id": "5858", "stop_desc": "Southwest corner of LAMAR and MASTERSON - Farside", "location_type": null, "platform_code": null, "zone_id": null, "stop_lat": 30.370907, "wheelchair_boarding": 0, "stop_code": "5858", "stop_lon": -97.692755, "route_id": "801", "stop_name": "MASTERSON STATION (SB)"}, {"stop_timezone": null, "parent_station": null, "direction_id": 1, "stop_url": "http://www.capmetro.org/gismaps/stops/5859.html", "stop_id": "5859", "stop_desc": "Northwest corner of LAMAR and RESEARCH - Nearside", "location_type": null, "platform_code": null, "zone_id": null, "stop_lat": 30.349326, "wheelchair_boarding": 0, "stop_code": "5859", "stop_lon": -97.711685, "route_id": "801", "stop_name": "NORTH LAMAR STATION"}, {"stop_timezone": null, "parent_station": null, "direction_id": 1, "stop_url": "http://www.capmetro.org/gismaps/stops/5861.html", "stop_id": "5861", "stop_desc": "Northwest corner of LAMAR and KOENIG - Nearside", "location_type": null, "platform_code": null, "zone_id": null, "stop_lat": 30.326746, "wheelchair_boarding": 0, "stop_code": "5861", "stop_lon": -97.72593, "route_id": "801", "stop_name": "KOENIG STATION (SB)"}, {"stop_timezone": null, "parent_station": null, "direction_id": 1, "stop_url": "http://www.capmetro.org/gismaps/stops/5863.html", "stop_id": "5863", "stop_desc": "Northwest corner of GUADALUPE and 26TH - Mid-Block", "location_type": null, "platform_code": null, "zone_id": null, "stop_lat": 30.291145, "wheelchair_boarding": 0, "stop_code": "5863", "stop_lon": -97.741349, "route_id": "801", "stop_name": "UT DEAN KEETON STATION (SB)"}, {"stop_timezone": null, "parent_station": null, "direction_id": 1, "stop_url": "http://www.capmetro.org/gismaps/stops/5866.html", "stop_id": "5866", "stop_desc": "Southwest corner of GUADALUPE and 17TH - Farside", "location_type": null, "platform_code": null, "zone_id": null, "stop_lat": 30.279366, "wheelchair_boarding": 0, "stop_code": "5866", "stop_lon": -97.742545, "route_id": "801", "stop_name": "MUSEUM STATION (SB)"}, {"stop_timezone": null, "parent_station": null, "direction_id": 1, "stop_url": "http://www.capmetro.org/gismaps/stops/5867.html", "stop_id": "5867", "stop_desc": "Northwest corner of GUADALUPE and 4TH - Mid-Block", "location_type": null, "platform_code": null, "zone_id": null, "stop_lat": 30.267751, "wheelchair_boarding": 0, "stop_code": "5867", "stop_lon": -97.746857, "route_id": "801", "stop_name": "REPUBLIC SQUARE STATION (SB)"}, {"stop_timezone": null, "parent_station": null, "direction_id": 1, "stop_url": "http://www.capmetro.org/gismaps/stops/5870.html", "stop_id": "5870", "stop_desc": "Southwest corner of CONGRESS and LIGHTSEY - Farside", "location_type": null, "platform_code": null, "zone_id": null, "stop_lat": 30.228813, "wheelchair_boarding": 0, "stop_code": "5870", "stop_lon": -97.760902, "route_id": "801", "stop_name": "ST EDWARDS STATION (SB)"}, {"stop_timezone": null, "parent_station": null, "direction_id": 1, "stop_url": "http://www.capmetro.org/gismaps/stops/5871.html", "stop_id": "5871", "stop_desc": "Northwest corner of CONGRESS and AINSWORTH - Nearside", "location_type": null, "platform_code": null, "zone_id": null, "stop_lat": 30.203436, "wheelchair_boarding": 0, "stop_code": "5871", "stop_lon": -97.775417, "route_id": "801", "stop_name": "LITTLE TEXAS STATION (SB)"}, {"stop_timezone": null, "parent_station": null, "direction_id": 1, "stop_url": "http://www.capmetro.org/gismaps/stops/5872.html", "stop_id": "5872", "stop_desc": "Southwest corner of CONGRESS and WILLIAM CANNON - Farside", "location_type": null, "platform_code": null, "zone_id": null, "stop_lat": 30.192391, "wheelchair_boarding": 0, "stop_code": "5872", "stop_lon": -97.779203, "route_id": "801", "stop_name": "PLEASANT HILL STATION (SB)"}, {"stop_timezone": null, "parent_station": null, "direction_id": 1, "stop_url": "http://www.capmetro.org/gismaps/stops/5873.html", "stop_id": "5873", "stop_desc": "Northeast corner of TURK and CULLEN - Mid-Block", "location_type": null, "platform_code": null, "zone_id": null, "stop_lat": 30.162951, "wheelchair_boarding": 0, "stop_code": "5873", "stop_lon": -97.790488, "route_id": "801", "stop_name": "SOUTHPARK MEADOWS STATION"}]
