[{"stop_lat": 30.290572, "stop_timezone": null, "wheelchair_boarding": 0, "stop_code": "1706", "direction_id": 0, "stop_lon": -97.727389, "parent_station": null, "route_id": "110", "stop_url": null, "stop_sequence": 1, "stop_id": "1706", "stop_desc": "003100 RED RIVER & 32ND", "stop_name": "3100 RED RIVER/32ND", "location_type": null, "platform_code": null, "zone_id": null}, {"stop_lat": 30.196414, "stop_timezone": null, "wheelchair_boarding": 0, "stop_code": "4397", "direction_id": 0, "stop_lon": -97.788391, "parent_station": null, "route_id": "110", "stop_url": null, "stop_sequence": 1, "stop_id": "4397", "stop_desc": "006800 1ST & WILLIAM CANNON", "stop_name": "6800 S 1ST/WILLIAM CANNON", "location_type": null, "platform_code": null, "zone_id": null}, {"stop_lat": 30.287579, "stop_timezone": null, "wheelchair_boarding": 0, "stop_code": "2077", "direction_id": 0, "stop_lon": -97.727345, "parent_station": null, "route_id": "110", "stop_url": null, "stop_sequence": 2, "stop_id": "2077", "stop_desc": "000920 DEAN KEETON & RED RIVER", "stop_name": "920 DEAN KEETON/RED RIVER", "location_type": null, "platform_code": null, "zone_id": null}, {"stop_lat": 30.19378, "stop_timezone": null, "wheelchair_boarding": 0, "stop_code": "2626", "direction_id": 0, "stop_lon": -97.79003, "parent_station": null, "route_id": "110", "stop_url": null, "stop_sequence": 2, "stop_id": "2626", "stop_desc": "006900 1ST & MULBERRY", "stop_name": "S. 1ST/MULBERRY", "location_type": null, "platform_code": null, "zone_id": null}, {"stop_lat": 30.28918, "stop_timezone": null, "wheelchair_boarding": 0, "stop_code": "2757", "direction_id": 0, "stop_lon": -97.73001, "parent_station": null, "route_id": "110", "stop_url": null, "stop_sequence": 3, "stop_id": "2757", "stop_desc": "000810 DEAN KEETON & HAMPTON", "stop_name": "810 DEAN KEETON/HAMPTON", "location_type": null, "platform_code": null, "zone_id": null}, {"stop_lat": 30.19174, "stop_timezone": null, "wheelchair_boarding": 0, "stop_code": "3763", "direction_id": 0, "stop_lon": -97.7905, "parent_station": null, "route_id": "110", "stop_url": null, "stop_sequence": 3, "stop_id": "3763", "stop_desc": "007200 1ST & PRINCE VALIANT", "stop_name": "7200 S 1ST/PRINCE VALIANT", "location_type": null, "platform_code": null, "zone_id": null}, {"stop_lat": 30.28725, "stop_timezone": null, "wheelchair_boarding": 0, "stop_code": "1178", "direction_id": 0, "stop_lon": -97.73366, "parent_station": null, "route_id": "110", "stop_url": null, "stop_sequence": 4, "stop_id": "1178", "stop_desc": "002400 SAN JACINTO & 24TH", "stop_name": "2400 SAN JACINTO/24TH", "location_type": null, "platform_code": null, "zone_id": null}, {"stop_lat": 30.190183, "stop_timezone": null, "wheelchair_boarding": 0, "stop_code": "2627", "direction_id": 0, "stop_lon": -97.79057, "parent_station": null, "route_id": "110", "stop_url": null, "stop_sequence": 4, "stop_id": "2627", "stop_desc": "007230 1ST & MEADOW LEA", "stop_name": "7230 S 1ST/MEADOW LEA", "location_type": null, "platform_code": null, "zone_id": null}, {"stop_lat": 30.2855, "stop_timezone": null, "wheelchair_boarding": 0, "stop_code": "1179", "direction_id": 0, "stop_lon": -97.73378, "parent_station": null, "route_id": "110", "stop_url": null, "stop_sequence": 5, "stop_id": "1179", "stop_desc": "002300 SAN JACINTO & 23RD", "stop_name": "2300 SAN JACINTO/23RD", "location_type": null, "platform_code": null, "zone_id": null}, {"stop_lat": 30.18411, "stop_timezone": null, "wheelchair_boarding": 0, "stop_code": "2628", "direction_id": 0, "stop_lon": -97.7926, "parent_station": null, "route_id": "110", "stop_url": null, "stop_sequence": 5, "stop_id": "2628", "stop_desc": "007816 1ST & DITTMAR", "stop_name": "7816 S 1ST/DITTMAR", "location_type": null, "platform_code": null, "zone_id": null}, {"stop_lat": 30.28336, "stop_timezone": null, "wheelchair_boarding": 0, "stop_code": "1180", "direction_id": 0, "stop_lon": -97.73417, "parent_station": null, "route_id": "110", "stop_url": null, "stop_sequence": 6, "stop_id": "1180", "stop_desc": "002100 SAN JACINTO & 21ST", "stop_name": "2100 SAN JACINTO/21ST", "location_type": null, "platform_code": null, "zone_id": null}, {"stop_lat": 30.181296, "stop_timezone": null, "wheelchair_boarding": 0, "stop_code": "2629", "direction_id": 0, "stop_lon": -97.794775, "parent_station": null, "route_id": "110", "stop_url": null, "stop_sequence": 6, "stop_id": "2629", "stop_desc": "008116 1ST & MAIRO", "stop_name": "8116 S 1ST/MAIRO", "location_type": null, "platform_code": null, "zone_id": null}, {"stop_lat": 30.279395, "stop_timezone": null, "wheelchair_boarding": 0, "stop_code": "2587", "direction_id": 0, "stop_lon": -97.73868, "parent_station": null, "route_id": "110", "stop_url": null, "stop_sequence": 7, "stop_id": "2587", "stop_desc": "001714 CONGRESS & 18TH", "stop_name": "1714 CONGRESS/18TH", "location_type": null, "platform_code": null, "zone_id": null}, {"stop_lat": 30.179602, "stop_timezone": null, "wheelchair_boarding": 0, "stop_code": "3764", "direction_id": 0, "stop_lon": -97.79606, "parent_station": null, "route_id": "110", "stop_url": null, "stop_sequence": 7, "stop_id": "3764", "stop_desc": "008318 1ST & GREAT BRITAIN", "stop_name": "8318 S 1ST/GREAT BRITAIN", "location_type": null, "platform_code": null, "zone_id": null}, {"stop_lat": 30.277958, "stop_timezone": null, "wheelchair_boarding": 0, "stop_code": "2588", "direction_id": 0, "stop_lon": -97.739212, "parent_station": null, "route_id": "110", "stop_url": null, "stop_sequence": 8, "stop_id": "2588", "stop_desc": "001600 CONGRESS & 16TH", "stop_name": "1600 CONGRESS/16TH", "location_type": null, "platform_code": null, "zone_id": null}, {"stop_lat": 30.176287, "stop_timezone": null, "wheelchair_boarding": 0, "stop_code": "4403", "direction_id": 0, "stop_lon": -97.79814, "parent_station": null, "route_id": "110", "stop_url": null, "stop_sequence": 8, "stop_id": "4403", "stop_desc": "008600 1ST & HYDE PARK", "stop_name": "8600 S 1ST/HYDE PARK", "location_type": null, "platform_code": null, "zone_id": null}, {"stop_lat": 30.275022, "stop_timezone": null, "wheelchair_boarding": 0, "stop_code": "2738", "direction_id": 0, "stop_lon": -97.744169, "parent_station": null, "route_id": "110", "stop_url": null, "stop_sequence": 9, "stop_id": "2738", "stop_desc": "001200 GUADALUPE & 12TH", "stop_name": "CAPITOL STATION (SB)", "location_type": null, "platform_code": null, "zone_id": null}, {"stop_lat": 30.173319, "stop_timezone": null, "wheelchair_boarding": 0, "stop_code": "4915", "direction_id": 0, "stop_lon": -97.79903, "parent_station": null, "route_id": "110", "stop_url": null, "stop_sequence": 9, "stop_id": "4915", "stop_desc": "009000 1ST & SLAUGHTER", "stop_name": "9000 S 1ST/SLAUGHTER", "location_type": null, "platform_code": null, "zone_id": null}, {"stop_lat": 30.173762, "stop_timezone": null, "wheelchair_boarding": 0, "stop_code": "4626", "direction_id": 0, "stop_lon": -97.80117, "parent_station": null, "route_id": "110", "stop_url": null, "stop_sequence": 10, "stop_id": "4626", "stop_desc": "000620 SLAUGHTER & 1ST", "stop_name": "SLAUGHTER/1ST", "location_type": null, "platform_code": null, "zone_id": null}, {"stop_lat": 30.271503, "stop_timezone": null, "wheelchair_boarding": 0, "stop_code": "5950", "direction_id": 0, "stop_lon": -97.745478, "parent_station": null, "route_id": "110", "stop_url": null, "stop_sequence": 10, "stop_id": "5950", "stop_desc": "000000 GUADALUPE & 8TH", "stop_name": "GUADALUPE/8TH", "location_type": null, "platform_code": null, "zone_id": null}, {"stop_lat": 30.268253, "stop_timezone": null, "wheelchair_boarding": 0, "stop_code": "2612", "direction_id": 0, "stop_lon": -97.74669, "parent_station": null, "route_id": "110", "stop_url": null, "stop_sequence": 11, "stop_id": "2612", "stop_desc": "000500 GUADALUPE & 5TH", "stop_name": "500 GUADALUPE/5TH", "location_type": null, "platform_code": null, "zone_id": null}, {"stop_lat": 30.174173, "stop_timezone": null, "wheelchair_boarding": 0, "stop_code": "5416", "direction_id": 0, "stop_lon": -97.804467, "parent_station": null, "route_id": "110", "stop_url": null, "stop_sequence": 11, "stop_id": "5416", "stop_desc": "000000 SLAUGHTER & SIMONETTI", "stop_name": "SLAUGHTER/SIMONETTI", "location_type": null, "platform_code": null, "zone_id": null}, {"stop_lat": 30.25931, "stop_timezone": null, "wheelchair_boarding": 0, "stop_code": "1655", "direction_id": 0, "stop_lon": -97.74976, "parent_station": null, "route_id": "110", "stop_url": null, "stop_sequence": 12, "stop_id": "1655", "stop_desc": "000400 1ST & RIVERSIDE", "stop_name": "400 S 1ST/RIVERSIDE", "location_type": null, "platform_code": null, "zone_id": null}, {"stop_lat": 30.17414, "stop_timezone": null, "wheelchair_boarding": 0, "stop_code": "3766", "direction_id": 0, "stop_lon": -97.80636, "parent_station": null, "route_id": "110", "stop_url": null, "stop_sequence": 12, "stop_id": "3766", "stop_desc": "000818 SLAUGHTER & PALACE", "stop_name": "818 SLAUGHTER/PALACE", "location_type": null, "platform_code": null, "zone_id": null}, {"stop_lat": 30.258081, "stop_timezone": null, "wheelchair_boarding": 0, "stop_code": "1656", "direction_id": 0, "stop_lon": -97.750396, "parent_station": null, "route_id": "110", "stop_url": null, "stop_sequence": 13, "stop_id": "1656", "stop_desc": "000500 1ST & BARTON SPRINGS", "stop_name": "500 S 1ST/BARTON SPRINGS", "location_type": null, "platform_code": null, "zone_id": null}, {"stop_lat": 30.174107, "stop_timezone": null, "wheelchair_boarding": 0, "stop_code": "2933", "direction_id": 0, "stop_lon": -97.809095, "parent_station": null, "route_id": "110", "stop_url": null, "stop_sequence": 13, "stop_id": "2933", "stop_desc": "000922 SLAUGHTER & UNITED KINGDOM", "stop_name": "SLAUGHTER/UNITED KINGDOM", "location_type": null, "platform_code": null, "zone_id": null}, {"stop_lat": 30.208753, "stop_timezone": null, "wheelchair_boarding": 0, "stop_code": "2623", "direction_id": 0, "stop_lon": -97.78142, "parent_station": null, "route_id": "110", "stop_url": null, "stop_sequence": 14, "stop_id": "2623", "stop_desc": "005500 1ST & STASSNEY", "stop_name": "5500 S 1ST/STASSNEY", "location_type": null, "platform_code": null, "zone_id": null}, {"stop_lat": 30.179014, "stop_timezone": null, "wheelchair_boarding": 0, "stop_code": "4409", "direction_id": 0, "stop_lon": -97.808285, "parent_station": null, "route_id": "110", "stop_url": null, "stop_sequence": 14, "stop_id": "4409", "stop_desc": "008800 UNITED KINGDOM & MINTURN", "stop_name": "UNITED KINGDOM/MINTURN", "location_type": null, "platform_code": null, "zone_id": null}, {"stop_lat": 30.205367, "stop_timezone": null, "wheelchair_boarding": 0, "stop_code": "4394", "direction_id": 0, "stop_lon": -97.78315, "parent_station": null, "route_id": "110", "stop_url": null, "stop_sequence": 15, "stop_id": "4394", "stop_desc": "005802 1ST & STASSNEY", "stop_name": "5802 SOUTH 1ST/STASSNEY", "location_type": null, "platform_code": null, "zone_id": null}, {"stop_lat": 30.202421, "stop_timezone": null, "wheelchair_boarding": 0, "stop_code": "1681", "direction_id": 0, "stop_lon": -97.784596, "parent_station": null, "route_id": "110", "stop_url": null, "stop_sequence": 16, "stop_id": "1681", "stop_desc": "006106 1ST & BLUEBERRY", "stop_name": "6106 S 1ST/BLUEBERRY", "location_type": null, "platform_code": null, "zone_id": null}, {"stop_lat": 30.20071, "stop_timezone": null, "wheelchair_boarding": 0, "stop_code": "1682", "direction_id": 0, "stop_lon": -97.78568, "parent_station": null, "route_id": "110", "stop_url": null, "stop_sequence": 17, "stop_id": "1682", "stop_desc": "006400 1ST & EBERHART", "stop_name": "6400 S 1ST/EBERHART", "location_type": null, "platform_code": null, "zone_id": null}, {"stop_lat": 30.199208, "stop_timezone": null, "wheelchair_boarding": 0, "stop_code": "1683", "direction_id": 0, "stop_lon": -97.786609, "parent_station": null, "route_id": "110", "stop_url": null, "stop_sequence": 18, "stop_id": "1683", "stop_desc": "006502 1ST & KING EDWARD", "stop_name": "6502 S 1ST/KING EDWARD", "location_type": null, "platform_code": null, "zone_id": null}, {"stop_lat": 30.197336, "stop_timezone": null, "wheelchair_boarding": 0, "stop_code": "2640", "direction_id": 0, "stop_lon": -97.787836, "parent_station": null, "route_id": "110", "stop_url": null, "stop_sequence": 19, "stop_id": "2640", "stop_desc": "000000 1ST & WILLIAM CANNON", "stop_name": "NWC S 1ST/WILLIAM CANNON", "location_type": null, "platform_code": null, "zone_id": null}, {"stop_lat": 30.196414, "stop_timezone": null, "wheelchair_boarding": 0, "stop_code": "4397", "direction_id": 0, "stop_lon": -97.788391, "parent_station": null, "route_id": "110", "stop_url": null, "stop_sequence": 20, "stop_id": "4397", "stop_desc": "006800 1ST & WILLIAM CANNON", "stop_name": "6800 S 1ST/WILLIAM CANNON", "location_type": null, "platform_code": null, "zone_id": null}, {"stop_lat": 30.19378, "stop_timezone": null, "wheelchair_boarding": 0, "stop_code": "2626", "direction_id": 0, "stop_lon": -97.79003, "parent_station": null, "route_id": "110", "stop_url": null, "stop_sequence": 21, "stop_id": "2626", "stop_desc": "006900 1ST & MULBERRY", "stop_name": "S. 1ST/MULBERRY", "location_type": null, "platform_code": null, "zone_id": null}, {"stop_lat": 30.19174, "stop_timezone": null, "wheelchair_boarding": 0, "stop_code": "3763", "direction_id": 0, "stop_lon": -97.7905, "parent_station": null, "route_id": "110", "stop_url": null, "stop_sequence": 22, "stop_id": "3763", "stop_desc": "007200 1ST & PRINCE VALIANT", "stop_name": "7200 S 1ST/PRINCE VALIANT", "location_type": null, "platform_code": null, "zone_id": null}, {"stop_lat": 30.190183, "stop_timezone": null, "wheelchair_boarding": 0, "stop_code": "2627", "direction_id": 0, "stop_lon": -97.79057, "parent_station": null, "route_id": "110", "stop_url": null, "stop_sequence": 23, "stop_id": "2627", "stop_desc": "007230 1ST & MEADOW LEA", "stop_name": "7230 S 1ST/MEADOW LEA", "location_type": null, "platform_code": null, "zone_id": null}, {"stop_lat": 30.18411, "stop_timezone": null, "wheelchair_boarding": 0, "stop_code": "2628", "direction_id": 0, "stop_lon": -97.7926, "parent_station": null, "route_id": "110", "stop_url": null, "stop_sequence": 24, "stop_id": "2628", "stop_desc": "007816 1ST & DITTMAR", "stop_name": "7816 S 1ST/DITTMAR", "location_type": null, "platform_code": null, "zone_id": null}, {"stop_lat": 30.181296, "stop_timezone": null, "wheelchair_boarding": 0, "stop_code": "2629", "direction_id": 0, "stop_lon": -97.794775, "parent_station": null, "route_id": "110", "stop_url": null, "stop_sequence": 25, "stop_id": "2629", "stop_desc": "008116 1ST & MAIRO", "stop_name": "8116 S 1ST/MAIRO", "location_type": null, "platform_code": null, "zone_id": null}, {"stop_lat": 30.179602, "stop_timezone": null, "wheelchair_boarding": 0, "stop_code": "3764", "direction_id": 0, "stop_lon": -97.79606, "parent_station": null, "route_id": "110", "stop_url": null, "stop_sequence": 26, "stop_id": "3764", "stop_desc": "008318 1ST & GREAT BRITAIN", "stop_name": "8318 S 1ST/GREAT BRITAIN", "location_type": null, "platform_code": null, "zone_id": null}, {"stop_lat": 30.176287, "stop_timezone": null, "wheelchair_boarding": 0, "stop_code": "4403", "direction_id": 0, "stop_lon": -97.79814, "parent_station": null, "route_id": "110", "stop_url": null, "stop_sequence": 27, "stop_id": "4403", "stop_desc": "008600 1ST & HYDE PARK", "stop_name": "8600 S 1ST/HYDE PARK", "location_type": null, "platform_code": null, "zone_id": null}, {"stop_lat": 30.173319, "stop_timezone": null, "wheelchair_boarding": 0, "stop_code": "4915", "direction_id": 0, "stop_lon": -97.79903, "parent_station": null, "route_id": "110", "stop_url": null, "stop_sequence": 28, "stop_id": "4915", "stop_desc": "009000 1ST & SLAUGHTER", "stop_name": "9000 S 1ST/SLAUGHTER", "location_type": null, "platform_code": null, "zone_id": null}, {"stop_lat": 30.173762, "stop_timezone": null, "wheelchair_boarding": 0, "stop_code": "4626", "direction_id": 0, "stop_lon": -97.80117, "parent_station": null, "route_id": "110", "stop_url": null, "stop_sequence": 29, "stop_id": "4626", "stop_desc": "000620 SLAUGHTER & 1ST", "stop_name": "SLAUGHTER/1ST", "location_type": null, "platform_code": null, "zone_id": null}, {"stop_lat": 30.174173, "stop_timezone": null, "wheelchair_boarding": 0, "stop_code": "5416", "direction_id": 0, "stop_lon": -97.804467, "parent_station": null, "route_id": "110", "stop_url": null, "stop_sequence": 30, "stop_id": "5416", "stop_desc": "000000 SLAUGHTER & SIMONETTI", "stop_name": "SLAUGHTER/SIMONETTI", "location_type": null, "platform_code": null, "zone_id": null}, {"stop_lat": 30.17414, "stop_timezone": null, "wheelchair_boarding": 0, "stop_code": "3766", "direction_id": 0, "stop_lon": -97.80636, "parent_station": null, "route_id": "110", "stop_url": null, "stop_sequence": 31, "stop_id": "3766", "stop_desc": "000818 SLAUGHTER & PALACE", "stop_name": "818 SLAUGHTER/PALACE", "location_type": null, "platform_code": null, "zone_id": null}, {"stop_lat": 30.174107, "stop_timezone": null, "wheelchair_boarding": 0, "stop_code": "2933", "direction_id": 0, "stop_lon": -97.809095, "parent_station": null, "route_id": "110", "stop_url": null, "stop_sequence": 32, "stop_id": "2933", "stop_desc": "000922 SLAUGHTER & UNITED KINGDOM", "stop_name": "SLAUGHTER/UNITED KINGDOM", "location_type": null, "platform_code": null, "zone_id": null}, {"stop_lat": 30.179014, "stop_timezone": null, "wheelchair_boarding": 0, "stop_code": "4409", "direction_id": 0, "stop_lon": -97.808285, "parent_station": null, "route_id": "110", "stop_url": null, "stop_sequence": 33, "stop_id": "4409", "stop_desc": "008800 UNITED KINGDOM & MINTURN", "stop_name": "UNITED KINGDOM/MINTURN", "location_type": null, "platform_code": null, "zone_id": null}]
