[{"stop_lat": 30.202744, "stop_timezone": null, "wheelchair_boarding": 0, "stop_code": "4326", "direction_id": 0, "stop_lon": -97.665653, "parent_station": null, "route_id": "100", "stop_url": null, "stop_sequence": 1, "stop_id": "4326", "stop_desc": "003000 PRESIDENTIAL & ABIA LOWER LEVEL", "stop_name": "ABIA LOWER LEVEL", "location_type": null, "platform_code": null, "zone_id": null}, {"stop_lat": 30.21264, "stop_timezone": null, "wheelchair_boarding": 0, "stop_code": "5099", "direction_id": 0, "stop_lon": -97.66384, "parent_station": null, "route_id": "100", "stop_url": null, "stop_sequence": 2, "stop_id": "5099", "stop_desc": "009514 NEW AIRPORT & EMPLOYEE", "stop_name": "NEW AIRPORT/EMPLOYEE", "location_type": null, "platform_code": null, "zone_id": null}, {"stop_lat": 30.225, "stop_timezone": null, "wheelchair_boarding": 0, "stop_code": "950", "direction_id": 0, "stop_lon": -97.70312, "parent_station": null, "route_id": "100", "stop_url": null, "stop_sequence": 3, "stop_id": "950", "stop_desc": "006306 RIVERSIDE & MONTOPOLIS", "stop_name": "6306 RIVERSIDE/MONTOPOLIS", "location_type": null, "platform_code": null, "zone_id": null}, {"stop_lat": 30.23193, "stop_timezone": null, "wheelchair_boarding": 0, "stop_code": "1021", "direction_id": 0, "stop_lon": -97.71786, "parent_station": null, "route_id": "100", "stop_url": null, "stop_sequence": 4, "stop_id": "1021", "stop_desc": "004823 RIVERSIDE & CROSSING PLACE", "stop_name": "4823 RIVERSIDE/CROSSING PLACE", "location_type": null, "platform_code": null, "zone_id": null}, {"stop_lat": 30.24114, "stop_timezone": null, "wheelchair_boarding": 0, "stop_code": "1032", "direction_id": 0, "stop_lon": -97.727591, "parent_station": null, "route_id": "100", "stop_url": null, "stop_sequence": 5, "stop_id": "1032", "stop_desc": "002000 RIVERSIDE & TOWN CREEK", "stop_name": "RIVERSIDE/TOWN CREEK", "location_type": null, "platform_code": null, "zone_id": null}, {"stop_lat": 30.257559, "stop_timezone": null, "wheelchair_boarding": 0, "stop_code": "2516", "direction_id": 0, "stop_lon": -97.746559, "parent_station": null, "route_id": "100", "stop_url": null, "stop_sequence": 6, "stop_id": "2516", "stop_desc": "000300 CONGRESS & RIVERSIDE", "stop_name": "CONGRESS/RIVERSIDE", "location_type": null, "platform_code": null, "zone_id": null}, {"stop_lat": 30.264174, "stop_timezone": null, "wheelchair_boarding": 0, "stop_code": "578", "direction_id": 0, "stop_lon": -97.744098, "parent_station": null, "route_id": "100", "stop_url": null, "stop_sequence": 7, "stop_id": "578", "stop_desc": "000101 CONGRESS & 2ND", "stop_name": "101 CONGRESS/2ND", "location_type": null, "platform_code": null, "zone_id": null}, {"stop_lat": 30.26605, "stop_timezone": null, "wheelchair_boarding": 0, "stop_code": "580", "direction_id": 0, "stop_lon": -97.74339, "parent_station": null, "route_id": "100", "stop_url": null, "stop_sequence": 8, "stop_id": "580", "stop_desc": "000323 CONGRESS & 4TH", "stop_name": "CONGRESS/4TH", "location_type": null, "platform_code": null, "zone_id": null}, {"stop_lat": 30.265499, "stop_timezone": null, "wheelchair_boarding": 0, "stop_code": "5589", "direction_id": 0, "stop_lon": -97.73986, "parent_station": null, "route_id": "100", "stop_url": null, "stop_sequence": 9, "stop_id": "5589", "stop_desc": "000408 TRINITY & 4TH", "stop_name": "TRINITY/4TH", "location_type": null, "platform_code": null, "zone_id": null}, {"stop_lat": 30.27271, "stop_timezone": null, "wheelchair_boarding": 0, "stop_code": "864", "direction_id": 0, "stop_lon": -97.73715, "parent_station": null, "route_id": "100", "stop_url": null, "stop_sequence": 10, "stop_id": "864", "stop_desc": "001117 TRINITY & 12TH", "stop_name": "TRINITY/12TH", "location_type": null, "platform_code": null, "zone_id": null}, {"stop_lat": 30.27579, "stop_timezone": null, "wheelchair_boarding": 0, "stop_code": "865", "direction_id": 0, "stop_lon": -97.73603, "parent_station": null, "route_id": "100", "stop_url": null, "stop_sequence": 11, "stop_id": "865", "stop_desc": "001400 TRINITY & 15TH", "stop_name": "TRINITY/15TH", "location_type": null, "platform_code": null, "zone_id": null}, {"stop_lat": 30.278435, "stop_timezone": null, "wheelchair_boarding": 0, "stop_code": "866", "direction_id": 0, "stop_lon": -97.734985, "parent_station": null, "route_id": "100", "stop_url": null, "stop_sequence": 12, "stop_id": "866", "stop_desc": "001700 TRINITY & 18TH", "stop_name": "TRINITY/18TH", "location_type": null, "platform_code": null, "zone_id": null}, {"stop_lat": 30.2831, "stop_timezone": null, "wheelchair_boarding": 0, "stop_code": "1253", "direction_id": 0, "stop_lon": -97.73391, "parent_station": null, "route_id": "100", "stop_url": null, "stop_sequence": 13, "stop_id": "1253", "stop_desc": "002031 SAN JACINTO & 21ST", "stop_name": "2031 SAN JACINTO/21ST", "location_type": null, "platform_code": null, "zone_id": null}, {"stop_lat": 30.284983, "stop_timezone": null, "wheelchair_boarding": 0, "stop_code": "5177", "direction_id": 0, "stop_lon": -97.731603, "parent_station": null, "route_id": "100", "stop_url": null, "stop_sequence": 14, "stop_id": "5177", "stop_desc": "000701 23RD & ROBERT DEDMAN", "stop_name": "701 23RD/ROBERT DEDMAN", "location_type": null, "platform_code": null, "zone_id": null}]
