[{"stop_timezone": "", "parent_station": "", "direction_id": "0", "stop_url": "https://www.capmetro.org/stopdetail/index.php?stop=4326", "stop_sequence": "1", "stop_id": "4326", "stop_desc": "003000 PRESIDENTIAL & ABIA LOWER LEVEL", "location_type": "", "zone_id": "", "stop_lat": "30.202744", "wheelchair_boarding": "0", "stop_code": "4326", "stop_lon": "-97.665653", "route_id": "100", "stop_name": "ABIA Lower Level"}, {"stop_timezone": "", "parent_station": "", "direction_id": "0", "stop_url": "https://www.capmetro.org/stopdetail/index.php?stop=864", "stop_sequence": "10", "stop_id": "864", "stop_desc": "001117 TRINITY & 12TH", "location_type": "", "zone_id": "", "stop_lat": "30.272709", "wheelchair_boarding": "0", "stop_code": "864", "stop_lon": "-97.737150", "route_id": "100", "stop_name": "Trinity/12th"}, {"stop_timezone": "", "parent_station": "", "direction_id": "0", "stop_url": "https://www.capmetro.org/stopdetail/index.php?stop=866", "stop_sequence": "11", "stop_id": "866", "stop_desc": "001700 TRINITY & 18TH", "location_type": "", "zone_id": "", "stop_lat": "30.278435", "wheelchair_boarding": "0", "stop_code": "866", "stop_lon": "-97.734985", "route_id": "100", "stop_name": "Trinity/18th"}, {"stop_timezone": "", "parent_station": "", "direction_id": "0", "stop_url": "https://www.capmetro.org/stopdetail/index.php?stop=1253", "stop_sequence": "12", "stop_id": "1253", "stop_desc": "002031 SAN JACINTO & 21ST", "location_type": "", "zone_id": "", "stop_lat": "30.283104", "wheelchair_boarding": "0", "stop_code": "1253", "stop_lon": "-97.733910", "route_id": "100", "stop_name": "2031 San Jacinto/21st"}, {"stop_timezone": "", "parent_station": "", "direction_id": "0", "stop_url": "https://www.capmetro.org/stopdetail/index.php?stop=5177", "stop_sequence": "13", "stop_id": "5177", "stop_desc": "000701 23RD & ROBERT DEDMAN", "location_type": "", "zone_id": "", "stop_lat": "30.284984", "wheelchair_boarding": "0", "stop_code": "5177", "stop_lon": "-97.731602", "route_id": "100", "stop_name": "701 23rd/Robert Dedman"}, {"stop_timezone": "", "parent_station": "", "direction_id": "0", "stop_url": "https://www.capmetro.org/stopdetail/index.php?stop=5099", "stop_sequence": "2", "stop_id": "5099", "stop_desc": "009514 NEW AIRPORT & EMPLOYEE", "location_type": "", "zone_id": "", "stop_lat": "30.212636", "wheelchair_boarding": "0", "stop_code": "5099", "stop_lon": "-97.663840", "route_id": "100", "stop_name": "New Airport/Employee"}, {"stop_timezone": "", "parent_station": "", "direction_id": "0", "stop_url": "https://www.capmetro.org/stopdetail/index.php?stop=950", "stop_sequence": "3", "stop_id": "950", "stop_desc": "006306 RIVERSIDE & MONTOPOLIS", "location_type": "", "zone_id": "", "stop_lat": "30.224996", "wheelchair_boarding": "0", "stop_code": "950", "stop_lon": "-97.703124", "route_id": "100", "stop_name": "6306 Riverside/Montopolis"}, {"stop_timezone": "", "parent_station": "", "direction_id": "0", "stop_url": "https://www.capmetro.org/stopdetail/index.php?stop=1021", "stop_sequence": "4", "stop_id": "1021", "stop_desc": "004823 RIVERSIDE & CROSSING PLACE", "location_type": "", "zone_id": "", "stop_lat": "30.231928", "wheelchair_boarding": "0", "stop_code": "1021", "stop_lon": "-97.717861", "route_id": "100", "stop_name": "4823 Riverside/Crossing Place"}, {"stop_timezone": "", "parent_station": "", "direction_id": "0", "stop_url": "https://www.capmetro.org/stopdetail/index.php?stop=1032", "stop_sequence": "5", "stop_id": "1032", "stop_desc": "002000 RIVERSIDE & TOWN CREEK", "location_type": "", "zone_id": "", "stop_lat": "30.241140", "wheelchair_boarding": "0", "stop_code": "1032", "stop_lon": "-97.727591", "route_id": "100", "stop_name": "Riverside/Town Creek"}, {"stop_timezone": "", "parent_station": "", "direction_id": "0", "stop_url": "https://www.capmetro.org/stopdetail/index.php?stop=2516", "stop_sequence": "6", "stop_id": "2516", "stop_desc": "000300 CONGRESS & RIVERSIDE", "location_type": "", "zone_id": "", "stop_lat": "30.257559", "wheelchair_boarding": "0", "stop_code": "2516", "stop_lon": "-97.746559", "route_id": "100", "stop_name": "Congress/Riverside"}, {"stop_timezone": "", "parent_station": "", "direction_id": "0", "stop_url": "https://www.capmetro.org/stopdetail/index.php?stop=578", "stop_sequence": "7", "stop_id": "578", "stop_desc": "000101 CONGRESS & 2ND", "location_type": "", "zone_id": "", "stop_lat": "30.264174", "wheelchair_boarding": "0", "stop_code": "578", "stop_lon": "-97.744098", "route_id": "100", "stop_name": "101 Congress/2nd"}, {"stop_timezone": "", "parent_station": "", "direction_id": "0", "stop_url": "https://www.capmetro.org/stopdetail/index.php?stop=580", "stop_sequence": "8", "stop_id": "580", "stop_desc": "000323 CONGRESS & 4TH", "location_type": "", "zone_id": "", "stop_lat": "30.266052", "wheelchair_boarding": "0", "stop_code": "580", "stop_lon": "-97.743390", "route_id": "100", "stop_name": "Congress/4th"}, {"stop_timezone": "", "parent_station": "", "direction_id": "0", "stop_url": "https://www.capmetro.org/stopdetail/index.php?stop=5589", "stop_sequence": "9", "stop_id": "5589", "stop_desc": "000408 TRINITY & 4TH", "location_type": "", "zone_id": "", "stop_lat": "30.265499", "wheelchair_boarding": "0", "stop_code": "5589", "stop_lon": "-97.739860", "route_id": "100", "stop_name": "Trinity/4th"}]
