[{"stop_timezone": "", "parent_station": "", "direction_id": "0", "stop_url": "https://www.capmetro.org/stopdetail/index.php?stop=5301", "stop_sequence": "1", "stop_id": "5301", "stop_desc": "00900E CENTER RIDGE & CENTER LINE", "location_type": "", "zone_id": "", "stop_lat": "30.418565", "wheelchair_boarding": "0", "stop_code": "5301", "stop_lon": "-97.669112", "route_id": "243", "stop_name": "Tech Ridge Bay E"}, {"stop_timezone": "", "parent_station": "", "direction_id": "0", "stop_url": "https://www.capmetro.org/stopdetail/index.php?stop=5929", "stop_sequence": "10", "stop_id": "5929", "stop_desc": "000000 WELLS BRANCH & DOUBLE FILE", "location_type": "", "zone_id": "", "stop_lat": "30.441831", "wheelchair_boarding": "0", "stop_code": "5929", "stop_lon": "-97.690286", "route_id": "243", "stop_name": "Wells Branch/Double File"}, {"stop_timezone": "", "parent_station": "", "direction_id": "0", "stop_url": "https://www.capmetro.org/stopdetail/index.php?stop=5277", "stop_sequence": "11", "stop_id": "5277", "stop_desc": "003000 WELLS BRANCH & TANDEM", "location_type": "", "zone_id": "", "stop_lat": "30.441493", "wheelchair_boarding": "0", "stop_code": "5277", "stop_lon": "-97.692608", "route_id": "243", "stop_name": "3000 Wells Branch/Tandem"}, {"stop_timezone": "", "parent_station": "", "direction_id": "0", "stop_url": "https://www.capmetro.org/stopdetail/index.php?stop=5339", "stop_sequence": "12", "stop_id": "5339", "stop_desc": "003300 WELLS BRANCH & HOWARD", "location_type": "", "zone_id": "", "stop_lat": "30.440229", "wheelchair_boarding": "0", "stop_code": "5339", "stop_lon": "-97.695602", "route_id": "243", "stop_name": "3300 Wells Branch/Howard"}, {"stop_timezone": "", "parent_station": "", "direction_id": "0", "stop_url": "https://www.capmetro.org/stopdetail/index.php?stop=5607", "stop_sequence": "13", "stop_id": "5607", "stop_desc": "000000 HOWARD & MOPAC", "location_type": "", "zone_id": "", "stop_lat": "30.439972", "wheelchair_boarding": "0", "stop_code": "5607", "stop_lon": "-97.701240", "route_id": "243", "stop_name": "Howard Station Bus Stop"}, {"stop_timezone": "", "parent_station": "", "direction_id": "0", "stop_url": "https://www.capmetro.org/stopdetail/index.php?stop=5770", "stop_sequence": "2", "stop_id": "5770", "stop_desc": "002551 HEATHERWILDE & WILD SENNA", "location_type": "", "zone_id": "", "stop_lat": "30.422415", "wheelchair_boarding": "0", "stop_code": "5770", "stop_lon": "-97.658839", "route_id": "243", "stop_name": "2551 Heatherwilde/Wild Senna"}, {"stop_timezone": "", "parent_station": "", "direction_id": "0", "stop_url": "https://www.capmetro.org/stopdetail/index.php?stop=5769", "stop_sequence": "3", "stop_id": "5769", "stop_desc": "000501 WELLS BRANCH & HEATHERWILDE", "location_type": "", "zone_id": "", "stop_lat": "30.433412", "wheelchair_boarding": "0", "stop_code": "5769", "stop_lon": "-97.653076", "route_id": "243", "stop_name": "501 Wells Branch/Heatherwilde"}, {"stop_timezone": "", "parent_station": "", "direction_id": "0", "stop_url": "https://www.capmetro.org/stopdetail/index.php?stop=5766", "stop_sequence": "4", "stop_id": "5766", "stop_desc": "001114 WELLS BRANCH & DRUSILLAS", "location_type": "", "zone_id": "", "stop_lat": "30.438694", "wheelchair_boarding": "0", "stop_code": "5766", "stop_lon": "-97.659490", "route_id": "243", "stop_name": "1114 Wells Branch/Drusillas"}, {"stop_timezone": "", "parent_station": "", "direction_id": "0", "stop_url": "https://www.capmetro.org/stopdetail/index.php?stop=5764", "stop_sequence": "5", "stop_id": "5764", "stop_desc": "001426 WELLS BRANCH & FM 1825", "location_type": "", "zone_id": "", "stop_lat": "30.441366", "wheelchair_boarding": "0", "stop_code": "5764", "stop_lon": "-97.665433", "route_id": "243", "stop_name": "1426 Wells Branch/FM 1825"}, {"stop_timezone": "", "parent_station": "", "direction_id": "0", "stop_url": "https://www.capmetro.org/stopdetail/index.php?stop=5976", "stop_sequence": "6", "stop_id": "5976", "stop_desc": "001800 WELLS BRANCH & WELLS PORT", "location_type": "", "zone_id": "", "stop_lat": "30.435650", "wheelchair_boarding": "0", "stop_code": "5976", "stop_lon": "-97.675662", "route_id": "243", "stop_name": "1800 Wells Branch/Wells Port"}, {"stop_timezone": "", "parent_station": "", "direction_id": "0", "stop_url": "https://www.capmetro.org/stopdetail/index.php?stop=4818", "stop_sequence": "7", "stop_id": "4818", "stop_desc": "001900 WELLS BRANCH & ALEX", "location_type": "", "zone_id": "", "stop_lat": "30.434837", "wheelchair_boarding": "0", "stop_code": "4818", "stop_lon": "-97.679157", "route_id": "243", "stop_name": "1900 Wells Branch/Alex"}, {"stop_timezone": "", "parent_station": "", "direction_id": "0", "stop_url": "https://www.capmetro.org/stopdetail/index.php?stop=4816", "stop_sequence": "8", "stop_id": "4816", "stop_desc": "002112 WELLS BRANCH & SURRENDER", "location_type": "", "zone_id": "", "stop_lat": "30.436623", "wheelchair_boarding": "0", "stop_code": "4816", "stop_lon": "-97.683609", "route_id": "243", "stop_name": "2112 Wells Branch/Surrender"}, {"stop_timezone": "", "parent_station": "", "direction_id": "0", "stop_url": "https://www.capmetro.org/stopdetail/index.php?stop=4814", "stop_sequence": "9", "stop_id": "4814", "stop_desc": "002300 WELLS BRANCH & MERRILLTOWN", "location_type": "", "zone_id": "", "stop_lat": "30.439293", "wheelchair_boarding": "0", "stop_code": "4814", "stop_lon": "-97.685570", "route_id": "243", "stop_name": "2300 Wells Branch/Merrilltown"}]
