[{"stop_lat": 30.288949, "stop_timezone": null, "wheelchair_boarding": 0, "stop_code": "4985", "direction_id": 1, "stop_lon": -97.783344, "parent_station": null, "route_id": "663", "stop_url": null, "stop_sequence": 1, "stop_id": "4985", "stop_desc": "003350 KERMIT & LUFKIN", "stop_name": "KERMIT/LUFKIN", "location_type": null, "platform_code": null, "zone_id": null}, {"stop_lat": 30.287388, "stop_timezone": null, "wheelchair_boarding": 0, "stop_code": "3520", "direction_id": 1, "stop_lon": -97.782369, "parent_station": null, "route_id": "663", "stop_url": null, "stop_sequence": 2, "stop_id": "3520", "stop_desc": "003300 KERMIT & JASPER", "stop_name": "KERMIT/JASPER", "location_type": null, "platform_code": null, "zone_id": null}, {"stop_lat": 30.287732, "stop_timezone": null, "wheelchair_boarding": 0, "stop_code": "4838", "direction_id": 1, "stop_lon": -97.780403, "parent_station": null, "route_id": "663", "stop_url": null, "stop_sequence": 3, "stop_id": "4838", "stop_desc": "003200 JASPER & LAKE AUSTIN", "stop_name": "JASPER/LAKE AUSTIN", "location_type": null, "platform_code": null, "zone_id": null}, {"stop_lat": 30.284539, "stop_timezone": null, "wheelchair_boarding": 0, "stop_code": "4986", "direction_id": 1, "stop_lon": -97.777864, "parent_station": null, "route_id": "663", "stop_url": null, "stop_sequence": 4, "stop_id": "4986", "stop_desc": "002900 LAKE AUSTIN & JASPER", "stop_name": "LAKE AUSTIN/JASPER", "location_type": null, "platform_code": null, "zone_id": null}, {"stop_lat": 30.282567, "stop_timezone": null, "wheelchair_boarding": 0, "stop_code": "5626", "direction_id": 1, "stop_lon": -97.776462, "parent_station": null, "route_id": "663", "stop_url": null, "stop_sequence": 5, "stop_id": "5626", "stop_desc": "002629 LAKE AUSTIN & EXPOSITION", "stop_name": "2629 LAKE AUSTIN/EXPOSITION", "location_type": null, "platform_code": null, "zone_id": null}, {"stop_lat": 30.279378, "stop_timezone": null, "wheelchair_boarding": 0, "stop_code": "4162", "direction_id": 1, "stop_lon": -97.774279, "parent_station": null, "route_id": "663", "stop_url": null, "stop_sequence": 6, "stop_id": "4162", "stop_desc": "002531 LAKE AUSTIN & DUMAS", "stop_name": "2531 LAKE AUSTIN/DUMAS", "location_type": null, "platform_code": null, "zone_id": null}, {"stop_lat": 30.273605, "stop_timezone": null, "wheelchair_boarding": 0, "stop_code": "4086", "direction_id": 1, "stop_lon": -97.763241, "parent_station": null, "route_id": "663", "stop_url": null, "stop_sequence": 7, "stop_id": "4086", "stop_desc": "001500 5TH & WEST LYNN", "stop_name": "5TH/WEST LYNN", "location_type": null, "platform_code": null, "zone_id": null}, {"stop_lat": 30.27268, "stop_timezone": null, "wheelchair_boarding": 0, "stop_code": "2104", "direction_id": 1, "stop_lon": -97.76093, "parent_station": null, "route_id": "663", "stop_url": null, "stop_sequence": 8, "stop_id": "2104", "stop_desc": "001400 5TH & PRESSLER", "stop_name": "5TH/PRESSLER", "location_type": null, "platform_code": null, "zone_id": null}, {"stop_lat": 30.270977, "stop_timezone": null, "wheelchair_boarding": 0, "stop_code": "2106", "direction_id": 1, "stop_lon": -97.756406, "parent_station": null, "route_id": "663", "stop_url": null, "stop_sequence": 9, "stop_id": "2106", "stop_desc": "001025 5TH & BAYLOR", "stop_name": "5TH/BAYLOR", "location_type": null, "platform_code": null, "zone_id": null}, {"stop_lat": 30.268672, "stop_timezone": null, "wheelchair_boarding": 0, "stop_code": "2110", "direction_id": 1, "stop_lon": -97.748979, "parent_station": null, "route_id": "663", "stop_url": null, "stop_sequence": 10, "stop_id": "2110", "stop_desc": "000600 5TH & NUECES", "stop_name": "5TH/NUECES", "location_type": null, "platform_code": null, "zone_id": null}, {"stop_lat": 30.277383, "stop_timezone": null, "wheelchair_boarding": 0, "stop_code": "593", "direction_id": 1, "stop_lon": -97.741894, "parent_station": null, "route_id": "663", "stop_url": null, "stop_sequence": 11, "stop_id": "593", "stop_desc": "001415 LAVACA & 15TH", "stop_name": "LAVACA/15TH", "location_type": null, "platform_code": null, "zone_id": null}, {"stop_lat": 30.278435, "stop_timezone": null, "wheelchair_boarding": 0, "stop_code": "866", "direction_id": 1, "stop_lon": -97.734985, "parent_station": null, "route_id": "663", "stop_url": null, "stop_sequence": 12, "stop_id": "866", "stop_desc": "001700 TRINITY & 18TH", "stop_name": "TRINITY/18TH", "location_type": null, "platform_code": null, "zone_id": null}, {"stop_lat": 30.28164, "stop_timezone": null, "wheelchair_boarding": 0, "stop_code": "4135", "direction_id": 1, "stop_lon": -97.73319, "parent_station": null, "route_id": "663", "stop_url": null, "stop_sequence": 13, "stop_id": "4135", "stop_desc": "002001 SAN JACINTO & 20TH", "stop_name": "2001 SAN JACINTO/20TH", "location_type": null, "platform_code": null, "zone_id": null}, {"stop_lat": 30.28331, "stop_timezone": null, "wheelchair_boarding": 0, "stop_code": "4136", "direction_id": 1, "stop_lon": -97.73455, "parent_station": null, "route_id": "663", "stop_url": null, "stop_sequence": 14, "stop_id": "4136", "stop_desc": "000300 21ST & SAN JACINTO", "stop_name": "300 21ST/SAN JACINTO", "location_type": null, "platform_code": null, "zone_id": null}, {"stop_lat": 30.283493, "stop_timezone": null, "wheelchair_boarding": 0, "stop_code": "5207", "direction_id": 1, "stop_lon": -97.737156, "parent_station": null, "route_id": "663", "stop_url": null, "stop_sequence": 15, "stop_id": "5207", "stop_desc": "000200 21ST & SPEEDWAY", "stop_name": "21ST/SPEEDWAY", "location_type": null, "platform_code": null, "zone_id": null}, {"stop_lat": 30.283826, "stop_timezone": null, "wheelchair_boarding": 0, "stop_code": "5178", "direction_id": 1, "stop_lon": -97.740899, "parent_station": null, "route_id": "663", "stop_url": null, "stop_sequence": 16, "stop_id": "5178", "stop_desc": "000300 21ST & WHITIS", "stop_name": "21ST/WHITIS", "location_type": null, "platform_code": null, "zone_id": null}]
