[{"stop_lat": 30.236214, "stop_timezone": null, "wheelchair_boarding": 0, "stop_code": "831", "direction_id": 1, "stop_lon": -97.704856, "parent_station": null, "route_id": "271", "stop_url": "http://www.capmetro.org/gismaps/stops/831.html", "stop_sequence": 1, "stop_id": "831", "stop_desc": "Northwest corner of ACC and GROVE - Mid-Block", "stop_name": "ACC RIVERSIDE CAMPUS STOP", "location_type": null, "platform_code": null, "zone_id": null}, {"stop_lat": 30.212705, "stop_timezone": null, "wheelchair_boarding": 0, "stop_code": "5045", "direction_id": 1, "stop_lon": -97.65909, "parent_station": null, "route_id": "271", "stop_url": "http://www.capmetro.org/gismaps/stops/5045.html", "stop_sequence": 2, "stop_id": "5045", "stop_desc": "Southwest corner of SH 71 and PRESIDENTIAL - Nearside", "stop_name": "2474 SH 71/PRESIDENTIAL", "location_type": null, "platform_code": null, "zone_id": null}, {"stop_lat": 30.204687, "stop_timezone": null, "wheelchair_boarding": 0, "stop_code": "5797", "direction_id": 1, "stop_lon": -97.642909, "parent_station": null, "route_id": "271", "stop_url": "http://www.capmetro.org/gismaps/stops/5797.html", "stop_sequence": 3, "stop_id": "5797", "stop_desc": "Southwest corner of SH 71 and CHEVIOT - Mid-Block", "stop_name": "SH 71/CHEVIOT (EB)", "location_type": null, "platform_code": null, "zone_id": null}, {"stop_lat": 30.177571, "stop_timezone": null, "wheelchair_boarding": 0, "stop_code": "5927", "direction_id": 1, "stop_lon": -97.614481, "parent_station": null, "route_id": "271", "stop_url": "http://www.capmetro.org/gismaps/stops/5927.html", "stop_sequence": 4, "stop_id": "5927", "stop_desc": "Southwest corner of DEL VALLE ISD and ROSS - Mid-Block", "stop_name": "DEL VALLE HIGH (TENNIS COURTS)", "location_type": null, "platform_code": null, "zone_id": null}, {"stop_lat": 30.174866, "stop_timezone": null, "wheelchair_boarding": 0, "stop_code": "5622", "direction_id": 1, "stop_lon": -97.610837, "parent_station": null, "route_id": "271", "stop_url": "http://www.capmetro.org/gismaps/stops/5622.html", "stop_sequence": 5, "stop_id": "5622", "stop_desc": "Northeast corner of DEL VALLE ISD and ROSS - Mid-Block", "stop_name": "DEL VALLE ISD", "location_type": null, "platform_code": null, "zone_id": null}]
