[{"stop_timezone": "", "parent_station": "", "direction_id": "1", "stop_url": "https://www.capmetro.org/stopdetail/index.php?stop=5304", "stop_sequence": "1", "stop_id": "5304", "stop_desc": "00900I CENTER RIDGE & CENTER LINE", "location_type": "", "zone_id": "", "stop_lat": "30.418199", "wheelchair_boarding": "0", "stop_code": "5304", "stop_lon": "-97.668243", "route_id": "801", "stop_name": "Tech Ridge Bay I"}, {"stop_timezone": "", "parent_station": "", "direction_id": "1", "stop_url": "https://www.capmetro.org/stopdetail/index.php?stop=5863", "stop_sequence": "10", "stop_id": "5863", "stop_desc": "002614 GUADALUPE & 26TH", "location_type": "", "zone_id": "", "stop_lat": "30.291145", "wheelchair_boarding": "0", "stop_code": "5863", "stop_lon": "-97.741349", "route_id": "801", "stop_name": "UT Dean Keeton Station (SB)"}, {"stop_timezone": "", "parent_station": "", "direction_id": "1", "stop_url": "https://www.capmetro.org/stopdetail/index.php?stop=497", "stop_sequence": "11", "stop_id": "497", "stop_desc": "002246 GUADALUPE & 23RD", "location_type": "", "zone_id": "", "stop_lat": "30.286064", "wheelchair_boarding": "0", "stop_code": "497", "stop_lon": "-97.741815", "route_id": "801", "stop_name": "UT West Mall Station (SB)"}, {"stop_timezone": "", "parent_station": "", "direction_id": "1", "stop_url": "https://www.capmetro.org/stopdetail/index.php?stop=5866", "stop_sequence": "12", "stop_id": "5866", "stop_desc": "001616 GUADALUPE & 17TH", "location_type": "", "zone_id": "", "stop_lat": "30.279366", "wheelchair_boarding": "0", "stop_code": "5866", "stop_lon": "-97.742545", "route_id": "801", "stop_name": "Museum Station (SB)"}, {"stop_timezone": "", "parent_station": "", "direction_id": "1", "stop_url": "https://www.capmetro.org/stopdetail/index.php?stop=2738", "stop_sequence": "13", "stop_id": "2738", "stop_desc": "001200 GUADALUPE & 12TH", "location_type": "", "zone_id": "", "stop_lat": "30.275022", "wheelchair_boarding": "0", "stop_code": "2738", "stop_lon": "-97.744169", "route_id": "801", "stop_name": "Capitol Station (SB)"}, {"stop_timezone": "", "parent_station": "", "direction_id": "1", "stop_url": "https://www.capmetro.org/stopdetail/index.php?stop=2611", "stop_sequence": "14", "stop_id": "2611", "stop_desc": "000800 GUADALUPE & 8TH", "location_type": "", "zone_id": "", "stop_lat": "30.271057", "wheelchair_boarding": "0", "stop_code": "2611", "stop_lon": "-97.745655", "route_id": "801", "stop_name": "Austin History Center Station (SB)"}, {"stop_timezone": "", "parent_station": "", "direction_id": "1", "stop_url": "https://www.capmetro.org/stopdetail/index.php?stop=5867", "stop_sequence": "15", "stop_id": "5867", "stop_desc": "000422 GUADALUPE & 4TH", "location_type": "", "zone_id": "", "stop_lat": "30.267751", "wheelchair_boarding": "0", "stop_code": "5867", "stop_lon": "-97.746857", "route_id": "801", "stop_name": "Republic Square Station (SB)"}, {"stop_timezone": "", "parent_station": "", "direction_id": "1", "stop_url": "https://www.capmetro.org/stopdetail/index.php?stop=2763", "stop_sequence": "16", "stop_id": "2763", "stop_desc": "000425 RIVERSIDE & BARTON SPRINGS", "location_type": "", "zone_id": "", "stop_lat": "30.258767", "wheelchair_boarding": "0", "stop_code": "2763", "stop_lon": "-97.748700", "route_id": "801", "stop_name": "Auditorium Shores Station (SB)"}, {"stop_timezone": "", "parent_station": "", "direction_id": "1", "stop_url": "https://www.capmetro.org/stopdetail/index.php?stop=4029", "stop_sequence": "17", "stop_id": "4029", "stop_desc": "001522 CONGRESS & MONROE", "location_type": "", "zone_id": "", "stop_lat": "30.248134", "wheelchair_boarding": "0", "stop_code": "4029", "stop_lon": "-97.750367", "route_id": "801", "stop_name": "Soco Station (SB)"}, {"stop_timezone": "", "parent_station": "", "direction_id": "1", "stop_url": "https://www.capmetro.org/stopdetail/index.php?stop=4046", "stop_sequence": "18", "stop_id": "4046", "stop_desc": "002412 CONGRESS & OLTORF", "location_type": "", "zone_id": "", "stop_lat": "30.238013", "wheelchair_boarding": "0", "stop_code": "4046", "stop_lon": "-97.754383", "route_id": "801", "stop_name": "Oltorf Station (SB)"}, {"stop_timezone": "", "parent_station": "", "direction_id": "1", "stop_url": "https://www.capmetro.org/stopdetail/index.php?stop=5870", "stop_sequence": "19", "stop_id": "5870", "stop_desc": "003500 CONGRESS & LIGHTSEY", "location_type": "", "zone_id": "", "stop_lat": "30.228933", "wheelchair_boarding": "0", "stop_code": "5870", "stop_lon": "-97.760817", "route_id": "801", "stop_name": "St Edwards Station (SB)"}, {"stop_timezone": "", "parent_station": "", "direction_id": "1", "stop_url": "https://www.capmetro.org/stopdetail/index.php?stop=5857", "stop_sequence": "2", "stop_id": "5857", "stop_desc": "011104 LAMAR & KRAMER", "location_type": "", "zone_id": "", "stop_lat": "30.380367", "wheelchair_boarding": "0", "stop_code": "5857", "stop_lon": "-97.687401", "route_id": "801", "stop_name": "Chinatown Station (SB)"}, {"stop_timezone": "", "parent_station": "", "direction_id": "1", "stop_url": "https://www.capmetro.org/stopdetail/index.php?stop=5553", "stop_sequence": "20", "stop_id": "5553", "stop_desc": "000301 BEN WHITE & CONGRESS", "location_type": "", "zone_id": "", "stop_lat": "30.222718", "wheelchair_boarding": "0", "stop_code": "5553", "stop_lon": "-97.766459", "route_id": "801", "stop_name": "South Congress Station Bay K"}, {"stop_timezone": "", "parent_station": "", "direction_id": "1", "stop_url": "https://www.capmetro.org/stopdetail/index.php?stop=5871", "stop_sequence": "21", "stop_id": "5871", "stop_desc": "005708 CONGRESS & AINSWORTH", "location_type": "", "zone_id": "", "stop_lat": "30.203384", "wheelchair_boarding": "0", "stop_code": "5871", "stop_lon": "-97.775434", "route_id": "801", "stop_name": "Little Texas Station (SB)"}, {"stop_timezone": "", "parent_station": "", "direction_id": "1", "stop_url": "https://www.capmetro.org/stopdetail/index.php?stop=5872", "stop_sequence": "22", "stop_id": "5872", "stop_desc": "006732 CONGRESS & WILLIAM CANNON", "location_type": "", "zone_id": "", "stop_lat": "30.192400", "wheelchair_boarding": "0", "stop_code": "5872", "stop_lon": "-97.779234", "route_id": "801", "stop_name": "Pleasant Hill Station (SB)"}, {"stop_timezone": "", "parent_station": "", "direction_id": "1", "stop_url": "https://www.capmetro.org/stopdetail/index.php?stop=5873", "stop_sequence": "23", "stop_id": "5873", "stop_desc": "000212 TURK & CULLEN", "location_type": "", "zone_id": "", "stop_lat": "30.162883", "wheelchair_boarding": "0", "stop_code": "5873", "stop_lon": "-97.790317", "route_id": "801", "stop_name": "Southpark Meadows Station"}, {"stop_timezone": "", "parent_station": "", "direction_id": "1", "stop_url": "https://www.capmetro.org/stopdetail/index.php?stop=5858", "stop_sequence": "3", "stop_id": "5858", "stop_desc": "010104 LAMAR & MASTERSON", "location_type": "", "zone_id": "", "stop_lat": "30.370933", "wheelchair_boarding": "0", "stop_code": "5858", "stop_lon": "-97.692733", "route_id": "801", "stop_name": "Masterson Station (SB)"}, {"stop_timezone": "", "parent_station": "", "direction_id": "1", "stop_url": "https://www.capmetro.org/stopdetail/index.php?stop=4540", "stop_sequence": "4", "stop_id": "4540", "stop_desc": "009414 LAMAR & RUNDBERG", "location_type": "", "zone_id": "", "stop_lat": "30.363669", "wheelchair_boarding": "0", "stop_code": "4540", "stop_lon": "-97.696840", "route_id": "801", "stop_name": "Rundberg Station (SB)"}, {"stop_timezone": "", "parent_station": "", "direction_id": "1", "stop_url": "https://www.capmetro.org/stopdetail/index.php?stop=5859", "stop_sequence": "5", "stop_id": "5859", "stop_desc": "008020 LAMAR & RESEARCH", "location_type": "", "zone_id": "", "stop_lat": "30.349326", "wheelchair_boarding": "0", "stop_code": "5859", "stop_lon": "-97.711685", "route_id": "801", "stop_name": "North Lamar Station"}, {"stop_timezone": "", "parent_station": "", "direction_id": "1", "stop_url": "https://www.capmetro.org/stopdetail/index.php?stop=5606", "stop_sequence": "6", "stop_id": "5606", "stop_desc": "007000 LAMAR & AIRPORT", "location_type": "", "zone_id": "", "stop_lat": "30.337841", "wheelchair_boarding": "0", "stop_code": "5606", "stop_lon": "-97.719048", "route_id": "801", "stop_name": "Crestview Station (SB)"}, {"stop_timezone": "", "parent_station": "", "direction_id": "1", "stop_url": "https://www.capmetro.org/stopdetail/index.php?stop=5861", "stop_sequence": "7", "stop_id": "5861", "stop_desc": "005806 LAMAR & KOENIG", "location_type": "", "zone_id": "", "stop_lat": "30.326842", "wheelchair_boarding": "0", "stop_code": "5861", "stop_lon": "-97.725899", "route_id": "801", "stop_name": "Brentwood Station (SB)"}, {"stop_timezone": "", "parent_station": "", "direction_id": "1", "stop_url": "https://www.capmetro.org/stopdetail/index.php?stop=484", "stop_sequence": "8", "stop_id": "484", "stop_desc": "004600 GUADALUPE & LAMAR", "location_type": "", "zone_id": "", "stop_lat": "30.314630", "wheelchair_boarding": "0", "stop_code": "484", "stop_lon": "-97.732523", "route_id": "801", "stop_name": "Triangle Station (SB)"}, {"stop_timezone": "", "parent_station": "", "direction_id": "1", "stop_url": "https://www.capmetro.org/stopdetail/index.php?stop=5405", "stop_sequence": "9", "stop_id": "5405", "stop_desc": "003820 GUADALUPE & 38TH HALF", "location_type": "", "zone_id": "", "stop_lat": "30.303574", "wheelchair_boarding": "0", "stop_code": "5405", "stop_lon": "-97.737748", "route_id": "801", "stop_name": "Hyde Park Station (SB)"}]
