[{"stop_lat": 30.360488, "stop_timezone": null, "wheelchair_boarding": 0, "stop_code": "2908", "direction_id": 0, "stop_lon": -97.735877, "parent_station": null, "route_id": "491", "stop_url": null, "stop_sequence": 1, "stop_id": "2908", "stop_desc": "007925 ROCKWOOD & ASHDALE", "stop_name": "7925 ROCKWOOD/ASHDALE", "location_type": null, "platform_code": null, "zone_id": null}, {"stop_lat": 30.360677, "stop_timezone": null, "wheelchair_boarding": 0, "stop_code": "1902", "direction_id": 0, "stop_lon": -97.737737, "parent_station": null, "route_id": "491", "stop_url": null, "stop_sequence": 2, "stop_id": "1902", "stop_desc": "007920 ROCKWOOD & ASHDALE", "stop_name": "7920 ROCKWOOD/ASHDALE", "location_type": null, "platform_code": null, "zone_id": null}, {"stop_lat": 30.35361, "stop_timezone": null, "wheelchair_boarding": 0, "stop_code": "674", "direction_id": 0, "stop_lon": -97.73592, "parent_station": null, "route_id": "491", "stop_url": null, "stop_sequence": 3, "stop_id": "674", "stop_desc": "007656 NORTHCROSS & FOSTER", "stop_name": "NORTHCROSS TRANSFER CENTER", "location_type": null, "platform_code": null, "zone_id": null}, {"stop_lat": 30.3344, "stop_timezone": null, "wheelchair_boarding": 0, "stop_code": "5160", "direction_id": 0, "stop_lon": -97.740705, "parent_station": null, "route_id": "491", "stop_url": null, "stop_sequence": 4, "stop_id": "5160", "stop_desc": "005700 BURNET & ALLANDALE", "stop_name": "BURNET/ALLANDALE (HEB)", "location_type": null, "platform_code": null, "zone_id": null}, {"stop_lat": 30.327517, "stop_timezone": null, "wheelchair_boarding": 0, "stop_code": "5964", "direction_id": 0, "stop_lon": -97.739833, "parent_station": null, "route_id": "491", "stop_url": null, "stop_sequence": 5, "stop_id": "5964", "stop_desc": "005350 BURNET & LAWNMONT", "stop_name": "5350 BURNET/LAWNMONT", "location_type": null, "platform_code": null, "zone_id": null}, {"stop_lat": 30.325594, "stop_timezone": null, "wheelchair_boarding": 0, "stop_code": "5006", "direction_id": 0, "stop_lon": -97.742036, "parent_station": null, "route_id": "491", "stop_url": null, "stop_sequence": 6, "stop_id": "5006", "stop_desc": "002300 NORTH LOOP & BURNET", "stop_name": "NORTH LOOP/BURNET", "location_type": null, "platform_code": null, "zone_id": null}, {"stop_lat": 30.318162, "stop_timezone": null, "wheelchair_boarding": 0, "stop_code": "1935", "direction_id": 0, "stop_lon": -97.755038, "parent_station": null, "route_id": "491", "stop_url": null, "stop_sequence": 7, "stop_id": "1935", "stop_desc": "004318 BULL CREEK & 44TH", "stop_name": "4318 BULL CREEK/44TH", "location_type": null, "platform_code": null, "zone_id": null}, {"stop_lat": 30.316658, "stop_timezone": null, "wheelchair_boarding": 0, "stop_code": "1936", "direction_id": 0, "stop_lon": -97.754834, "parent_station": null, "route_id": "491", "stop_url": null, "stop_sequence": 8, "stop_id": "1936", "stop_desc": "004220 BULL CREEK & JACKSON", "stop_name": "4220 BULL CREEK/JACKSON", "location_type": null, "platform_code": null, "zone_id": null}, {"stop_lat": 30.311138, "stop_timezone": null, "wheelchair_boarding": 0, "stop_code": "1938", "direction_id": 0, "stop_lon": -97.752058, "parent_station": null, "route_id": "491", "stop_url": null, "stop_sequence": 9, "stop_id": "1938", "stop_desc": "003800 BULL CREEK & 38TH", "stop_name": "BULL CREEK/38TH", "location_type": null, "platform_code": null, "zone_id": null}, {"stop_lat": 30.30713, "stop_timezone": null, "wheelchair_boarding": 0, "stop_code": "1997", "direction_id": 0, "stop_lon": -97.74927, "parent_station": null, "route_id": "491", "stop_url": null, "stop_sequence": 10, "stop_id": "1997", "stop_desc": "001400 35TH & CRAWFORD", "stop_name": "35TH/CRAWFORD", "location_type": null, "platform_code": null, "zone_id": null}, {"stop_lat": 30.305323, "stop_timezone": null, "wheelchair_boarding": 0, "stop_code": "1999", "direction_id": 0, "stop_lon": -97.74376, "parent_station": null, "route_id": "491", "stop_url": null, "stop_sequence": 11, "stop_id": "1999", "stop_desc": "001000 38TH & MEDICAL", "stop_name": "38TH/MEDICAL PARKWAY", "location_type": null, "platform_code": null, "zone_id": null}]
