[{"stop_lat": 30.351595, "stop_timezone": null, "wheelchair_boarding": 0, "stop_code": "3513", "direction_id": 1, "stop_lon": -97.756663, "parent_station": null, "route_id": "681", "stop_url": "http://www.capmetro.org/gismaps/stops/3513.html", "stop_sequence": 1, "stop_id": "3513", "stop_desc": "Northeast corner of NORTH HILLS and VILLAGE CENTER - Nearside", "stop_name": "3600 NORTH HILLS/VILLAGE CENTER", "location_type": null, "platform_code": null, "zone_id": null}, {"stop_lat": 30.357422, "stop_timezone": null, "wheelchair_boarding": 0, "stop_code": "4983", "direction_id": 1, "stop_lon": -97.754595, "parent_station": null, "route_id": "681", "stop_url": "http://www.capmetro.org/gismaps/stops/4983.html", "stop_sequence": 2, "stop_id": "4983", "stop_desc": "Northeast corner of HART and FAR WEST - Farside", "stop_name": "HART/FAR WEST", "location_type": null, "platform_code": null, "zone_id": null}, {"stop_lat": 30.35775, "stop_timezone": null, "wheelchair_boarding": 0, "stop_code": "1919", "direction_id": 1, "stop_lon": -97.75079, "parent_station": null, "route_id": "681", "stop_url": "http://www.capmetro.org/gismaps/stops/1919.html", "stop_sequence": 3, "stop_id": "1919", "stop_desc": "Southwest corner of WOOD HOLLOW and GREYSTONE - Mid-Block", "stop_name": "7400 WOOD HOLLOW/GREYSTONE", "location_type": null, "platform_code": null, "zone_id": null}, {"stop_lat": 30.35517, "stop_timezone": null, "wheelchair_boarding": 0, "stop_code": "1920", "direction_id": 1, "stop_lon": -97.75214, "parent_station": null, "route_id": "681", "stop_url": "http://www.capmetro.org/gismaps/stops/1920.html", "stop_sequence": 4, "stop_id": "1920", "stop_desc": "Southwest corner of WOOD HOLLOW and GREYSTONE - Mid-Block", "stop_name": "7200 WOOD HOLLOW/GREYSTONE", "location_type": null, "platform_code": null, "zone_id": null}, {"stop_lat": 30.314631, "stop_timezone": null, "wheelchair_boarding": 0, "stop_code": "484", "direction_id": 1, "stop_lon": -97.732524, "parent_station": null, "route_id": "681", "stop_url": "http://www.capmetro.org/gismaps/stops/484.html", "stop_sequence": 5, "stop_id": "484", "stop_desc": "Southwest corner of GUADALUPE and LAMAR - Mid-Block", "stop_name": "TRIANGLE STATION (SB)", "location_type": null, "platform_code": null, "zone_id": null}, {"stop_lat": 30.309535, "stop_timezone": null, "wheelchair_boarding": 1, "stop_code": "979", "direction_id": 1, "stop_lon": -97.730392, "parent_station": null, "route_id": "681", "stop_url": "http://www.capmetro.org/gismaps/stops/979.html", "stop_sequence": 6, "stop_id": "979", "stop_desc": "Southwest corner of 45TH and AVENUE C - Nearside", "stop_name": "301 45TH/AVENUE C", "location_type": null, "platform_code": null, "zone_id": null}, {"stop_lat": 30.30835, "stop_timezone": null, "wheelchair_boarding": 0, "stop_code": "980", "direction_id": 1, "stop_lon": -97.728674, "parent_station": null, "route_id": "681", "stop_url": "http://www.capmetro.org/gismaps/stops/980.html", "stop_sequence": 7, "stop_id": "980", "stop_desc": "Southwest corner of SPEEDWAY and 45TH - Farside", "stop_name": "SPEEDWAY/45TH", "location_type": null, "platform_code": null, "zone_id": null}, {"stop_lat": 30.306697, "stop_timezone": null, "wheelchair_boarding": 0, "stop_code": "981", "direction_id": 1, "stop_lon": -97.729732, "parent_station": null, "route_id": "681", "stop_url": "http://www.capmetro.org/gismaps/stops/981.html", "stop_sequence": 8, "stop_id": "981", "stop_desc": "Northwest corner of SPEEDWAY and 43RD - Nearside", "stop_name": "4300 SPEEDWAY/43RD", "location_type": null, "platform_code": null, "zone_id": null}, {"stop_lat": 30.303498, "stop_timezone": null, "wheelchair_boarding": 0, "stop_code": "982", "direction_id": 1, "stop_lon": -97.731786, "parent_station": null, "route_id": "681", "stop_url": "http://www.capmetro.org/gismaps/stops/982.html", "stop_sequence": 9, "stop_id": "982", "stop_desc": "Northwest corner of SPEEDWAY and 40TH - Mid-Block", "stop_name": "4004 SPEEDWAY/40TH", "location_type": null, "platform_code": null, "zone_id": null}, {"stop_lat": 30.30138, "stop_timezone": null, "wheelchair_boarding": 1, "stop_code": "983", "direction_id": 1, "stop_lon": -97.733132, "parent_station": null, "route_id": "681", "stop_url": "http://www.capmetro.org/gismaps/stops/983.html", "stop_sequence": 10, "stop_id": "983", "stop_desc": "Northwest corner of SPEEDWAY and 38TH HALF - Nearside", "stop_name": "3812 SPEEDWAY/38TH HALF", "location_type": null, "platform_code": null, "zone_id": null}, {"stop_lat": 30.299792, "stop_timezone": null, "wheelchair_boarding": 0, "stop_code": "4114", "direction_id": 1, "stop_lon": -97.734149, "parent_station": null, "route_id": "681", "stop_url": "http://www.capmetro.org/gismaps/stops/4114.html", "stop_sequence": 11, "stop_id": "4114", "stop_desc": "Southwest corner of SPEEDWAY and 38TH - Mid-Block", "stop_name": "SPEEDWAY/38TH", "location_type": null, "platform_code": null, "zone_id": null}, {"stop_lat": 30.29713, "stop_timezone": null, "wheelchair_boarding": 0, "stop_code": "985", "direction_id": 1, "stop_lon": -97.735816, "parent_station": null, "route_id": "681", "stop_url": "http://www.capmetro.org/gismaps/stops/985.html", "stop_sequence": 12, "stop_id": "985", "stop_desc": "Southwest corner of SPEEDWAY and 33RD - Mid-Block", "stop_name": "3204 SPEEDWAY/33RD", "location_type": null, "platform_code": null, "zone_id": null}, {"stop_lat": 30.294366, "stop_timezone": null, "wheelchair_boarding": 0, "stop_code": "4116", "direction_id": 1, "stop_lon": -97.735868, "parent_station": null, "route_id": "681", "stop_url": "http://www.capmetro.org/gismaps/stops/4116.html", "stop_sequence": 13, "stop_id": "4116", "stop_desc": "Southwest corner of 31ST and GROOMS - Nearside", "stop_name": "31ST/GROOMS", "location_type": null, "platform_code": null, "zone_id": null}, {"stop_lat": 30.29121, "stop_timezone": null, "wheelchair_boarding": 0, "stop_code": "5543", "direction_id": 1, "stop_lon": -97.736689, "parent_station": null, "route_id": "681", "stop_url": "http://www.capmetro.org/gismaps/stops/5543.html", "stop_sequence": 14, "stop_id": "5543", "stop_desc": "Southwest corner of SPEEDWAY and 27TH - Farside", "stop_name": "2630 SPEEDWAY/27TH", "location_type": null, "platform_code": null, "zone_id": null}, {"stop_lat": 30.289236, "stop_timezone": null, "wheelchair_boarding": 0, "stop_code": "5038", "direction_id": 1, "stop_lon": -97.735366, "parent_station": null, "route_id": "681", "stop_url": "http://www.capmetro.org/gismaps/stops/5038.html", "stop_sequence": 15, "stop_id": "5038", "stop_desc": "Southwest corner of DEAN KEETON and SAN JACINTO - Mid-Block", "stop_name": "301 DEAN KEETON/SAN JACINTO", "location_type": null, "platform_code": null, "zone_id": null}]
