[{"stop_lat": 30.480719, "stop_timezone": null, "wheelchair_boarding": 0, "stop_code": "5230", "direction_id": 1, "stop_lon": -97.786775, "parent_station": null, "route_id": "122", "stop_url": "http://www.capmetro.org/gismaps/stops/5230.html", "stop_sequence": 1, "stop_id": "5230", "stop_desc": "Southwest corner of LYNDHURST and LAKELINE - Mid-Block", "stop_name": "LAKELINE STATION BAY G", "location_type": null, "platform_code": null, "zone_id": null}, {"stop_lat": 30.472378, "stop_timezone": null, "wheelchair_boarding": 0, "stop_code": "5428", "direction_id": 1, "stop_lon": -97.801255, "parent_station": null, "route_id": "122", "stop_url": "http://www.capmetro.org/gismaps/stops/5428.html", "stop_sequence": 2, "stop_id": "5428", "stop_desc": "Northwest corner of LAKELINE MALL and PECAN PARK - Farside", "stop_name": "11020 LAKELINE MALL/PECAN PARK", "location_type": null, "platform_code": null, "zone_id": null}, {"stop_lat": 30.4058, "stop_timezone": null, "wheelchair_boarding": 0, "stop_code": "5031", "direction_id": 1, "stop_lon": -97.850842, "parent_station": null, "route_id": "122", "stop_url": "http://www.capmetro.org/gismaps/stops/5031.html", "stop_sequence": 3, "stop_id": "5031", "stop_desc": "Southeast corner of FOUR POINTS and FM 620 - Farside", "stop_name": "11401 FOUR POINTS/FM 620", "location_type": null, "platform_code": null, "zone_id": null}, {"stop_lat": 30.393268, "stop_timezone": null, "wheelchair_boarding": 0, "stop_code": "3329", "direction_id": 1, "stop_lon": -97.837839, "parent_station": null, "route_id": "122", "stop_url": "http://www.capmetro.org/gismaps/stops/3329.html", "stop_sequence": 4, "stop_id": "3329", "stop_desc": "Northwest corner of MCNEIL and FM 2222 - Nearside", "stop_name": "3M COMPANY AT SKYWALK", "location_type": null, "platform_code": null, "zone_id": null}, {"stop_lat": 30.273605, "stop_timezone": null, "wheelchair_boarding": 1, "stop_code": "4086", "direction_id": 1, "stop_lon": -97.763241, "parent_station": null, "route_id": "122", "stop_url": "http://www.capmetro.org/gismaps/stops/4086.html", "stop_sequence": 5, "stop_id": "4086", "stop_desc": "Southeast corner of 5TH and WEST LYNN - Farside", "stop_name": "5TH/WEST LYNN", "location_type": null, "platform_code": null, "zone_id": null}, {"stop_lat": 30.270977, "stop_timezone": null, "wheelchair_boarding": 0, "stop_code": "2106", "direction_id": 1, "stop_lon": -97.756406, "parent_station": null, "route_id": "122", "stop_url": "http://www.capmetro.org/gismaps/stops/2106.html", "stop_sequence": 6, "stop_id": "2106", "stop_desc": "Southwest corner of 5TH and BAYLOR - Nearside", "stop_name": "5TH/BAYLOR", "location_type": null, "platform_code": null, "zone_id": null}, {"stop_lat": 30.267457, "stop_timezone": null, "wheelchair_boarding": 0, "stop_code": "2114", "direction_id": 1, "stop_lon": -97.74466, "parent_station": null, "route_id": "122", "stop_url": "http://www.capmetro.org/gismaps/stops/2114.html", "stop_sequence": 7, "stop_id": "2114", "stop_desc": "Southwest corner of 5TH and COLORADO - Nearside", "stop_name": "5TH/COLORADO", "location_type": null, "platform_code": null, "zone_id": null}, {"stop_lat": 30.266407, "stop_timezone": null, "wheelchair_boarding": 0, "stop_code": "2117", "direction_id": 1, "stop_lon": -97.740913, "parent_station": null, "route_id": "122", "stop_url": "http://www.capmetro.org/gismaps/stops/2117.html", "stop_sequence": 8, "stop_id": "2117", "stop_desc": "Southwest corner of 5TH and SAN JACINTO - Nearside", "stop_name": "5TH/SAN JACINTO", "location_type": null, "platform_code": null, "zone_id": null}, {"stop_lat": 30.266322, "stop_timezone": null, "wheelchair_boarding": 0, "stop_code": "5935", "direction_id": 1, "stop_lon": -97.737157, "parent_station": null, "route_id": "122", "stop_url": "http://www.capmetro.org/gismaps/stops/5935.html", "stop_sequence": 9, "stop_id": "5935", "stop_desc": "Southeast corner of RED RIVER and 6TH - Nearside", "stop_name": "511 RED RIVER/6TH", "location_type": null, "platform_code": null, "zone_id": null}]
