[{"stop_lat": 30.289563, "stop_timezone": null, "wheelchair_boarding": 0, "stop_code": "2079", "direction_id": 0, "stop_lon": -97.736629, "parent_station": null, "route_id": "642", "stop_url": "http://www.capmetro.org/gismaps/stops/2079.html", "stop_sequence": 2, "stop_id": "2079", "stop_desc": "Northeast corner of DEAN KEETON and SPEEDWAY - Nearside", "stop_name": "DEAN KEETON/SPEEDWAY NE CORNER", "location_type": null, "platform_code": null, "zone_id": null}, {"stop_lat": 30.289719, "stop_timezone": null, "wheelchair_boarding": 0, "stop_code": "5024", "direction_id": 0, "stop_lon": -97.738796, "parent_station": null, "route_id": "642", "stop_url": "http://www.capmetro.org/gismaps/stops/5024.html", "stop_sequence": 3, "stop_id": "5024", "stop_desc": "Northeast corner of DEAN KEETON and UNIVERSITY - Nearside", "stop_name": "116 DEAN KEETON/UNIVERSITY", "location_type": null, "platform_code": null, "zone_id": null}, {"stop_lat": 30.291657, "stop_timezone": null, "wheelchair_boarding": 0, "stop_code": "5373", "direction_id": 0, "stop_lon": -97.742835, "parent_station": null, "route_id": "642", "stop_url": "http://www.capmetro.org/gismaps/stops/5373.html", "stop_sequence": 5, "stop_id": "5373", "stop_desc": "Southwest corner of NUECES and 27TH - Farside", "stop_name": "NUECES/27TH", "location_type": null, "platform_code": null, "zone_id": null}, {"stop_lat": 30.290696, "stop_timezone": null, "wheelchair_boarding": 0, "stop_code": "4122", "direction_id": 0, "stop_lon": -97.744249, "parent_station": null, "route_id": "642", "stop_url": "http://www.capmetro.org/gismaps/stops/4122.html", "stop_sequence": 6, "stop_id": "4122", "stop_desc": "Northeast corner of 26TH and RIO GRANDE - Nearside", "stop_name": "26TH/RIO GRANDE", "location_type": null, "platform_code": null, "zone_id": null}, {"stop_lat": 30.29005, "stop_timezone": null, "wheelchair_boarding": 0, "stop_code": "4121", "direction_id": 0, "stop_lon": -97.747693, "parent_station": null, "route_id": "642", "stop_url": "http://www.capmetro.org/gismaps/stops/4121.html", "stop_sequence": 7, "stop_id": "4121", "stop_desc": "Northwest corner of SAN GABRIEL and 25 1/2 - Nearside", "stop_name": "SAN GABRIEL/25 1/2", "location_type": null, "platform_code": null, "zone_id": null}, {"stop_lat": 30.286465, "stop_timezone": null, "wheelchair_boarding": 0, "stop_code": "4979", "direction_id": 0, "stop_lon": -97.748053, "parent_station": null, "route_id": "642", "stop_url": "http://www.capmetro.org/gismaps/stops/4979.html", "stop_sequence": 8, "stop_id": "4979", "stop_desc": "Southwest corner of SAN GABRIEL and 23RD - Farside", "stop_name": "SAN GABRIEL/23RD", "location_type": null, "platform_code": null, "zone_id": null}, {"stop_lat": 30.285285, "stop_timezone": null, "wheelchair_boarding": 0, "stop_code": "4120", "direction_id": 0, "stop_lon": -97.746666, "parent_station": null, "route_id": "642", "stop_url": "http://www.capmetro.org/gismaps/stops/4120.html", "stop_sequence": 9, "stop_id": "4120", "stop_desc": "Southwest corner of 22ND and PEARL - Nearside", "stop_name": "22ND/PEARL", "location_type": null, "platform_code": null, "zone_id": null}, {"stop_lat": 30.285128, "stop_timezone": null, "wheelchair_boarding": 0, "stop_code": "4099", "direction_id": 0, "stop_lon": -97.744534, "parent_station": null, "route_id": "642", "stop_url": "http://www.capmetro.org/gismaps/stops/4099.html", "stop_sequence": 10, "stop_id": "4099", "stop_desc": "Southeast corner of 22ND and RIO GRANDE - Mid-Block", "stop_name": "22ND/RIO GRANDE", "location_type": null, "platform_code": null, "zone_id": null}, {"stop_lat": 30.283679, "stop_timezone": null, "wheelchair_boarding": 0, "stop_code": "4095", "direction_id": 0, "stop_lon": -97.74128, "parent_station": null, "route_id": "642", "stop_url": "http://www.capmetro.org/gismaps/stops/4095.html", "stop_sequence": 11, "stop_id": "4095", "stop_desc": "Southwest corner of 21ST and WHITIS - Mid-Block", "stop_name": "21ST/WHITIS (DOBIE MALL)", "location_type": null, "platform_code": null, "zone_id": null}, {"stop_lat": 30.2834, "stop_timezone": null, "wheelchair_boarding": 0, "stop_code": "3494", "direction_id": 0, "stop_lon": -97.7377, "parent_station": null, "route_id": "642", "stop_url": "http://www.capmetro.org/gismaps/stops/3494.html", "stop_sequence": 12, "stop_id": "3494", "stop_desc": "Southwest corner of 21ST and SPEEDWAY - Nearside", "stop_name": "SPEEDWAY / 21ST", "location_type": null, "platform_code": null, "zone_id": null}, {"stop_lat": 30.283127, "stop_timezone": null, "wheelchair_boarding": 0, "stop_code": "4137", "direction_id": 0, "stop_lon": -97.734394, "parent_station": null, "route_id": "642", "stop_url": "http://www.capmetro.org/gismaps/stops/4137.html", "stop_sequence": 13, "stop_id": "4137", "stop_desc": "Southwest corner of 21ST and SAN JACINTO - Nearside", "stop_name": "309 21ST/SAN JACINTO", "location_type": null, "platform_code": null, "zone_id": null}]
