[{"stop_lat": 30.222917, "stop_timezone": null, "wheelchair_boarding": 0, "stop_code": "5544", "direction_id": 1, "stop_lon": -97.766932, "parent_station": null, "route_id": "300", "stop_url": "http://www.capmetro.org/gismaps/stops/5544.html", "stop_sequence": 1, "stop_id": "5544", "stop_desc": "Northwest corner of BEN WHITE and CONGRESS - Mid-Block", "stop_name": "SOUTH CONGRESS BAY B", "location_type": null, "platform_code": null, "zone_id": null}, {"stop_lat": 30.219246, "stop_timezone": null, "wheelchair_boarding": 0, "stop_code": "5711", "direction_id": 1, "stop_lon": -97.757736, "parent_station": null, "route_id": "300", "stop_url": "http://www.capmetro.org/gismaps/stops/5711.html", "stop_sequence": 2, "stop_id": "5711", "stop_desc": "Southwest corner of BEN WHITE and TERRY O - Nearside", "stop_name": "525 BEN WHITE/TERRY O", "location_type": null, "platform_code": null, "zone_id": null}, {"stop_lat": 30.215568, "stop_timezone": null, "wheelchair_boarding": 0, "stop_code": "5259", "direction_id": 1, "stop_lon": -97.748582, "parent_station": null, "route_id": "300", "stop_url": "http://www.capmetro.org/gismaps/stops/5259.html", "stop_sequence": 3, "stop_id": "5259", "stop_desc": "Southeast corner of BEN WHITE and GOVERNORS ROW - Mid-Block", "stop_name": "BEN WHITE/GOVERNORS ROW", "location_type": null, "platform_code": null, "zone_id": null}, {"stop_lat": 30.217996, "stop_timezone": null, "wheelchair_boarding": 0, "stop_code": "5663", "direction_id": 1, "stop_lon": -97.743796, "parent_station": null, "route_id": "300", "stop_url": "http://www.capmetro.org/gismaps/stops/5663.html", "stop_sequence": 4, "stop_id": "5663", "stop_desc": "Northeast corner of WOODWARD and BEN WHITE - Farside", "stop_name": "2000 WOODWARD/BEN WHITE", "location_type": null, "platform_code": null, "zone_id": null}, {"stop_lat": 30.219456, "stop_timezone": null, "wheelchair_boarding": 0, "stop_code": "1235", "direction_id": 1, "stop_lon": -97.743789, "parent_station": null, "route_id": "300", "stop_url": "http://www.capmetro.org/gismaps/stops/1235.html", "stop_sequence": 5, "stop_id": "1235", "stop_desc": "Northeast corner of WOODWARD and PARKER - Nearside", "stop_name": "1901 WOODWARD/PARKER", "location_type": null, "platform_code": null, "zone_id": null}, {"stop_lat": 30.220006, "stop_timezone": null, "wheelchair_boarding": 1, "stop_code": "5456", "direction_id": 1, "stop_lon": -97.742966, "parent_station": null, "route_id": "300", "stop_url": "http://www.capmetro.org/gismaps/stops/5456.html", "stop_sequence": 6, "stop_id": "5456", "stop_desc": "Northeast corner of PARKER and WOODWARD - Mid-Block", "stop_name": "MABEL DAVIS PARK", "location_type": null, "platform_code": null, "zone_id": null}, {"stop_lat": 30.222918, "stop_timezone": null, "wheelchair_boarding": 1, "stop_code": "4324", "direction_id": 1, "stop_lon": -97.7421, "parent_station": null, "route_id": "300", "stop_url": "http://www.capmetro.org/gismaps/stops/4324.html", "stop_sequence": 7, "stop_id": "4324", "stop_desc": "Northeast corner of PARKER and TIMBER RIDGE - Mid-Block", "stop_name": "3301 PARKER/TIMBER RIDGE", "location_type": null, "platform_code": null, "zone_id": null}, {"stop_lat": 30.224517, "stop_timezone": null, "wheelchair_boarding": 0, "stop_code": "1237", "direction_id": 1, "stop_lon": -97.742158, "parent_station": null, "route_id": "300", "stop_url": "http://www.capmetro.org/gismaps/stops/1237.html", "stop_sequence": 8, "stop_id": "1237", "stop_desc": "Southeast corner of PARKER and WICKSHIRE - Nearside", "stop_name": "3101 PARKER/WICKSHIRE", "location_type": null, "platform_code": null, "zone_id": null}, {"stop_lat": 30.227381, "stop_timezone": null, "wheelchair_boarding": 0, "stop_code": "1238", "direction_id": 1, "stop_lon": -97.740387, "parent_station": null, "route_id": "300", "stop_url": "http://www.capmetro.org/gismaps/stops/1238.html", "stop_sequence": 9, "stop_id": "1238", "stop_desc": "Northeast corner of PARKER and ROYAL HILL - Farside", "stop_name": "2801 PARKER/ROYAL HILL", "location_type": null, "platform_code": null, "zone_id": null}, {"stop_lat": 30.230144, "stop_timezone": null, "wheelchair_boarding": 1, "stop_code": "1239", "direction_id": 1, "stop_lon": -97.7382, "parent_station": null, "route_id": "300", "stop_url": "http://www.capmetro.org/gismaps/stops/1239.html", "stop_sequence": 10, "stop_id": "1239", "stop_desc": "Southeast corner of PARKER and BRAXTON - Nearside", "stop_name": "2501 PARKER/BRAXTON", "location_type": null, "platform_code": null, "zone_id": null}, {"stop_lat": 30.232116, "stop_timezone": null, "wheelchair_boarding": 0, "stop_code": "1240", "direction_id": 1, "stop_lon": -97.736934, "parent_station": null, "route_id": "300", "stop_url": "http://www.capmetro.org/gismaps/stops/1240.html", "stop_sequence": 11, "stop_id": "1240", "stop_desc": "Southeast corner of PARKER and OLTORF - Nearside", "stop_name": "2301 PARKER/OLTORF", "location_type": null, "platform_code": null, "zone_id": null}, {"stop_lat": 30.231078, "stop_timezone": null, "wheelchair_boarding": 0, "stop_code": "4290", "direction_id": 1, "stop_lon": -97.735306, "parent_station": null, "route_id": "300", "stop_url": "http://www.capmetro.org/gismaps/stops/4290.html", "stop_sequence": 12, "stop_id": "4290", "stop_desc": "Southeast corner of OLTORF and BURLESON - Mid-Block", "stop_name": "OLTORF/BURLESON", "location_type": null, "platform_code": null, "zone_id": null}, {"stop_lat": 30.230285, "stop_timezone": null, "wheelchair_boarding": 0, "stop_code": "4296", "direction_id": 1, "stop_lon": -97.732372, "parent_station": null, "route_id": "300", "stop_url": "http://www.capmetro.org/gismaps/stops/4296.html", "stop_sequence": 13, "stop_id": "4296", "stop_desc": "Southeast corner of OLTORF and BURTON - Mid-Block", "stop_name": "OLTORF/BURTON", "location_type": null, "platform_code": null, "zone_id": null}, {"stop_lat": 30.228028, "stop_timezone": null, "wheelchair_boarding": 1, "stop_code": "1027", "direction_id": 1, "stop_lon": -97.727241, "parent_station": null, "route_id": "300", "stop_url": "http://www.capmetro.org/gismaps/stops/1027.html", "stop_sequence": 14, "stop_id": "1027", "stop_desc": "Northeast corner of PLEASANT VALLEY and OLTORF - Mid-Block", "stop_name": "2433 PLEASANT VALLEY/OLTORF", "location_type": null, "platform_code": null, "zone_id": null}, {"stop_lat": 30.231097, "stop_timezone": null, "wheelchair_boarding": 0, "stop_code": "1028", "direction_id": 1, "stop_lon": -97.725299, "parent_station": null, "route_id": "300", "stop_url": "http://www.capmetro.org/gismaps/stops/1028.html", "stop_sequence": 15, "stop_id": "1028", "stop_desc": "Southeast corner of PLEASANT VALLEY and SHERINGHAM - Nearside", "stop_name": "2209 PLEASANT VALLEY/SHERINGHAM", "location_type": null, "platform_code": null, "zone_id": null}, {"stop_lat": 30.235778, "stop_timezone": null, "wheelchair_boarding": 0, "stop_code": "5779", "direction_id": 1, "stop_lon": -97.721346, "parent_station": null, "route_id": "300", "stop_url": "http://www.capmetro.org/gismaps/stops/5779.html", "stop_sequence": 16, "stop_id": "5779", "stop_desc": "Northeast corner of PLEASANT VALLEY and RIVERSIDE - Mid-Block", "stop_name": "1717 PLEASANT VALLEY/RIVERSIDE", "location_type": null, "platform_code": null, "zone_id": null}, {"stop_lat": 30.239813, "stop_timezone": null, "wheelchair_boarding": 0, "stop_code": "4284", "direction_id": 1, "stop_lon": -97.718786, "parent_station": null, "route_id": "300", "stop_url": "http://www.capmetro.org/gismaps/stops/4284.html", "stop_sequence": 17, "stop_id": "4284", "stop_desc": "Northeast corner of PLEASANT VALLEY and ELMONT - Mid-Block", "stop_name": "1225 PLEASANT VALLEY/ELMONT", "location_type": null, "platform_code": null, "zone_id": null}, {"stop_lat": 30.242291, "stop_timezone": null, "wheelchair_boarding": 0, "stop_code": "1364", "direction_id": 1, "stop_lon": -97.717206, "parent_station": null, "route_id": "300", "stop_url": "http://www.capmetro.org/gismaps/stops/1364.html", "stop_sequence": 18, "stop_id": "1364", "stop_desc": "Southeast corner of PLEASANT VALLEY and LAKESHORE - Nearside", "stop_name": "1100 PLEASANT VALLEY/LAKESHORE", "location_type": null, "platform_code": null, "zone_id": null}, {"stop_lat": 30.245846, "stop_timezone": null, "wheelchair_boarding": 0, "stop_code": "1365", "direction_id": 1, "stop_lon": -97.714948, "parent_station": null, "route_id": "300", "stop_url": "http://www.capmetro.org/gismaps/stops/1365.html", "stop_sequence": 19, "stop_id": "1365", "stop_desc": "Southeast corner of PLEASANT VALLEY and CANTERBURY - Nearside", "stop_name": "517 PLEASANT VALLEY (KRIEG FIELD)", "location_type": null, "platform_code": null, "zone_id": null}, {"stop_lat": 30.25371, "stop_timezone": null, "wheelchair_boarding": 1, "stop_code": "1366", "direction_id": 1, "stop_lon": -97.712369, "parent_station": null, "route_id": "300", "stop_url": "http://www.capmetro.org/gismaps/stops/1366.html", "stop_sequence": 20, "stop_id": "1366", "stop_desc": "Southeast corner of PLEASANT VALLEY and 2ND - Nearside", "stop_name": "PLEASANT VALLEY/2ND", "location_type": null, "platform_code": null, "zone_id": null}, {"stop_lat": 30.255151, "stop_timezone": null, "wheelchair_boarding": 1, "stop_code": "1367", "direction_id": 1, "stop_lon": -97.7117, "parent_station": null, "route_id": "300", "stop_url": "http://www.capmetro.org/gismaps/stops/1367.html", "stop_sequence": 21, "stop_id": "1367", "stop_desc": "Northeast corner of PLEASANT VALLEY and 3RD - Farside", "stop_name": "301 PLEASANT VALLEY/3RD", "location_type": null, "platform_code": null, "zone_id": null}, {"stop_lat": 30.257417, "stop_timezone": null, "wheelchair_boarding": 0, "stop_code": "1368", "direction_id": 1, "stop_lon": -97.710603, "parent_station": null, "route_id": "300", "stop_url": "http://www.capmetro.org/gismaps/stops/1368.html", "stop_sequence": 22, "stop_id": "1368", "stop_desc": "Northeast corner of PLEASANT VALLEY and 5TH - Mid-Block", "stop_name": "501 PLEASANT VALLEY/5TH (CAPMETRO)", "location_type": null, "platform_code": null, "zone_id": null}, {"stop_lat": 30.259868, "stop_timezone": null, "wheelchair_boarding": 0, "stop_code": "1369", "direction_id": 1, "stop_lon": -97.709478, "parent_station": null, "route_id": "300", "stop_url": "http://www.capmetro.org/gismaps/stops/1369.html", "stop_sequence": 23, "stop_id": "1369", "stop_desc": "Southeast corner of PLEASANT VALLEY and 7TH - Nearside", "stop_name": "651 PLEASANT VALLEY/7TH", "location_type": null, "platform_code": null, "zone_id": null}, {"stop_lat": 30.261742, "stop_timezone": null, "wheelchair_boarding": 0, "stop_code": "1811", "direction_id": 1, "stop_lon": -97.708819, "parent_station": null, "route_id": "300", "stop_url": "http://www.capmetro.org/gismaps/stops/1811.html", "stop_sequence": 24, "stop_id": "1811", "stop_desc": "Southeast corner of PLEASANT VALLEY and PRADO - Nearside", "stop_name": "795 PLEASANT VALLEY/PRADO", "location_type": null, "platform_code": null, "zone_id": null}, {"stop_lat": 30.263527, "stop_timezone": null, "wheelchair_boarding": 1, "stop_code": "1372", "direction_id": 1, "stop_lon": -97.708225, "parent_station": null, "route_id": "300", "stop_url": "http://www.capmetro.org/gismaps/stops/1372.html", "stop_sequence": 25, "stop_id": "1372", "stop_desc": "Southeast corner of PLEASANT VALLEY and LYONS - Mid-Block", "stop_name": "819 PLEASANT VALLEY/LYONS", "location_type": null, "platform_code": null, "zone_id": null}, {"stop_lat": 30.2653, "stop_timezone": null, "wheelchair_boarding": 1, "stop_code": "1373", "direction_id": 1, "stop_lon": -97.70876, "parent_station": null, "route_id": "300", "stop_url": "http://www.capmetro.org/gismaps/stops/1373.html", "stop_sequence": 26, "stop_id": "1373", "stop_desc": "Northeast corner of PLEASANT VALLEY and WEBBERVILLE - Nearside", "stop_name": "851 PLEASANT VALLEY/WEBBERVILLE", "location_type": null, "platform_code": null, "zone_id": null}, {"stop_lat": 30.267713, "stop_timezone": null, "wheelchair_boarding": 0, "stop_code": "5150", "direction_id": 1, "stop_lon": -97.707546, "parent_station": null, "route_id": "300", "stop_url": "http://www.capmetro.org/gismaps/stops/5150.html", "stop_sequence": 27, "stop_id": "5150", "stop_desc": "Southeast corner of WEBBERVILLE and GOVALLE - Nearside", "stop_name": "3113 WEBBERVILLE/GOVALLE", "location_type": null, "platform_code": null, "zone_id": null}, {"stop_lat": 30.269777, "stop_timezone": null, "wheelchair_boarding": 0, "stop_code": "5148", "direction_id": 1, "stop_lon": -97.706352, "parent_station": null, "route_id": "300", "stop_url": "http://www.capmetro.org/gismaps/stops/5148.html", "stop_sequence": 28, "stop_id": "5148", "stop_desc": "Southeast corner of WEBBERVILLE and BEDFORD - Nearside", "stop_name": "3459 WEBBERVILLE/BEDFORD", "location_type": null, "platform_code": null, "zone_id": null}, {"stop_lat": 30.270089, "stop_timezone": null, "wheelchair_boarding": 0, "stop_code": "5401", "direction_id": 1, "stop_lon": -97.702239, "parent_station": null, "route_id": "300", "stop_url": "http://www.capmetro.org/gismaps/stops/5401.html", "stop_sequence": 29, "stop_id": "5401", "stop_desc": "Southwest corner of GOODWIN and TILLERY - Mid-Block", "stop_name": "3001 GOODWIN/TILLERY", "location_type": null, "platform_code": null, "zone_id": null}, {"stop_lat": 30.265835, "stop_timezone": null, "wheelchair_boarding": 0, "stop_code": "5130", "direction_id": 1, "stop_lon": -97.701948, "parent_station": null, "route_id": "300", "stop_url": "http://www.capmetro.org/gismaps/stops/5130.html", "stop_sequence": 30, "stop_id": "5130", "stop_desc": "Southeast corner of GOVALLE and TILLERY - Farside", "stop_name": "3201 GOVALLE/TILLERY", "location_type": null, "platform_code": null, "zone_id": null}, {"stop_lat": 30.264616, "stop_timezone": null, "wheelchair_boarding": 0, "stop_code": "1377", "direction_id": 1, "stop_lon": -97.698463, "parent_station": null, "route_id": "300", "stop_url": "http://www.capmetro.org/gismaps/stops/1377.html", "stop_sequence": 31, "stop_id": "1377", "stop_desc": "Southeast corner of GOVALLE and GUNTER - Farside", "stop_name": "3601 GOVALLE/GUNTER", "location_type": null, "platform_code": null, "zone_id": null}, {"stop_lat": 30.264033, "stop_timezone": null, "wheelchair_boarding": 0, "stop_code": "5465", "direction_id": 1, "stop_lon": -97.696785, "parent_station": null, "route_id": "300", "stop_url": "http://www.capmetro.org/gismaps/stops/5465.html", "stop_sequence": 32, "stop_id": "5465", "stop_desc": "Southwest corner of GOVALLE and SPRINGDALE - Nearside", "stop_name": "GOVALLE/SPRINGDALE", "location_type": null, "platform_code": null, "zone_id": null}, {"stop_lat": 30.264596, "stop_timezone": null, "wheelchair_boarding": 0, "stop_code": "4534", "direction_id": 1, "stop_lon": -97.696074, "parent_station": null, "route_id": "300", "stop_url": "http://www.capmetro.org/gismaps/stops/4534.html", "stop_sequence": 33, "stop_id": "4534", "stop_desc": "Northeast corner of SPRINGDALE and GOVALLE - Mid-Block", "stop_name": "961 SPRINGDALE/GOVALLE", "location_type": null, "platform_code": null, "zone_id": null}, {"stop_lat": 30.267208, "stop_timezone": null, "wheelchair_boarding": 0, "stop_code": "1379", "direction_id": 1, "stop_lon": -97.694408, "parent_station": null, "route_id": "300", "stop_url": "http://www.capmetro.org/gismaps/stops/1379.html", "stop_sequence": 34, "stop_id": "1379", "stop_desc": "Southeast corner of SPRINGDALE and GOODWIN - Nearside", "stop_name": "1017 SPRINGDALE/GOODWIN", "location_type": null, "platform_code": null, "zone_id": null}, {"stop_lat": 30.27106, "stop_timezone": null, "wheelchair_boarding": 0, "stop_code": "1381", "direction_id": 1, "stop_lon": -97.69193, "parent_station": null, "route_id": "300", "stop_url": "http://www.capmetro.org/gismaps/stops/1381.html", "stop_sequence": 35, "stop_id": "1381", "stop_desc": "Northeast corner of SPRINGDALE and PROCK - Farside", "stop_name": "1053 SPRINGDALE/PROCK", "location_type": null, "platform_code": null, "zone_id": null}, {"stop_lat": 30.274299, "stop_timezone": null, "wheelchair_boarding": 0, "stop_code": "1382", "direction_id": 1, "stop_lon": -97.689894, "parent_station": null, "route_id": "300", "stop_url": "http://www.capmetro.org/gismaps/stops/1382.html", "stop_sequence": 36, "stop_id": "1382", "stop_desc": "Northeast corner of SPRINGDALE and LEDESMA - Farside", "stop_name": "1107 SPRINGDALE/LEDESMA", "location_type": null, "platform_code": null, "zone_id": null}, {"stop_lat": 30.277096, "stop_timezone": null, "wheelchair_boarding": 0, "stop_code": "1383", "direction_id": 1, "stop_lon": -97.688064, "parent_station": null, "route_id": "300", "stop_url": "http://www.capmetro.org/gismaps/stops/1383.html", "stop_sequence": 37, "stop_id": "1383", "stop_desc": "Northeast corner of SPRINGDALE and WEBBERVILLE - Mid-Block", "stop_name": "1161 SPRINGDALE/WEBBERVILLE", "location_type": null, "platform_code": null, "zone_id": null}, {"stop_lat": 30.279924, "stop_timezone": null, "wheelchair_boarding": 0, "stop_code": "1384", "direction_id": 1, "stop_lon": -97.686346, "parent_station": null, "route_id": "300", "stop_url": "http://www.capmetro.org/gismaps/stops/1384.html", "stop_sequence": 38, "stop_id": "1384", "stop_desc": "Northeast corner of SPRINGDALE and 12TH - Mid-Block", "stop_name": "1207 SPRINGDALE/12TH", "location_type": null, "platform_code": null, "zone_id": null}, {"stop_lat": 30.282374, "stop_timezone": null, "wheelchair_boarding": 0, "stop_code": "1385", "direction_id": 1, "stop_lon": -97.684815, "parent_station": null, "route_id": "300", "stop_url": "http://www.capmetro.org/gismaps/stops/1385.html", "stop_sequence": 39, "stop_id": "1385", "stop_desc": "Southeast corner of SPRINGDALE and LESLIE - Nearside", "stop_name": "SPRINGDALE/LESLIE", "location_type": null, "platform_code": null, "zone_id": null}, {"stop_lat": 30.283988, "stop_timezone": null, "wheelchair_boarding": 0, "stop_code": "1386", "direction_id": 1, "stop_lon": -97.683748, "parent_station": null, "route_id": "300", "stop_url": "http://www.capmetro.org/gismaps/stops/1386.html", "stop_sequence": 40, "stop_id": "1386", "stop_desc": "Southeast corner of SPRINGDALE and BANDERA - Nearside", "stop_name": "SPRINGDALE/BANDERA", "location_type": null, "platform_code": null, "zone_id": null}, {"stop_lat": 30.28557, "stop_timezone": null, "wheelchair_boarding": 0, "stop_code": "1387", "direction_id": 1, "stop_lon": -97.68273, "parent_station": null, "route_id": "300", "stop_url": "http://www.capmetro.org/gismaps/stops/1387.html", "stop_sequence": 41, "stop_id": "1387", "stop_desc": "Southeast corner of SPRINGDALE and MARTIN LUTHER KING - Nearside", "stop_name": "1819 SPRINGDALE/MARTIN LUTHER KING", "location_type": null, "platform_code": null, "zone_id": null}, {"stop_lat": 30.286366, "stop_timezone": null, "wheelchair_boarding": 0, "stop_code": "4742", "direction_id": 1, "stop_lon": -97.682192, "parent_station": null, "route_id": "300", "stop_url": "http://www.capmetro.org/gismaps/stops/4742.html", "stop_sequence": 42, "stop_id": "4742", "stop_desc": "Northeast corner of SPRINGDALE and MARTIN LUTHER KING - Farside", "stop_name": "4311 SPRINGDALE/MARTIN LUTHER KING", "location_type": null, "platform_code": null, "zone_id": null}, {"stop_lat": 30.289398, "stop_timezone": null, "wheelchair_boarding": 0, "stop_code": "4743", "direction_id": 1, "stop_lon": -97.68025, "parent_station": null, "route_id": "300", "stop_url": "http://www.capmetro.org/gismaps/stops/4743.html", "stop_sequence": 43, "stop_id": "4743", "stop_desc": "Northeast corner of SPRINGDALE and TOUCHSTONE - Farside", "stop_name": "4609 SPRINGDALE/TOUCHSTONE", "location_type": null, "platform_code": null, "zone_id": null}, {"stop_lat": 30.29386, "stop_timezone": null, "wheelchair_boarding": 0, "stop_code": "1388", "direction_id": 1, "stop_lon": -97.67757, "parent_station": null, "route_id": "300", "stop_url": "http://www.capmetro.org/gismaps/stops/1388.html", "stop_sequence": 44, "stop_id": "1388", "stop_desc": "Northeast corner of SPRINGDALE and 51ST - Farside", "stop_name": "5101 SPRINGDALE/51ST", "location_type": null, "platform_code": null, "zone_id": null}, {"stop_lat": 30.297446, "stop_timezone": null, "wheelchair_boarding": 0, "stop_code": "1389", "direction_id": 1, "stop_lon": -97.675242, "parent_station": null, "route_id": "300", "stop_url": "http://www.capmetro.org/gismaps/stops/1389.html", "stop_sequence": 45, "stop_id": "1389", "stop_desc": "Northeast corner of SPRINGDALE and NORWOOD HILL - Farside", "stop_name": "5401 SPRINGDALE/NORWOOD HILL", "location_type": null, "platform_code": null, "zone_id": null}, {"stop_lat": 30.300896, "stop_timezone": null, "wheelchair_boarding": 1, "stop_code": "1390", "direction_id": 1, "stop_lon": -97.673522, "parent_station": null, "route_id": "300", "stop_url": "http://www.capmetro.org/gismaps/stops/1390.html", "stop_sequence": 46, "stop_id": "1390", "stop_desc": "Northwest corner of ROGGE and SPRINGDALE - Farside", "stop_name": "3506 ROGGE/SPRINGDALE", "location_type": null, "platform_code": null, "zone_id": null}, {"stop_lat": 30.302753, "stop_timezone": null, "wheelchair_boarding": 0, "stop_code": "1391", "direction_id": 1, "stop_lon": -97.677408, "parent_station": null, "route_id": "300", "stop_url": "http://www.capmetro.org/gismaps/stops/1391.html", "stop_sequence": 47, "stop_id": "1391", "stop_desc": "Northeast corner of ROGGE and REICHER - Nearside", "stop_name": "3100 ROGGE/REICHER", "location_type": null, "platform_code": null, "zone_id": null}, {"stop_lat": 30.304865, "stop_timezone": null, "wheelchair_boarding": 0, "stop_code": "1392", "direction_id": 1, "stop_lon": -97.681812, "parent_station": null, "route_id": "300", "stop_url": "http://www.capmetro.org/gismaps/stops/1392.html", "stop_sequence": 48, "stop_id": "1392", "stop_desc": "Northwest corner of ROGGE and MANOR - Mid-Block", "stop_name": "2806 ROGGE/MANOR", "location_type": null, "platform_code": null, "zone_id": null}, {"stop_lat": 30.306435, "stop_timezone": null, "wheelchair_boarding": 1, "stop_code": "5525", "direction_id": 1, "stop_lon": -97.685093, "parent_station": null, "route_id": "300", "stop_url": "http://www.capmetro.org/gismaps/stops/5525.html", "stop_sequence": 49, "stop_id": "5525", "stop_desc": "Northeast corner of ROGGE and COVENTRY - Mid-Block", "stop_name": "ROGGE/COVENTRY", "location_type": null, "platform_code": null, "zone_id": null}, {"stop_lat": 30.307945, "stop_timezone": null, "wheelchair_boarding": 0, "stop_code": "1393", "direction_id": 1, "stop_lon": -97.689927, "parent_station": null, "route_id": "300", "stop_url": "http://www.capmetro.org/gismaps/stops/1393.html", "stop_sequence": 50, "stop_id": "1393", "stop_desc": "Northeast corner of ROGGE and WESTMINSTER - Nearside", "stop_name": "2000 ROGGE/WESTMINSTER", "location_type": null, "platform_code": null, "zone_id": null}, {"stop_lat": 30.307165, "stop_timezone": null, "wheelchair_boarding": 0, "stop_code": "1394", "direction_id": 1, "stop_lon": -97.693007, "parent_station": null, "route_id": "300", "stop_url": "http://www.capmetro.org/gismaps/stops/1394.html", "stop_sequence": 51, "stop_id": "1394", "stop_desc": "Northwest corner of ROGGE and RIDGEMONT - Farside", "stop_name": "1908 ROGGE/RIDGEMONT", "location_type": null, "platform_code": null, "zone_id": null}, {"stop_lat": 30.31036, "stop_timezone": null, "wheelchair_boarding": 0, "stop_code": "1396", "direction_id": 1, "stop_lon": -97.69473, "parent_station": null, "route_id": "300", "stop_url": "http://www.capmetro.org/gismaps/stops/1396.html", "stop_sequence": 52, "stop_id": "1396", "stop_desc": "Southeast corner of BERKMAN and LARKWOOD - Nearside", "stop_name": "BERKMAN/LARKWOOD", "location_type": null, "platform_code": null, "zone_id": null}, {"stop_lat": 30.314779, "stop_timezone": null, "wheelchair_boarding": 0, "stop_code": "1398", "direction_id": 1, "stop_lon": -97.692038, "parent_station": null, "route_id": "300", "stop_url": "http://www.capmetro.org/gismaps/stops/1398.html", "stop_sequence": 53, "stop_id": "1398", "stop_desc": "Northeast corner of BERKMAN and BRIARCLIFF - Farside", "stop_name": "6001 BERKMAN/BRIARCLIFF", "location_type": null, "platform_code": null, "zone_id": null}, {"stop_lat": 30.31646, "stop_timezone": null, "wheelchair_boarding": 0, "stop_code": "1399", "direction_id": 1, "stop_lon": -97.691029, "parent_station": null, "route_id": "300", "stop_url": "http://www.capmetro.org/gismaps/stops/1399.html", "stop_sequence": 54, "stop_id": "1399", "stop_desc": "Northeast corner of BERKMAN and GLEN VALLEY - Farside", "stop_name": "6207 BERKMAN/GLEN VALLEY", "location_type": null, "platform_code": null, "zone_id": null}, {"stop_lat": 30.318728, "stop_timezone": null, "wheelchair_boarding": 0, "stop_code": "1400", "direction_id": 1, "stop_lon": -97.689634, "parent_station": null, "route_id": "300", "stop_url": "http://www.capmetro.org/gismaps/stops/1400.html", "stop_sequence": 55, "stop_id": "1400", "stop_desc": "Northeast corner of BERKMAN and WHELESS - Farside", "stop_name": "6509 BERKMAN/WHELESS", "location_type": null, "platform_code": null, "zone_id": null}, {"stop_lat": 30.320741, "stop_timezone": null, "wheelchair_boarding": 0, "stop_code": "1401", "direction_id": 1, "stop_lon": -97.688771, "parent_station": null, "route_id": "300", "stop_url": "http://www.capmetro.org/gismaps/stops/1401.html", "stop_sequence": 56, "stop_id": "1401", "stop_desc": "Southeast corner of BERKMAN and US 290 - Nearside", "stop_name": "BERKMAN/US 290 SE CORNER", "location_type": null, "platform_code": null, "zone_id": null}, {"stop_lat": 30.32244, "stop_timezone": null, "wheelchair_boarding": 0, "stop_code": "1402", "direction_id": 1, "stop_lon": -97.68899, "parent_station": null, "route_id": "300", "stop_url": "http://www.capmetro.org/gismaps/stops/1402.html", "stop_sequence": 57, "stop_id": "1402", "stop_desc": "Northeast corner of BERKMAN and US 290 - Farside", "stop_name": "BERKMAN/US 290 NE CORNER", "location_type": null, "platform_code": null, "zone_id": null}, {"stop_lat": 30.325726, "stop_timezone": null, "wheelchair_boarding": 0, "stop_code": "1404", "direction_id": 1, "stop_lon": -97.688497, "parent_station": null, "route_id": "300", "stop_url": "http://www.capmetro.org/gismaps/stops/1404.html", "stop_sequence": 58, "stop_id": "1404", "stop_desc": "Southeast corner of BERKMAN and REAGAN HILL - Nearside", "stop_name": "7249 BERKMAN/REAGAN HILL", "location_type": null, "platform_code": null, "zone_id": null}, {"stop_lat": 30.32729, "stop_timezone": null, "wheelchair_boarding": 0, "stop_code": "1405", "direction_id": 1, "stop_lon": -97.688273, "parent_station": null, "route_id": "300", "stop_url": "http://www.capmetro.org/gismaps/stops/1405.html", "stop_sequence": 59, "stop_id": "1405", "stop_desc": "Northwest corner of CORONADO HILLS and BERKMAN - Farside", "stop_name": "CORONADO HILLS/BERKMAN", "location_type": null, "platform_code": null, "zone_id": null}, {"stop_lat": 30.328718, "stop_timezone": null, "wheelchair_boarding": 0, "stop_code": "1406", "direction_id": 1, "stop_lon": -97.689587, "parent_station": null, "route_id": "300", "stop_url": "http://www.capmetro.org/gismaps/stops/1406.html", "stop_sequence": 60, "stop_id": "1406", "stop_desc": "Northeast corner of CORONADO HILLS and CAMERON - Nearside", "stop_name": "1430 CORONADO HILLS/CAMERON", "location_type": null, "platform_code": null, "zone_id": null}, {"stop_lat": 30.32629, "stop_timezone": null, "wheelchair_boarding": 0, "stop_code": "1407", "direction_id": 1, "stop_lon": -97.69233, "parent_station": null, "route_id": "300", "stop_url": "http://www.capmetro.org/gismaps/stops/1407.html", "stop_sequence": 61, "stop_id": "1407", "stop_desc": "Northwest corner of CAMERON and ST JOHNS - Nearside", "stop_name": "7200 CAMERON/ST JOHNS", "location_type": null, "platform_code": null, "zone_id": null}, {"stop_lat": 30.32838, "stop_timezone": null, "wheelchair_boarding": 0, "stop_code": "5505", "direction_id": 1, "stop_lon": -97.694615, "parent_station": null, "route_id": "300", "stop_url": "http://www.capmetro.org/gismaps/stops/5505.html", "stop_sequence": 62, "stop_id": "5505", "stop_desc": "Northwest corner of ST JOHNS and GRAND CANYON - Mid-Block", "stop_name": "1120 ST JOHNS/GRAND CANYON", "location_type": null, "platform_code": null, "zone_id": null}, {"stop_lat": 30.32925, "stop_timezone": null, "wheelchair_boarding": 0, "stop_code": "1408", "direction_id": 1, "stop_lon": -97.69644, "parent_station": null, "route_id": "300", "stop_url": "http://www.capmetro.org/gismaps/stops/1408.html", "stop_sequence": 63, "stop_id": "1408", "stop_desc": "Northwest corner of ST JOHNS and MEADOR - Farside", "stop_name": "1034 ST JOHNS/MEADOR", "location_type": null, "platform_code": null, "zone_id": null}, {"stop_lat": 30.33032, "stop_timezone": null, "wheelchair_boarding": 0, "stop_code": "1409", "direction_id": 1, "stop_lon": -97.69854, "parent_station": null, "route_id": "300", "stop_url": "http://www.capmetro.org/gismaps/stops/1409.html", "stop_sequence": 64, "stop_id": "1409", "stop_desc": "Northwest corner of ST JOHNS and BETHUNE - Farside", "stop_name": "1008 ST JOHNS/BETHUNE", "location_type": null, "platform_code": null, "zone_id": null}, {"stop_lat": 30.331118, "stop_timezone": null, "wheelchair_boarding": 0, "stop_code": "1410", "direction_id": 1, "stop_lon": -97.700252, "parent_station": null, "route_id": "300", "stop_url": "http://www.capmetro.org/gismaps/stops/1410.html", "stop_sequence": 65, "stop_id": "1410", "stop_desc": "Northeast corner of ST JOHNS and BENNETT - Nearside", "stop_name": "900 ST JOHNS/BENNETT", "location_type": null, "platform_code": null, "zone_id": null}, {"stop_lat": 30.332336, "stop_timezone": null, "wheelchair_boarding": 0, "stop_code": "2872", "direction_id": 1, "stop_lon": -97.702985, "parent_station": null, "route_id": "300", "stop_url": "http://www.capmetro.org/gismaps/stops/2872.html", "stop_sequence": 66, "stop_id": "2872", "stop_desc": "Northeast corner of ST JOHNS and IH 35 - Nearside", "stop_name": "800 ST JOHNS/IH 35", "location_type": null, "platform_code": null, "zone_id": null}, {"stop_lat": 30.333174, "stop_timezone": null, "wheelchair_boarding": 0, "stop_code": "1412", "direction_id": 1, "stop_lon": -97.706079, "parent_station": null, "route_id": "300", "stop_url": "http://www.capmetro.org/gismaps/stops/1412.html", "stop_sequence": 67, "stop_id": "1412", "stop_desc": "Southwest corner of ROLAND JOHNSON and ST JOHNS - Mid-Block", "stop_name": "7100 ROLAND JOHNSON/ST JOHNS", "location_type": null, "platform_code": null, "zone_id": null}, {"stop_lat": 30.330907, "stop_timezone": null, "wheelchair_boarding": 0, "stop_code": "1413", "direction_id": 1, "stop_lon": -97.706983, "parent_station": null, "route_id": "300", "stop_url": "http://www.capmetro.org/gismaps/stops/1413.html", "stop_sequence": 68, "stop_id": "1413", "stop_desc": "Northwest corner of ROLAND JOHNSON and HUNTLAND - Nearside", "stop_name": "6970 ROLAND JOHNSON/HUNTLAND", "location_type": null, "platform_code": null, "zone_id": null}, {"stop_lat": 30.330854, "stop_timezone": null, "wheelchair_boarding": 0, "stop_code": "1414", "direction_id": 1, "stop_lon": -97.710681, "parent_station": null, "route_id": "300", "stop_url": "http://www.capmetro.org/gismaps/stops/1414.html", "stop_sequence": 69, "stop_id": "1414", "stop_desc": "Northeast corner of HUNTLAND and BRENDA - Nearside", "stop_name": "300 HUNTLAND/BRENDA", "location_type": null, "platform_code": null, "zone_id": null}, {"stop_lat": 30.328767, "stop_timezone": null, "wheelchair_boarding": 1, "stop_code": "1415", "direction_id": 1, "stop_lon": -97.713056, "parent_station": null, "route_id": "300", "stop_url": "http://www.capmetro.org/gismaps/stops/1415.html", "stop_sequence": 70, "stop_id": "1415", "stop_desc": "Northwest corner of JONATHON and HIGHLAND MALL - Nearside", "stop_name": "6500 JONATHAN DR (HIGHLAND MALL)", "location_type": null, "platform_code": null, "zone_id": null}, {"stop_lat": 30.333977, "stop_timezone": null, "wheelchair_boarding": 0, "stop_code": "1273", "direction_id": 1, "stop_lon": -97.716818, "parent_station": null, "route_id": "300", "stop_url": "http://www.capmetro.org/gismaps/stops/1273.html", "stop_sequence": 71, "stop_id": "1273", "stop_desc": "Northeast corner of AIRPORT and GUADALUPE - Mid-Block", "stop_name": "6902 AIRPORT BLVD/GUADALUPE", "location_type": null, "platform_code": null, "zone_id": null}, {"stop_lat": 30.336072, "stop_timezone": null, "wheelchair_boarding": 0, "stop_code": "5509", "direction_id": 1, "stop_lon": -97.717896, "parent_station": null, "route_id": "300", "stop_url": "http://www.capmetro.org/gismaps/stops/5509.html", "stop_sequence": 72, "stop_id": "5509", "stop_desc": "Northwest corner of AIRPORT and KENNISTON - Mid-Block", "stop_name": "6903 AIRPORT/KENNISTON", "location_type": null, "platform_code": null, "zone_id": null}, {"stop_lat": 30.339262, "stop_timezone": null, "wheelchair_boarding": 0, "stop_code": "2878", "direction_id": 1, "stop_lon": -97.717782, "parent_station": null, "route_id": "300", "stop_url": "http://www.capmetro.org/gismaps/stops/2878.html", "stop_sequence": 73, "stop_id": "2878", "stop_desc": "Southeast corner of LAMAR and ST JOHNS - Nearside", "stop_name": "7135 LAMAR/ST JOHNS", "location_type": null, "platform_code": null, "zone_id": null}, {"stop_lat": 30.341113, "stop_timezone": null, "wheelchair_boarding": 0, "stop_code": "1417", "direction_id": 1, "stop_lon": -97.716607, "parent_station": null, "route_id": "300", "stop_url": "http://www.capmetro.org/gismaps/stops/1417.html", "stop_sequence": 74, "stop_id": "1417", "stop_desc": "Northeast corner of LAMAR and ST JOHNS - Mid-Block", "stop_name": "7401 LAMAR/ST JOHNS", "location_type": null, "platform_code": null, "zone_id": null}, {"stop_lat": 30.34385, "stop_timezone": null, "wheelchair_boarding": 0, "stop_code": "622", "direction_id": 1, "stop_lon": -97.71492, "parent_station": null, "route_id": "300", "stop_url": "http://www.capmetro.org/gismaps/stops/622.html", "stop_sequence": 75, "stop_id": "622", "stop_desc": "Southeast corner of LAMAR and MORROW - Nearside", "stop_name": "7545 LAMAR/MORROW", "location_type": null, "platform_code": null, "zone_id": null}, {"stop_lat": 30.350167, "stop_timezone": null, "wheelchair_boarding": 0, "stop_code": "5226", "direction_id": 1, "stop_lon": -97.712099, "parent_station": null, "route_id": "300", "stop_url": "http://www.capmetro.org/gismaps/stops/5226.html", "stop_sequence": 76, "stop_id": "5226", "stop_desc": "Northeast corner of RESEARCH and LAMAR - Mid-Block", "stop_name": "NORTH LAMAR BAY 2", "location_type": null, "platform_code": null, "zone_id": null}]
