[{"stop_lat": 30.30332, "stop_timezone": null, "wheelchair_boarding": 0, "stop_code": "1787", "direction_id": 1, "stop_lon": -97.72048, "parent_station": null, "route_id": "653", "stop_url": null, "stop_sequence": 1, "stop_id": "1787", "stop_desc": "004309 RED RIVER & 44TH", "stop_name": "4309 RED RIVER/44TH", "location_type": null, "platform_code": null, "zone_id": null}, {"stop_lat": 30.305342, "stop_timezone": null, "wheelchair_boarding": 0, "stop_code": "3484", "direction_id": 1, "stop_lon": -97.717079, "parent_station": null, "route_id": "653", "stop_url": null, "stop_sequence": 2, "stop_id": "3484", "stop_desc": "000900 46TH & BENNETT", "stop_name": "46TH/BENNETT", "location_type": null, "platform_code": null, "zone_id": null}, {"stop_lat": 30.30414, "stop_timezone": null, "wheelchair_boarding": 0, "stop_code": "4837", "direction_id": 1, "stop_lon": -97.71772, "parent_station": null, "route_id": "653", "stop_url": null, "stop_sequence": 3, "stop_id": "4837", "stop_desc": "004500 BENNETT & 45TH", "stop_name": "4500 BENNETT/45TH", "location_type": null, "platform_code": null, "zone_id": null}, {"stop_lat": 30.30338, "stop_timezone": null, "wheelchair_boarding": 0, "stop_code": "1701", "direction_id": 1, "stop_lon": -97.72062, "parent_station": null, "route_id": "653", "stop_url": null, "stop_sequence": 4, "stop_id": "1701", "stop_desc": "004400 RED RIVER & 44TH", "stop_name": "4400 RED RIVER/44TH", "location_type": null, "platform_code": null, "zone_id": null}, {"stop_lat": 30.302281, "stop_timezone": null, "wheelchair_boarding": 0, "stop_code": "4149", "direction_id": 1, "stop_lon": -97.721279, "parent_station": null, "route_id": "653", "stop_url": null, "stop_sequence": 5, "stop_id": "4149", "stop_desc": "004210 RED RIVER & 43RD", "stop_name": "4210 RED RIVER/43RD", "location_type": null, "platform_code": null, "zone_id": null}, {"stop_lat": 30.298607, "stop_timezone": null, "wheelchair_boarding": 0, "stop_code": "1703", "direction_id": 1, "stop_lon": -97.722783, "parent_station": null, "route_id": "653", "stop_url": null, "stop_sequence": 6, "stop_id": "1703", "stop_desc": "004000 RED RIVER & 40TH", "stop_name": "4000 RED RIVER/40TH", "location_type": null, "platform_code": null, "zone_id": null}, {"stop_lat": 30.29576, "stop_timezone": null, "wheelchair_boarding": 0, "stop_code": "1704", "direction_id": 1, "stop_lon": -97.72344, "parent_station": null, "route_id": "653", "stop_url": null, "stop_sequence": 7, "stop_id": "1704", "stop_desc": "003800 RED RIVER & 38TH", "stop_name": "RED RIVER/38TH", "location_type": null, "platform_code": null, "zone_id": null}, {"stop_lat": 30.293324, "stop_timezone": null, "wheelchair_boarding": 0, "stop_code": "5569", "direction_id": 1, "stop_lon": -97.725492, "parent_station": null, "route_id": "653", "stop_url": null, "stop_sequence": 8, "stop_id": "5569", "stop_desc": "003400 RED RIVER & HARRIS", "stop_name": "3400 RED RIVER/HARRIS", "location_type": null, "platform_code": null, "zone_id": null}, {"stop_lat": 30.290572, "stop_timezone": null, "wheelchair_boarding": 0, "stop_code": "1706", "direction_id": 1, "stop_lon": -97.727389, "parent_station": null, "route_id": "653", "stop_url": null, "stop_sequence": 9, "stop_id": "1706", "stop_desc": "003100 RED RIVER & 32ND", "stop_name": "3100 RED RIVER/32ND", "location_type": null, "platform_code": null, "zone_id": null}, {"stop_lat": 30.287349, "stop_timezone": null, "wheelchair_boarding": 0, "stop_code": "4143", "direction_id": 1, "stop_lon": -97.730076, "parent_station": null, "route_id": "653", "stop_url": null, "stop_sequence": 10, "stop_id": "4143", "stop_desc": "002400 ROBERT DEDMAN & TRINITY", "stop_name": "ROBERT DEDMAN/TRINITY", "location_type": null, "platform_code": null, "zone_id": null}, {"stop_lat": 30.285314, "stop_timezone": null, "wheelchair_boarding": 0, "stop_code": "5173", "direction_id": 1, "stop_lon": -97.732659, "parent_station": null, "route_id": "653", "stop_url": null, "stop_sequence": 11, "stop_id": "5173", "stop_desc": "000500 23RD & TRINITY", "stop_name": "23RD/TRINITY NE CORNER", "location_type": null, "platform_code": null, "zone_id": null}]
