[{"stop_lat": 30.242658, "stop_timezone": null, "wheelchair_boarding": 0, "stop_code": "5554", "direction_id": 0, "stop_lon": -97.729061, "parent_station": null, "route_id": "411", "stop_url": null, "stop_sequence": 1, "stop_id": "5554", "stop_desc": "001805 RIVERSIDE & PARKER", "stop_name": "1805 RIVERSIDE/PARKER", "location_type": null, "platform_code": null, "zone_id": null}, {"stop_lat": 30.268628, "stop_timezone": null, "wheelchair_boarding": 0, "stop_code": "5966", "direction_id": 0, "stop_lon": -97.74418, "parent_station": null, "route_id": "411", "stop_url": null, "stop_sequence": 1, "stop_id": "5966", "stop_desc": "000000 COLORADO & 6TH", "stop_name": "COLORADO/6TH", "location_type": null, "platform_code": null, "zone_id": null}, {"stop_lat": 30.2331, "stop_timezone": null, "wheelchair_boarding": 0, "stop_code": "4295", "direction_id": 0, "stop_lon": -97.728953, "parent_station": null, "route_id": "411", "stop_url": null, "stop_sequence": 2, "stop_id": "4295", "stop_desc": "001900 WILLOW CREEK & WOODLAND", "stop_name": "WILLOW CREEK/WOODLAND", "location_type": null, "platform_code": null, "zone_id": null}, {"stop_lat": 30.242658, "stop_timezone": null, "wheelchair_boarding": 0, "stop_code": "5554", "direction_id": 0, "stop_lon": -97.729061, "parent_station": null, "route_id": "411", "stop_url": null, "stop_sequence": 2, "stop_id": "5554", "stop_desc": "001805 RIVERSIDE & PARKER", "stop_name": "1805 RIVERSIDE/PARKER", "location_type": null, "platform_code": null, "zone_id": null}, {"stop_lat": 30.2331, "stop_timezone": null, "wheelchair_boarding": 0, "stop_code": "4295", "direction_id": 0, "stop_lon": -97.728953, "parent_station": null, "route_id": "411", "stop_url": null, "stop_sequence": 3, "stop_id": "4295", "stop_desc": "001900 WILLOW CREEK & WOODLAND", "stop_name": "WILLOW CREEK/WOODLAND", "location_type": null, "platform_code": null, "zone_id": null}, {"stop_lat": 30.23113, "stop_timezone": null, "wheelchair_boarding": 0, "stop_code": "5080", "direction_id": 0, "stop_lon": -97.72962, "parent_station": null, "route_id": "411", "stop_url": null, "stop_sequence": 3, "stop_id": "5080", "stop_desc": "002300 ANKEN & WILLOW CREEK", "stop_name": "ANKEN/WILLOW CREEK", "location_type": null, "platform_code": null, "zone_id": null}, {"stop_lat": 30.22936, "stop_timezone": null, "wheelchair_boarding": 0, "stop_code": "3527", "direction_id": 0, "stop_lon": -97.726739, "parent_station": null, "route_id": "411", "stop_url": null, "stop_sequence": 4, "stop_id": "3527", "stop_desc": "002316 PLEASANT VALLEY & ANKEN", "stop_name": "2316 PLEASANT VALLEY/ANKEN", "location_type": null, "platform_code": null, "zone_id": null}, {"stop_lat": 30.23113, "stop_timezone": null, "wheelchair_boarding": 0, "stop_code": "5080", "direction_id": 0, "stop_lon": -97.72962, "parent_station": null, "route_id": "411", "stop_url": null, "stop_sequence": 4, "stop_id": "5080", "stop_desc": "002300 ANKEN & WILLOW CREEK", "stop_name": "ANKEN/WILLOW CREEK", "location_type": null, "platform_code": null, "zone_id": null}, {"stop_lat": 30.226655, "stop_timezone": null, "wheelchair_boarding": 0, "stop_code": "1008", "direction_id": 0, "stop_lon": -97.726263, "parent_station": null, "route_id": "411", "stop_url": null, "stop_sequence": 5, "stop_id": "1008", "stop_desc": "004411 OLTORF & HUNTWICK", "stop_name": "4411 OLTORF/HUNTWICK", "location_type": null, "platform_code": null, "zone_id": null}, {"stop_lat": 30.22936, "stop_timezone": null, "wheelchair_boarding": 0, "stop_code": "3527", "direction_id": 0, "stop_lon": -97.726739, "parent_station": null, "route_id": "411", "stop_url": null, "stop_sequence": 5, "stop_id": "3527", "stop_desc": "002316 PLEASANT VALLEY & ANKEN", "stop_name": "2316 PLEASANT VALLEY/ANKEN", "location_type": null, "platform_code": null, "zone_id": null}, {"stop_lat": 30.226655, "stop_timezone": null, "wheelchair_boarding": 0, "stop_code": "1008", "direction_id": 0, "stop_lon": -97.726263, "parent_station": null, "route_id": "411", "stop_url": null, "stop_sequence": 6, "stop_id": "1008", "stop_desc": "004411 OLTORF & HUNTWICK", "stop_name": "4411 OLTORF/HUNTWICK", "location_type": null, "platform_code": null, "zone_id": null}, {"stop_lat": 30.226039, "stop_timezone": null, "wheelchair_boarding": 0, "stop_code": "1009", "direction_id": 0, "stop_lon": -97.723488, "parent_station": null, "route_id": "411", "stop_url": null, "stop_sequence": 6, "stop_id": "1009", "stop_desc": "002401 WICKERSHAM & OLTORF", "stop_name": "2401 WICKERSHAM/OLTORF", "location_type": null, "platform_code": null, "zone_id": null}, {"stop_lat": 30.226039, "stop_timezone": null, "wheelchair_boarding": 0, "stop_code": "1009", "direction_id": 0, "stop_lon": -97.723488, "parent_station": null, "route_id": "411", "stop_url": null, "stop_sequence": 7, "stop_id": "1009", "stop_desc": "002401 WICKERSHAM & OLTORF", "stop_name": "2401 WICKERSHAM/OLTORF", "location_type": null, "platform_code": null, "zone_id": null}, {"stop_lat": 30.22702, "stop_timezone": null, "wheelchair_boarding": 0, "stop_code": "1010", "direction_id": 0, "stop_lon": -97.72185, "parent_station": null, "route_id": "411", "stop_url": null, "stop_sequence": 7, "stop_id": "1010", "stop_desc": "002300 WICKERSHAM & CROMWELL", "stop_name": "WICKERSHAM/CROMWELL", "location_type": null, "platform_code": null, "zone_id": null}, {"stop_lat": 30.22702, "stop_timezone": null, "wheelchair_boarding": 0, "stop_code": "1010", "direction_id": 0, "stop_lon": -97.72185, "parent_station": null, "route_id": "411", "stop_url": null, "stop_sequence": 8, "stop_id": "1010", "stop_desc": "002300 WICKERSHAM & CROMWELL", "stop_name": "WICKERSHAM/CROMWELL", "location_type": null, "platform_code": null, "zone_id": null}, {"stop_lat": 30.229315, "stop_timezone": null, "wheelchair_boarding": 0, "stop_code": "1011", "direction_id": 0, "stop_lon": -97.721353, "parent_station": null, "route_id": "411", "stop_url": null, "stop_sequence": 8, "stop_id": "1011", "stop_desc": "002207 WICKERSHAM & SHERINGHAM", "stop_name": "2207 WICKERSHAM/SHERINGHAM", "location_type": null, "platform_code": null, "zone_id": null}, {"stop_lat": 30.229315, "stop_timezone": null, "wheelchair_boarding": 0, "stop_code": "1011", "direction_id": 0, "stop_lon": -97.721353, "parent_station": null, "route_id": "411", "stop_url": null, "stop_sequence": 9, "stop_id": "1011", "stop_desc": "002207 WICKERSHAM & SHERINGHAM", "stop_name": "2207 WICKERSHAM/SHERINGHAM", "location_type": null, "platform_code": null, "zone_id": null}, {"stop_lat": 30.232153, "stop_timezone": null, "wheelchair_boarding": 0, "stop_code": "4300", "direction_id": 0, "stop_lon": -97.717055, "parent_station": null, "route_id": "411", "stop_url": null, "stop_sequence": 9, "stop_id": "4300", "stop_desc": "001901 CROSSING PLACE & RIVERSIDE", "stop_name": "1901 CROSSING PLACE/RIVERSIDE", "location_type": null, "platform_code": null, "zone_id": null}, {"stop_lat": 30.232153, "stop_timezone": null, "wheelchair_boarding": 0, "stop_code": "4300", "direction_id": 0, "stop_lon": -97.717055, "parent_station": null, "route_id": "411", "stop_url": null, "stop_sequence": 10, "stop_id": "4300", "stop_desc": "001901 CROSSING PLACE & RIVERSIDE", "stop_name": "1901 CROSSING PLACE/RIVERSIDE", "location_type": null, "platform_code": null, "zone_id": null}, {"stop_lat": 30.23502, "stop_timezone": null, "wheelchair_boarding": 0, "stop_code": "4301", "direction_id": 0, "stop_lon": -97.71465, "parent_station": null, "route_id": "411", "stop_url": null, "stop_sequence": 10, "stop_id": "4301", "stop_desc": "001501 CROSSING PLACE & FARO", "stop_name": "1501 CROSSING PLACE/FARO", "location_type": null, "platform_code": null, "zone_id": null}, {"stop_lat": 30.237369, "stop_timezone": null, "wheelchair_boarding": 0, "stop_code": "3852", "direction_id": 0, "stop_lon": -97.7135, "parent_station": null, "route_id": "411", "stop_url": null, "stop_sequence": 11, "stop_id": "3852", "stop_desc": "001300 CROSSING PLACE & ELMONT", "stop_name": "MELROSE PLACE APT", "location_type": null, "platform_code": null, "zone_id": null}, {"stop_lat": 30.23502, "stop_timezone": null, "wheelchair_boarding": 0, "stop_code": "4301", "direction_id": 0, "stop_lon": -97.71465, "parent_station": null, "route_id": "411", "stop_url": null, "stop_sequence": 11, "stop_id": "4301", "stop_desc": "001501 CROSSING PLACE & FARO", "stop_name": "1501 CROSSING PLACE/FARO", "location_type": null, "platform_code": null, "zone_id": null}, {"stop_lat": 30.237369, "stop_timezone": null, "wheelchair_boarding": 0, "stop_code": "3852", "direction_id": 0, "stop_lon": -97.7135, "parent_station": null, "route_id": "411", "stop_url": null, "stop_sequence": 12, "stop_id": "3852", "stop_desc": "001300 CROSSING PLACE & ELMONT", "stop_name": "MELROSE PLACE APT", "location_type": null, "platform_code": null, "zone_id": null}, {"stop_lat": 30.23489, "stop_timezone": null, "wheelchair_boarding": 0, "stop_code": "4302", "direction_id": 0, "stop_lon": -97.71506, "parent_station": null, "route_id": "411", "stop_url": null, "stop_sequence": 12, "stop_id": "4302", "stop_desc": "001500 CROSSING PLACE & FARO", "stop_name": "1500 CROSSING PLACE/FARO", "location_type": null, "platform_code": null, "zone_id": null}, {"stop_lat": 30.23241, "stop_timezone": null, "wheelchair_boarding": 0, "stop_code": "4299", "direction_id": 0, "stop_lon": -97.71723, "parent_station": null, "route_id": "411", "stop_url": null, "stop_sequence": 13, "stop_id": "4299", "stop_desc": "001900 CROSSING PLACE & RIVERSIDE", "stop_name": "1900 CROSSING PLACE/RIVERSIDE", "location_type": null, "platform_code": null, "zone_id": null}, {"stop_lat": 30.23489, "stop_timezone": null, "wheelchair_boarding": 0, "stop_code": "4302", "direction_id": 0, "stop_lon": -97.71506, "parent_station": null, "route_id": "411", "stop_url": null, "stop_sequence": 13, "stop_id": "4302", "stop_desc": "001500 CROSSING PLACE & FARO", "stop_name": "1500 CROSSING PLACE/FARO", "location_type": null, "platform_code": null, "zone_id": null}, {"stop_lat": 30.23241, "stop_timezone": null, "wheelchair_boarding": 0, "stop_code": "4299", "direction_id": 0, "stop_lon": -97.71723, "parent_station": null, "route_id": "411", "stop_url": null, "stop_sequence": 14, "stop_id": "4299", "stop_desc": "001900 CROSSING PLACE & RIVERSIDE", "stop_name": "1900 CROSSING PLACE/RIVERSIDE", "location_type": null, "platform_code": null, "zone_id": null}, {"stop_lat": 30.23296, "stop_timezone": null, "wheelchair_boarding": 0, "stop_code": "5079", "direction_id": 0, "stop_lon": -97.7201, "parent_station": null, "route_id": "411", "stop_url": null, "stop_sequence": 14, "stop_id": "5079", "stop_desc": "001900 WICKERSHAM & RIVERSIDE", "stop_name": "WICKERSHAM/RIVERSIDE", "location_type": null, "platform_code": null, "zone_id": null}, {"stop_lat": 30.235709, "stop_timezone": null, "wheelchair_boarding": 0, "stop_code": "5078", "direction_id": 0, "stop_lon": -97.718516, "parent_station": null, "route_id": "411", "stop_url": null, "stop_sequence": 15, "stop_id": "5078", "stop_desc": "001515 WICKERSHAM & RIVERSIDE", "stop_name": "1515 WICKERSHAM/RIVERSIDE", "location_type": null, "platform_code": null, "zone_id": null}, {"stop_lat": 30.23296, "stop_timezone": null, "wheelchair_boarding": 0, "stop_code": "5079", "direction_id": 0, "stop_lon": -97.7201, "parent_station": null, "route_id": "411", "stop_url": null, "stop_sequence": 15, "stop_id": "5079", "stop_desc": "001900 WICKERSHAM & RIVERSIDE", "stop_name": "WICKERSHAM/RIVERSIDE", "location_type": null, "platform_code": null, "zone_id": null}, {"stop_lat": 30.23835, "stop_timezone": null, "wheelchair_boarding": 0, "stop_code": "5077", "direction_id": 0, "stop_lon": -97.71847, "parent_station": null, "route_id": "411", "stop_url": null, "stop_sequence": 16, "stop_id": "5077", "stop_desc": "004500 ELMONT & WICKERSHAM", "stop_name": "ELMONT/WICKERSHAM", "location_type": null, "platform_code": null, "zone_id": null}, {"stop_lat": 30.235709, "stop_timezone": null, "wheelchair_boarding": 0, "stop_code": "5078", "direction_id": 0, "stop_lon": -97.718516, "parent_station": null, "route_id": "411", "stop_url": null, "stop_sequence": 16, "stop_id": "5078", "stop_desc": "001515 WICKERSHAM & RIVERSIDE", "stop_name": "1515 WICKERSHAM/RIVERSIDE", "location_type": null, "platform_code": null, "zone_id": null}, {"stop_lat": 30.239813, "stop_timezone": null, "wheelchair_boarding": 0, "stop_code": "4284", "direction_id": 0, "stop_lon": -97.718786, "parent_station": null, "route_id": "411", "stop_url": null, "stop_sequence": 17, "stop_id": "4284", "stop_desc": "001225 PLEASANT VALLEY & ELMONT", "stop_name": "1225 PLEASANT VALLEY/ELMONT", "location_type": null, "platform_code": null, "zone_id": null}, {"stop_lat": 30.23835, "stop_timezone": null, "wheelchair_boarding": 0, "stop_code": "5077", "direction_id": 0, "stop_lon": -97.71847, "parent_station": null, "route_id": "411", "stop_url": null, "stop_sequence": 17, "stop_id": "5077", "stop_desc": "004500 ELMONT & WICKERSHAM", "stop_name": "ELMONT/WICKERSHAM", "location_type": null, "platform_code": null, "zone_id": null}, {"stop_lat": 30.239813, "stop_timezone": null, "wheelchair_boarding": 0, "stop_code": "4284", "direction_id": 0, "stop_lon": -97.718786, "parent_station": null, "route_id": "411", "stop_url": null, "stop_sequence": 18, "stop_id": "4284", "stop_desc": "001225 PLEASANT VALLEY & ELMONT", "stop_name": "1225 PLEASANT VALLEY/ELMONT", "location_type": null, "platform_code": null, "zone_id": null}, {"stop_lat": 30.24189, "stop_timezone": null, "wheelchair_boarding": 0, "stop_code": "5065", "direction_id": 0, "stop_lon": -97.71749, "parent_station": null, "route_id": "411", "stop_url": null, "stop_sequence": 18, "stop_id": "5065", "stop_desc": "001109 PLEASANT VALLEY & ELMONT", "stop_name": "1109 PLEASANT VALLEY/ELMONT", "location_type": null, "platform_code": null, "zone_id": null}, {"stop_lat": 30.24189, "stop_timezone": null, "wheelchair_boarding": 0, "stop_code": "5065", "direction_id": 0, "stop_lon": -97.71749, "parent_station": null, "route_id": "411", "stop_url": null, "stop_sequence": 19, "stop_id": "5065", "stop_desc": "001109 PLEASANT VALLEY & ELMONT", "stop_name": "1109 PLEASANT VALLEY/ELMONT", "location_type": null, "platform_code": null, "zone_id": null}, {"stop_lat": 30.24343, "stop_timezone": null, "wheelchair_boarding": 0, "stop_code": "5076", "direction_id": 0, "stop_lon": -97.7195, "parent_station": null, "route_id": "411", "stop_url": null, "stop_sequence": 19, "stop_id": "5076", "stop_desc": "002400 LAKESHORE & PLEASANT VALLEY", "stop_name": "LAKESHORE/PLEASANT VALLEY", "location_type": null, "platform_code": null, "zone_id": null}, {"stop_lat": 30.24439, "stop_timezone": null, "wheelchair_boarding": 0, "stop_code": "5075", "direction_id": 0, "stop_lon": -97.72208, "parent_station": null, "route_id": "411", "stop_url": null, "stop_sequence": 20, "stop_id": "5075", "stop_desc": "002200 LAKESHORE & TINNIN FORD", "stop_name": "2200 LAKESHORE/TINNIN FORD", "location_type": null, "platform_code": null, "zone_id": null}, {"stop_lat": 30.24343, "stop_timezone": null, "wheelchair_boarding": 0, "stop_code": "5076", "direction_id": 0, "stop_lon": -97.7195, "parent_station": null, "route_id": "411", "stop_url": null, "stop_sequence": 20, "stop_id": "5076", "stop_desc": "002400 LAKESHORE & PLEASANT VALLEY", "stop_name": "LAKESHORE/PLEASANT VALLEY", "location_type": null, "platform_code": null, "zone_id": null}, {"stop_lat": 30.244912, "stop_timezone": null, "wheelchair_boarding": 0, "stop_code": "5074", "direction_id": 0, "stop_lon": -97.727278, "parent_station": null, "route_id": "411", "stop_url": null, "stop_sequence": 21, "stop_id": "5074", "stop_desc": "001804 LAKESHORE & TINNIN FORD", "stop_name": "1804 LAKESHORE/TINNIN FORD", "location_type": null, "platform_code": null, "zone_id": null}, {"stop_lat": 30.24439, "stop_timezone": null, "wheelchair_boarding": 0, "stop_code": "5075", "direction_id": 0, "stop_lon": -97.72208, "parent_station": null, "route_id": "411", "stop_url": null, "stop_sequence": 21, "stop_id": "5075", "stop_desc": "002200 LAKESHORE & TINNIN FORD", "stop_name": "2200 LAKESHORE/TINNIN FORD", "location_type": null, "platform_code": null, "zone_id": null}, {"stop_lat": 30.244912, "stop_timezone": null, "wheelchair_boarding": 0, "stop_code": "5074", "direction_id": 0, "stop_lon": -97.727278, "parent_station": null, "route_id": "411", "stop_url": null, "stop_sequence": 22, "stop_id": "5074", "stop_desc": "001804 LAKESHORE & TINNIN FORD", "stop_name": "1804 LAKESHORE/TINNIN FORD", "location_type": null, "platform_code": null, "zone_id": null}, {"stop_lat": 30.245006, "stop_timezone": null, "wheelchair_boarding": 0, "stop_code": "5706", "direction_id": 0, "stop_lon": -97.729679, "parent_station": null, "route_id": "411", "stop_url": null, "stop_sequence": 22, "stop_id": "5706", "stop_desc": "001712 LAKESHORE & RIVERSIDE", "stop_name": "1712 LAKESHORE/RIVERSIDE", "location_type": null, "platform_code": null, "zone_id": null}, {"stop_lat": 30.245006, "stop_timezone": null, "wheelchair_boarding": 0, "stop_code": "5706", "direction_id": 0, "stop_lon": -97.729679, "parent_station": null, "route_id": "411", "stop_url": null, "stop_sequence": 23, "stop_id": "5706", "stop_desc": "001712 LAKESHORE & RIVERSIDE", "stop_name": "1712 LAKESHORE/RIVERSIDE", "location_type": null, "platform_code": null, "zone_id": null}, {"stop_lat": 30.268628, "stop_timezone": null, "wheelchair_boarding": 0, "stop_code": "5966", "direction_id": 0, "stop_lon": -97.74418, "parent_station": null, "route_id": "411", "stop_url": null, "stop_sequence": 23, "stop_id": "5966", "stop_desc": "000000 COLORADO & 6TH", "stop_name": "COLORADO/6TH", "location_type": null, "platform_code": null, "zone_id": null}, {"stop_lat": 30.268628, "stop_timezone": null, "wheelchair_boarding": 0, "stop_code": "5966", "direction_id": 0, "stop_lon": -97.74418, "parent_station": null, "route_id": "411", "stop_url": null, "stop_sequence": 24, "stop_id": "5966", "stop_desc": "000000 COLORADO & 6TH", "stop_name": "COLORADO/6TH", "location_type": null, "platform_code": null, "zone_id": null}]
