[{"stop_lat": 30.439972, "stop_timezone": null, "wheelchair_boarding": 0, "stop_code": "5607", "direction_id": 1, "stop_lon": -97.70124, "parent_station": null, "route_id": "243", "stop_url": null, "stop_sequence": 1, "stop_id": "5607", "stop_desc": "000000 HOWARD & MOPAC", "stop_name": "HOWARD STATION BUS STOP", "location_type": null, "platform_code": null, "zone_id": null}, {"stop_lat": 30.4401, "stop_timezone": null, "wheelchair_boarding": 0, "stop_code": "5305", "direction_id": 1, "stop_lon": -97.69527, "parent_station": null, "route_id": "243", "stop_url": null, "stop_sequence": 2, "stop_id": "5305", "stop_desc": "003301 WELLS BRANCH & HOWARD", "stop_name": "3301 WELLS BRANCH/HOWARD", "location_type": null, "platform_code": null, "zone_id": null}, {"stop_lat": 30.44121, "stop_timezone": null, "wheelchair_boarding": 0, "stop_code": "5278", "direction_id": 1, "stop_lon": -97.692441, "parent_station": null, "route_id": "243", "stop_url": null, "stop_sequence": 3, "stop_id": "5278", "stop_desc": "003001 WELLS BRANCH & SUMMIT", "stop_name": "3001 WELLS BRANCH/SUMMIT", "location_type": null, "platform_code": null, "zone_id": null}, {"stop_lat": 30.44151, "stop_timezone": null, "wheelchair_boarding": 0, "stop_code": "4813", "direction_id": 1, "stop_lon": -97.68998, "parent_station": null, "route_id": "243", "stop_url": null, "stop_sequence": 4, "stop_id": "4813", "stop_desc": "002801 WELLS BRANCH & DOUBLE FILE", "stop_name": "2801 WELLS BRANCH/DOUBLE FILE", "location_type": null, "platform_code": null, "zone_id": null}, {"stop_lat": 30.438537, "stop_timezone": null, "wheelchair_boarding": 0, "stop_code": "4815", "direction_id": 1, "stop_lon": -97.685392, "parent_station": null, "route_id": "243", "stop_url": null, "stop_sequence": 5, "stop_id": "4815", "stop_desc": "002301 WELLS BRANCH & MERRILLTOWN", "stop_name": "2301 WELLS BRANCH/MERRILLTOWN", "location_type": null, "platform_code": null, "zone_id": null}, {"stop_lat": 30.448977, "stop_timezone": null, "wheelchair_boarding": 0, "stop_code": "5296", "direction_id": 1, "stop_lon": -97.692829, "parent_station": null, "route_id": "243", "stop_url": null, "stop_sequence": 5, "stop_id": "5296", "stop_desc": "014745 MERRILLTOWN & YORA", "stop_name": "MERRILLTOWN/YORA", "location_type": null, "platform_code": null, "zone_id": null}, {"stop_lat": 30.43641, "stop_timezone": null, "wheelchair_boarding": 0, "stop_code": "4817", "direction_id": 1, "stop_lon": -97.68383, "parent_station": null, "route_id": "243", "stop_url": null, "stop_sequence": 6, "stop_id": "4817", "stop_desc": "002107 WELLS BRANCH & RENAISSANCE", "stop_name": "2107 WELLS BRANCH/RENAISSANCE", "location_type": null, "platform_code": null, "zone_id": null}, {"stop_lat": 30.439972, "stop_timezone": null, "wheelchair_boarding": 0, "stop_code": "5607", "direction_id": 1, "stop_lon": -97.70124, "parent_station": null, "route_id": "243", "stop_url": null, "stop_sequence": 6, "stop_id": "5607", "stop_desc": "000000 HOWARD & MOPAC", "stop_name": "HOWARD STATION BUS STOP", "location_type": null, "platform_code": null, "zone_id": null}, {"stop_lat": 30.4401, "stop_timezone": null, "wheelchair_boarding": 0, "stop_code": "5305", "direction_id": 1, "stop_lon": -97.69527, "parent_station": null, "route_id": "243", "stop_url": null, "stop_sequence": 7, "stop_id": "5305", "stop_desc": "003301 WELLS BRANCH & HOWARD", "stop_name": "3301 WELLS BRANCH/HOWARD", "location_type": null, "platform_code": null, "zone_id": null}, {"stop_lat": 30.43459, "stop_timezone": null, "wheelchair_boarding": 0, "stop_code": "5342", "direction_id": 1, "stop_lon": -97.67814, "parent_station": null, "route_id": "243", "stop_url": null, "stop_sequence": 7, "stop_id": "5342", "stop_desc": "001831 WELLS BRANCH & THERMAL", "stop_name": "1831 WELLS BRANCH/THERMAL", "location_type": null, "platform_code": null, "zone_id": null}, {"stop_lat": 30.44121, "stop_timezone": null, "wheelchair_boarding": 0, "stop_code": "5278", "direction_id": 1, "stop_lon": -97.692441, "parent_station": null, "route_id": "243", "stop_url": null, "stop_sequence": 8, "stop_id": "5278", "stop_desc": "003001 WELLS BRANCH & SUMMIT", "stop_name": "3001 WELLS BRANCH/SUMMIT", "location_type": null, "platform_code": null, "zone_id": null}, {"stop_lat": 30.435736, "stop_timezone": null, "wheelchair_boarding": 0, "stop_code": "5761", "direction_id": 1, "stop_lon": -97.67502, "parent_station": null, "route_id": "243", "stop_url": null, "stop_sequence": 8, "stop_id": "5761", "stop_desc": "001779 WELLS BRANCH & WELLS PORT", "stop_name": "1779 WELLS BRANCH/WELLS PORT", "location_type": null, "platform_code": null, "zone_id": null}, {"stop_lat": 30.44151, "stop_timezone": null, "wheelchair_boarding": 0, "stop_code": "4813", "direction_id": 1, "stop_lon": -97.68998, "parent_station": null, "route_id": "243", "stop_url": null, "stop_sequence": 9, "stop_id": "4813", "stop_desc": "002801 WELLS BRANCH & DOUBLE FILE", "stop_name": "2801 WELLS BRANCH/DOUBLE FILE", "location_type": null, "platform_code": null, "zone_id": null}, {"stop_lat": 30.441022, "stop_timezone": null, "wheelchair_boarding": 0, "stop_code": "5765", "direction_id": 1, "stop_lon": -97.664663, "parent_station": null, "route_id": "243", "stop_url": null, "stop_sequence": 9, "stop_id": "5765", "stop_desc": "001425 WELLS BRANCH & FM 1825", "stop_name": "1425 WELLS BRANCH/FM 1825", "location_type": null, "platform_code": null, "zone_id": null}, {"stop_lat": 30.438537, "stop_timezone": null, "wheelchair_boarding": 0, "stop_code": "4815", "direction_id": 1, "stop_lon": -97.685392, "parent_station": null, "route_id": "243", "stop_url": null, "stop_sequence": 10, "stop_id": "4815", "stop_desc": "002301 WELLS BRANCH & MERRILLTOWN", "stop_name": "2301 WELLS BRANCH/MERRILLTOWN", "location_type": null, "platform_code": null, "zone_id": null}, {"stop_lat": 30.437941, "stop_timezone": null, "wheelchair_boarding": 0, "stop_code": "5767", "direction_id": 1, "stop_lon": -97.658872, "parent_station": null, "route_id": "243", "stop_url": null, "stop_sequence": 10, "stop_id": "5767", "stop_desc": "001113 WELLS BRANCH & DRUSILLAS", "stop_name": "1113 WELLS BRANCH/DRUSILLAS", "location_type": null, "platform_code": null, "zone_id": null}, {"stop_lat": 30.43641, "stop_timezone": null, "wheelchair_boarding": 0, "stop_code": "4817", "direction_id": 1, "stop_lon": -97.68383, "parent_station": null, "route_id": "243", "stop_url": null, "stop_sequence": 11, "stop_id": "4817", "stop_desc": "002107 WELLS BRANCH & RENAISSANCE", "stop_name": "2107 WELLS BRANCH/RENAISSANCE", "location_type": null, "platform_code": null, "zone_id": null}, {"stop_lat": 30.432288, "stop_timezone": null, "wheelchair_boarding": 0, "stop_code": "5768", "direction_id": 1, "stop_lon": -97.654196, "parent_station": null, "route_id": "243", "stop_url": null, "stop_sequence": 11, "stop_id": "5768", "stop_desc": "001600 HEATHERWILDE & WELLS BRANCH", "stop_name": "1600 HEATHERWILDE/WELLS BRANCH", "location_type": null, "platform_code": null, "zone_id": null}, {"stop_lat": 30.43459, "stop_timezone": null, "wheelchair_boarding": 0, "stop_code": "5342", "direction_id": 1, "stop_lon": -97.67814, "parent_station": null, "route_id": "243", "stop_url": null, "stop_sequence": 12, "stop_id": "5342", "stop_desc": "001831 WELLS BRANCH & THERMAL", "stop_name": "1831 WELLS BRANCH/THERMAL", "location_type": null, "platform_code": null, "zone_id": null}, {"stop_lat": 30.422266, "stop_timezone": null, "wheelchair_boarding": 0, "stop_code": "5771", "direction_id": 1, "stop_lon": -97.659205, "parent_station": null, "route_id": "243", "stop_url": null, "stop_sequence": 12, "stop_id": "5771", "stop_desc": "002600 HEATHERWILDE & WILD SENNA", "stop_name": "2600 HEATHERWILDE/WILD SENNA", "location_type": null, "platform_code": null, "zone_id": null}, {"stop_lat": 30.435736, "stop_timezone": null, "wheelchair_boarding": 0, "stop_code": "5761", "direction_id": 1, "stop_lon": -97.67502, "parent_station": null, "route_id": "243", "stop_url": null, "stop_sequence": 13, "stop_id": "5761", "stop_desc": "001779 WELLS BRANCH & WELLS PORT", "stop_name": "1779 WELLS BRANCH/WELLS PORT", "location_type": null, "platform_code": null, "zone_id": null}, {"stop_lat": 30.417569, "stop_timezone": null, "wheelchair_boarding": 0, "stop_code": "5795", "direction_id": 1, "stop_lon": -97.662282, "parent_station": null, "route_id": "243", "stop_url": null, "stop_sequence": 13, "stop_id": "5795", "stop_desc": "000000 MCCALLEN & HOWARD", "stop_name": "MCCALLEN/HOWARD", "location_type": null, "platform_code": null, "zone_id": null}, {"stop_lat": 30.418565, "stop_timezone": null, "wheelchair_boarding": 0, "stop_code": "5301", "direction_id": 1, "stop_lon": -97.669112, "parent_station": null, "route_id": "243", "stop_url": null, "stop_sequence": 14, "stop_id": "5301", "stop_desc": "00900E CENTER RIDGE & CENTER LINE", "stop_name": "TECH RIDGE BAY E", "location_type": null, "platform_code": null, "zone_id": null}, {"stop_lat": 30.441022, "stop_timezone": null, "wheelchair_boarding": 0, "stop_code": "5765", "direction_id": 1, "stop_lon": -97.664663, "parent_station": null, "route_id": "243", "stop_url": null, "stop_sequence": 14, "stop_id": "5765", "stop_desc": "001425 WELLS BRANCH & FM 1825", "stop_name": "1425 WELLS BRANCH/FM 1825", "location_type": null, "platform_code": null, "zone_id": null}, {"stop_lat": 30.437941, "stop_timezone": null, "wheelchair_boarding": 0, "stop_code": "5767", "direction_id": 1, "stop_lon": -97.658872, "parent_station": null, "route_id": "243", "stop_url": null, "stop_sequence": 15, "stop_id": "5767", "stop_desc": "001113 WELLS BRANCH & DRUSILLAS", "stop_name": "1113 WELLS BRANCH/DRUSILLAS", "location_type": null, "platform_code": null, "zone_id": null}, {"stop_lat": 30.432288, "stop_timezone": null, "wheelchair_boarding": 0, "stop_code": "5768", "direction_id": 1, "stop_lon": -97.654196, "parent_station": null, "route_id": "243", "stop_url": null, "stop_sequence": 16, "stop_id": "5768", "stop_desc": "001600 HEATHERWILDE & WELLS BRANCH", "stop_name": "1600 HEATHERWILDE/WELLS BRANCH", "location_type": null, "platform_code": null, "zone_id": null}, {"stop_lat": 30.422266, "stop_timezone": null, "wheelchair_boarding": 0, "stop_code": "5771", "direction_id": 1, "stop_lon": -97.659205, "parent_station": null, "route_id": "243", "stop_url": null, "stop_sequence": 17, "stop_id": "5771", "stop_desc": "002600 HEATHERWILDE & WILD SENNA", "stop_name": "2600 HEATHERWILDE/WILD SENNA", "location_type": null, "platform_code": null, "zone_id": null}, {"stop_lat": 30.417569, "stop_timezone": null, "wheelchair_boarding": 0, "stop_code": "5795", "direction_id": 1, "stop_lon": -97.662282, "parent_station": null, "route_id": "243", "stop_url": null, "stop_sequence": 18, "stop_id": "5795", "stop_desc": "000000 MCCALLEN & HOWARD", "stop_name": "MCCALLEN/HOWARD", "location_type": null, "platform_code": null, "zone_id": null}, {"stop_lat": 30.418565, "stop_timezone": null, "wheelchair_boarding": 0, "stop_code": "5301", "direction_id": 1, "stop_lon": -97.669112, "parent_station": null, "route_id": "243", "stop_url": null, "stop_sequence": 19, "stop_id": "5301", "stop_desc": "00900E CENTER RIDGE & CENTER LINE", "stop_name": "TECH RIDGE BAY E", "location_type": null, "platform_code": null, "zone_id": null}]
