[{"stop_lat": 30.236214, "stop_timezone": null, "wheelchair_boarding": 0, "stop_code": "831", "direction_id": 1, "stop_lon": -97.704856, "parent_station": null, "route_id": "271", "stop_url": null, "stop_sequence": 1, "stop_id": "831", "stop_desc": "001020 ACC & GROVE", "stop_name": "ACC RIVERSIDE CAMPUS STOP", "location_type": null, "platform_code": null, "zone_id": null}, {"stop_lat": 30.212705, "stop_timezone": null, "wheelchair_boarding": 0, "stop_code": "5045", "direction_id": 1, "stop_lon": -97.65909, "parent_station": null, "route_id": "271", "stop_url": null, "stop_sequence": 2, "stop_id": "5045", "stop_desc": "002474 SH 71 & PRESIDENTIAL", "stop_name": "2474 SH 71/PRESIDENTIAL", "location_type": null, "platform_code": null, "zone_id": null}, {"stop_lat": 30.204687, "stop_timezone": null, "wheelchair_boarding": 0, "stop_code": "5797", "direction_id": 1, "stop_lon": -97.642909, "parent_station": null, "route_id": "271", "stop_url": null, "stop_sequence": 3, "stop_id": "5797", "stop_desc": "000000 SH 71 & CHEVIOT", "stop_name": "SH 71/CHEVIOT (EB)", "location_type": null, "platform_code": null, "zone_id": null}, {"stop_lat": 30.171314, "stop_timezone": null, "wheelchair_boarding": 0, "stop_code": "5980", "direction_id": 1, "stop_lon": -97.627242, "parent_station": null, "route_id": "271", "stop_url": null, "stop_sequence": 4, "stop_id": "5980", "stop_desc": "012323 PEARCE & LAS ALAS", "stop_name": "12323 PEARCE/LAS ALAS", "location_type": null, "platform_code": null, "zone_id": null}, {"stop_lat": 30.172853, "stop_timezone": null, "wheelchair_boarding": 0, "stop_code": "5986", "direction_id": 1, "stop_lon": -97.617366, "parent_station": null, "route_id": "271", "stop_url": null, "stop_sequence": 5, "stop_id": "5986", "stop_desc": "012905 THOME VALLEY & ALOMAR", "stop_name": "12905 THOME VALLEY/ALOMAR", "location_type": null, "platform_code": null, "zone_id": null}, {"stop_lat": 30.174761, "stop_timezone": null, "wheelchair_boarding": 0, "stop_code": "5989", "direction_id": 1, "stop_lon": -97.61346, "parent_station": null, "route_id": "271", "stop_url": null, "stop_sequence": 6, "stop_id": "5989", "stop_desc": "000000 GILWELL & JUSTICE", "stop_name": "GILWELL/JUSTICE", "location_type": null, "platform_code": null, "zone_id": null}, {"stop_lat": 30.175667, "stop_timezone": null, "wheelchair_boarding": 0, "stop_code": "5991", "direction_id": 1, "stop_lon": -97.616277, "parent_station": null, "route_id": "271", "stop_url": null, "stop_sequence": 7, "stop_id": "5991", "stop_desc": "000000 GILWELL & MATHRA", "stop_name": "GILWELL/MATHRA", "location_type": null, "platform_code": null, "zone_id": null}, {"stop_lat": 30.177571, "stop_timezone": null, "wheelchair_boarding": 0, "stop_code": "5927", "direction_id": 1, "stop_lon": -97.614481, "parent_station": null, "route_id": "271", "stop_url": null, "stop_sequence": 8, "stop_id": "5927", "stop_desc": "000000 DEL VALLE ISD & ROSS", "stop_name": "DEL VALLE HIGH (TENNIS COURTS)", "location_type": null, "platform_code": null, "zone_id": null}, {"stop_lat": 30.174866, "stop_timezone": null, "wheelchair_boarding": 0, "stop_code": "5622", "direction_id": 1, "stop_lon": -97.610837, "parent_station": null, "route_id": "271", "stop_url": null, "stop_sequence": 9, "stop_id": "5622", "stop_desc": "000000 DEL VALLE ISD & ROSS", "stop_name": "DEL VALLE ISD", "location_type": null, "platform_code": null, "zone_id": null}]
