[{"stop_lat": 30.314779, "stop_timezone": null, "wheelchair_boarding": 0, "stop_code": "1398", "direction_id": 1, "stop_lon": -97.692038, "parent_station": null, "route_id": "300", "stop_url": null, "stop_sequence": 1, "stop_id": "1398", "stop_desc": "006001 BERKMAN & BRIARCLIFF", "stop_name": "6001 BERKMAN/BRIARCLIFF", "location_type": null, "platform_code": null, "zone_id": null}, {"stop_lat": 30.222917, "stop_timezone": null, "wheelchair_boarding": 0, "stop_code": "5544", "direction_id": 1, "stop_lon": -97.766932, "parent_station": null, "route_id": "300", "stop_url": null, "stop_sequence": 1, "stop_id": "5544", "stop_desc": "000301 BEN WHITE & CONGRESS", "stop_name": "SOUTH CONGRESS BAY B", "location_type": null, "platform_code": null, "zone_id": null}, {"stop_lat": 30.31646, "stop_timezone": null, "wheelchair_boarding": 0, "stop_code": "1399", "direction_id": 1, "stop_lon": -97.691029, "parent_station": null, "route_id": "300", "stop_url": null, "stop_sequence": 2, "stop_id": "1399", "stop_desc": "006207 BERKMAN & GLEN VALLEY", "stop_name": "6207 BERKMAN/GLEN VALLEY", "location_type": null, "platform_code": null, "zone_id": null}, {"stop_lat": 30.219246, "stop_timezone": null, "wheelchair_boarding": 0, "stop_code": "5711", "direction_id": 1, "stop_lon": -97.757736, "parent_station": null, "route_id": "300", "stop_url": null, "stop_sequence": 2, "stop_id": "5711", "stop_desc": "000525 BEN WHITE & TERRY O", "stop_name": "525 BEN WHITE/TERRY O", "location_type": null, "platform_code": null, "zone_id": null}, {"stop_lat": 30.318728, "stop_timezone": null, "wheelchair_boarding": 0, "stop_code": "1400", "direction_id": 1, "stop_lon": -97.689634, "parent_station": null, "route_id": "300", "stop_url": null, "stop_sequence": 3, "stop_id": "1400", "stop_desc": "006509 BERKMAN & WHELESS", "stop_name": "6509 BERKMAN/WHELESS", "location_type": null, "platform_code": null, "zone_id": null}, {"stop_lat": 30.21557, "stop_timezone": null, "wheelchair_boarding": 0, "stop_code": "5259", "direction_id": 1, "stop_lon": -97.74858, "parent_station": null, "route_id": "300", "stop_url": null, "stop_sequence": 3, "stop_id": "5259", "stop_desc": "001800 BEN WHITE & GOVERNORS ROW", "stop_name": "BEN WHITE/GOVERNORS ROW", "location_type": null, "platform_code": null, "zone_id": null}, {"stop_lat": 30.320741, "stop_timezone": null, "wheelchair_boarding": 0, "stop_code": "1401", "direction_id": 1, "stop_lon": -97.688771, "parent_station": null, "route_id": "300", "stop_url": null, "stop_sequence": 4, "stop_id": "1401", "stop_desc": "006800 BERKMAN & US 290", "stop_name": "BERKMAN/US 290 SE CORNER", "location_type": null, "platform_code": null, "zone_id": null}, {"stop_lat": 30.217996, "stop_timezone": null, "wheelchair_boarding": 0, "stop_code": "5663", "direction_id": 1, "stop_lon": -97.743796, "parent_station": null, "route_id": "300", "stop_url": null, "stop_sequence": 4, "stop_id": "5663", "stop_desc": "002000 WOODWARD & BEN WHITE", "stop_name": "2000 WOODWARD/BEN WHITE", "location_type": null, "platform_code": null, "zone_id": null}, {"stop_lat": 30.21946, "stop_timezone": null, "wheelchair_boarding": 0, "stop_code": "1235", "direction_id": 1, "stop_lon": -97.74379, "parent_station": null, "route_id": "300", "stop_url": null, "stop_sequence": 5, "stop_id": "1235", "stop_desc": "001901 WOODWARD & PARKER", "stop_name": "1901 WOODWARD/PARKER", "location_type": null, "platform_code": null, "zone_id": null}, {"stop_lat": 30.32244, "stop_timezone": null, "wheelchair_boarding": 0, "stop_code": "1402", "direction_id": 1, "stop_lon": -97.68899, "parent_station": null, "route_id": "300", "stop_url": null, "stop_sequence": 5, "stop_id": "1402", "stop_desc": "007000 BERKMAN & US 290", "stop_name": "BERKMAN/US 290 NE CORNER", "location_type": null, "platform_code": null, "zone_id": null}, {"stop_lat": 30.325726, "stop_timezone": null, "wheelchair_boarding": 0, "stop_code": "1404", "direction_id": 1, "stop_lon": -97.688497, "parent_station": null, "route_id": "300", "stop_url": null, "stop_sequence": 6, "stop_id": "1404", "stop_desc": "007249 BERKMAN & REAGAN HILL", "stop_name": "7249 BERKMAN/REAGAN HILL", "location_type": null, "platform_code": null, "zone_id": null}, {"stop_lat": 30.220006, "stop_timezone": null, "wheelchair_boarding": 0, "stop_code": "5456", "direction_id": 1, "stop_lon": -97.742966, "parent_station": null, "route_id": "300", "stop_url": null, "stop_sequence": 6, "stop_id": "5456", "stop_desc": "003435 PARKER & WOODWARD", "stop_name": "MABEL DAVIS PARK", "location_type": null, "platform_code": null, "zone_id": null}, {"stop_lat": 30.32729, "stop_timezone": null, "wheelchair_boarding": 0, "stop_code": "1405", "direction_id": 1, "stop_lon": -97.688273, "parent_station": null, "route_id": "300", "stop_url": null, "stop_sequence": 7, "stop_id": "1405", "stop_desc": "001500 CORONADO HILLS & BERKMAN", "stop_name": "CORONADO HILLS/BERKMAN", "location_type": null, "platform_code": null, "zone_id": null}, {"stop_lat": 30.222918, "stop_timezone": null, "wheelchair_boarding": 0, "stop_code": "4324", "direction_id": 1, "stop_lon": -97.7421, "parent_station": null, "route_id": "300", "stop_url": null, "stop_sequence": 7, "stop_id": "4324", "stop_desc": "003301 PARKER & TIMBER RIDGE", "stop_name": "3301 PARKER/TIMBER RIDGE", "location_type": null, "platform_code": null, "zone_id": null}, {"stop_lat": 30.22452, "stop_timezone": null, "wheelchair_boarding": 0, "stop_code": "1237", "direction_id": 1, "stop_lon": -97.74216, "parent_station": null, "route_id": "300", "stop_url": null, "stop_sequence": 8, "stop_id": "1237", "stop_desc": "003101 PARKER & WICKSHIRE", "stop_name": "3101 PARKER/WICKSHIRE", "location_type": null, "platform_code": null, "zone_id": null}, {"stop_lat": 30.328718, "stop_timezone": null, "wheelchair_boarding": 0, "stop_code": "1406", "direction_id": 1, "stop_lon": -97.689587, "parent_station": null, "route_id": "300", "stop_url": null, "stop_sequence": 8, "stop_id": "1406", "stop_desc": "001430 CORONADO HILLS & CAMERON", "stop_name": "1430 CORONADO HILLS/CAMERON", "location_type": null, "platform_code": null, "zone_id": null}, {"stop_lat": 30.22738, "stop_timezone": null, "wheelchair_boarding": 0, "stop_code": "1238", "direction_id": 1, "stop_lon": -97.74039, "parent_station": null, "route_id": "300", "stop_url": null, "stop_sequence": 9, "stop_id": "1238", "stop_desc": "002801 PARKER & ROYAL HILL", "stop_name": "2801 PARKER/ROYAL HILL", "location_type": null, "platform_code": null, "zone_id": null}, {"stop_lat": 30.32629, "stop_timezone": null, "wheelchair_boarding": 0, "stop_code": "1407", "direction_id": 1, "stop_lon": -97.69233, "parent_station": null, "route_id": "300", "stop_url": null, "stop_sequence": 9, "stop_id": "1407", "stop_desc": "007200 CAMERON & ST JOHNS", "stop_name": "7200 CAMERON/ST JOHNS", "location_type": null, "platform_code": null, "zone_id": null}, {"stop_lat": 30.230144, "stop_timezone": null, "wheelchair_boarding": 0, "stop_code": "1239", "direction_id": 1, "stop_lon": -97.7382, "parent_station": null, "route_id": "300", "stop_url": null, "stop_sequence": 10, "stop_id": "1239", "stop_desc": "002501 PARKER & BRAXTON", "stop_name": "2501 PARKER/BRAXTON", "location_type": null, "platform_code": null, "zone_id": null}, {"stop_lat": 30.32838, "stop_timezone": null, "wheelchair_boarding": 0, "stop_code": "5505", "direction_id": 1, "stop_lon": -97.694615, "parent_station": null, "route_id": "300", "stop_url": null, "stop_sequence": 10, "stop_id": "5505", "stop_desc": "001120 ST JOHNS & GRAND CANYON", "stop_name": "1120 ST JOHNS/GRAND CANYON", "location_type": null, "platform_code": null, "zone_id": null}, {"stop_lat": 30.23212, "stop_timezone": null, "wheelchair_boarding": 0, "stop_code": "1240", "direction_id": 1, "stop_lon": -97.73693, "parent_station": null, "route_id": "300", "stop_url": null, "stop_sequence": 11, "stop_id": "1240", "stop_desc": "002301 PARKER & OLTORF", "stop_name": "2301 PARKER/OLTORF", "location_type": null, "platform_code": null, "zone_id": null}, {"stop_lat": 30.32925, "stop_timezone": null, "wheelchair_boarding": 0, "stop_code": "1408", "direction_id": 1, "stop_lon": -97.69644, "parent_station": null, "route_id": "300", "stop_url": null, "stop_sequence": 11, "stop_id": "1408", "stop_desc": "001034 ST JOHNS & MEADOR", "stop_name": "1034 ST JOHNS/MEADOR", "location_type": null, "platform_code": null, "zone_id": null}, {"stop_lat": 30.33032, "stop_timezone": null, "wheelchair_boarding": 0, "stop_code": "1409", "direction_id": 1, "stop_lon": -97.69854, "parent_station": null, "route_id": "300", "stop_url": null, "stop_sequence": 12, "stop_id": "1409", "stop_desc": "001008 ST JOHNS & BETHUNE", "stop_name": "1008 ST JOHNS/BETHUNE", "location_type": null, "platform_code": null, "zone_id": null}, {"stop_lat": 30.231078, "stop_timezone": null, "wheelchair_boarding": 0, "stop_code": "4290", "direction_id": 1, "stop_lon": -97.735306, "parent_station": null, "route_id": "300", "stop_url": null, "stop_sequence": 12, "stop_id": "4290", "stop_desc": "001900 OLTORF & BURLESON", "stop_name": "OLTORF/BURLESON", "location_type": null, "platform_code": null, "zone_id": null}, {"stop_lat": 30.331118, "stop_timezone": null, "wheelchair_boarding": 0, "stop_code": "1410", "direction_id": 1, "stop_lon": -97.700252, "parent_station": null, "route_id": "300", "stop_url": null, "stop_sequence": 13, "stop_id": "1410", "stop_desc": "000900 ST JOHNS & BENNETT", "stop_name": "900 ST JOHNS/BENNETT", "location_type": null, "platform_code": null, "zone_id": null}, {"stop_lat": 30.23028, "stop_timezone": null, "wheelchair_boarding": 0, "stop_code": "4296", "direction_id": 1, "stop_lon": -97.73237, "parent_station": null, "route_id": "300", "stop_url": null, "stop_sequence": 13, "stop_id": "4296", "stop_desc": "002121 OLTORF & BURTON", "stop_name": "OLTORF/BURTON", "location_type": null, "platform_code": null, "zone_id": null}, {"stop_lat": 30.228028, "stop_timezone": null, "wheelchair_boarding": 0, "stop_code": "1027", "direction_id": 1, "stop_lon": -97.727241, "parent_station": null, "route_id": "300", "stop_url": null, "stop_sequence": 14, "stop_id": "1027", "stop_desc": "002433 PLEASANT VALLEY & OLTORF", "stop_name": "2433 PLEASANT VALLEY/OLTORF", "location_type": null, "platform_code": null, "zone_id": null}, {"stop_lat": 30.332336, "stop_timezone": null, "wheelchair_boarding": 0, "stop_code": "2872", "direction_id": 1, "stop_lon": -97.702985, "parent_station": null, "route_id": "300", "stop_url": null, "stop_sequence": 14, "stop_id": "2872", "stop_desc": "000800 ST JOHNS & IH 35", "stop_name": "800 ST JOHNS/IH 35", "location_type": null, "platform_code": null, "zone_id": null}, {"stop_lat": 30.2311, "stop_timezone": null, "wheelchair_boarding": 0, "stop_code": "1028", "direction_id": 1, "stop_lon": -97.7253, "parent_station": null, "route_id": "300", "stop_url": null, "stop_sequence": 15, "stop_id": "1028", "stop_desc": "002209 PLEASANT VALLEY & SHERINGHAM", "stop_name": "2209 PLEASANT VALLEY/SHERINGHAM", "location_type": null, "platform_code": null, "zone_id": null}, {"stop_lat": 30.333174, "stop_timezone": null, "wheelchair_boarding": 0, "stop_code": "1412", "direction_id": 1, "stop_lon": -97.706079, "parent_station": null, "route_id": "300", "stop_url": null, "stop_sequence": 15, "stop_id": "1412", "stop_desc": "007100 ROLAND JOHNSON & ST JOHNS", "stop_name": "7100 ROLAND JOHNSON/ST JOHNS", "location_type": null, "platform_code": null, "zone_id": null}, {"stop_lat": 30.330907, "stop_timezone": null, "wheelchair_boarding": 0, "stop_code": "1413", "direction_id": 1, "stop_lon": -97.706983, "parent_station": null, "route_id": "300", "stop_url": null, "stop_sequence": 16, "stop_id": "1413", "stop_desc": "006970 ROLAND JOHNSON & HUNTLAND", "stop_name": "6970 ROLAND JOHNSON/HUNTLAND", "location_type": null, "platform_code": null, "zone_id": null}, {"stop_lat": 30.235778, "stop_timezone": null, "wheelchair_boarding": 0, "stop_code": "5779", "direction_id": 1, "stop_lon": -97.721346, "parent_station": null, "route_id": "300", "stop_url": null, "stop_sequence": 16, "stop_id": "5779", "stop_desc": "001717 PLEASANT VALLEY & RIVERSIDE", "stop_name": "1717 PLEASANT VALLEY/RIVERSIDE", "location_type": null, "platform_code": null, "zone_id": null}, {"stop_lat": 30.33085, "stop_timezone": null, "wheelchair_boarding": 0, "stop_code": "1414", "direction_id": 1, "stop_lon": -97.71068, "parent_station": null, "route_id": "300", "stop_url": null, "stop_sequence": 17, "stop_id": "1414", "stop_desc": "000300 HUNTLAND & BRENDA", "stop_name": "300 HUNTLAND/BRENDA", "location_type": null, "platform_code": null, "zone_id": null}, {"stop_lat": 30.239813, "stop_timezone": null, "wheelchair_boarding": 0, "stop_code": "4284", "direction_id": 1, "stop_lon": -97.718786, "parent_station": null, "route_id": "300", "stop_url": null, "stop_sequence": 17, "stop_id": "4284", "stop_desc": "001225 PLEASANT VALLEY & ELMONT", "stop_name": "1225 PLEASANT VALLEY/ELMONT", "location_type": null, "platform_code": null, "zone_id": null}, {"stop_lat": 30.24229, "stop_timezone": null, "wheelchair_boarding": 0, "stop_code": "1364", "direction_id": 1, "stop_lon": -97.71721, "parent_station": null, "route_id": "300", "stop_url": null, "stop_sequence": 18, "stop_id": "1364", "stop_desc": "001100 PLEASANT VALLEY & LAKESHORE", "stop_name": "1100 PLEASANT VALLEY/LAKESHORE", "location_type": null, "platform_code": null, "zone_id": null}, {"stop_lat": 30.328767, "stop_timezone": null, "wheelchair_boarding": 0, "stop_code": "1415", "direction_id": 1, "stop_lon": -97.713056, "parent_station": null, "route_id": "300", "stop_url": null, "stop_sequence": 18, "stop_id": "1415", "stop_desc": "006500 JONATHON & HIGHLAND MALL", "stop_name": "6500 JONATHAN DR (HIGHLAND MALL)", "location_type": null, "platform_code": null, "zone_id": null}, {"stop_lat": 30.333977, "stop_timezone": null, "wheelchair_boarding": 0, "stop_code": "1273", "direction_id": 1, "stop_lon": -97.716818, "parent_station": null, "route_id": "300", "stop_url": null, "stop_sequence": 19, "stop_id": "1273", "stop_desc": "006902 AIRPORT & GUADALUPE", "stop_name": "6902 AIRPORT BLVD/GUADALUPE", "location_type": null, "platform_code": null, "zone_id": null}, {"stop_lat": 30.24585, "stop_timezone": null, "wheelchair_boarding": 0, "stop_code": "1365", "direction_id": 1, "stop_lon": -97.71495, "parent_station": null, "route_id": "300", "stop_url": null, "stop_sequence": 19, "stop_id": "1365", "stop_desc": "000517 PLEASANT VALLEY & CANTERBURY", "stop_name": "517 PLEASANT VALLEY (KRIEG FIELD)", "location_type": null, "platform_code": null, "zone_id": null}, {"stop_lat": 30.25371, "stop_timezone": null, "wheelchair_boarding": 0, "stop_code": "1366", "direction_id": 1, "stop_lon": -97.712369, "parent_station": null, "route_id": "300", "stop_url": null, "stop_sequence": 20, "stop_id": "1366", "stop_desc": "000100 PLEASANT VALLEY & 2ND", "stop_name": "PLEASANT VALLEY/2ND", "location_type": null, "platform_code": null, "zone_id": null}, {"stop_lat": 30.336072, "stop_timezone": null, "wheelchair_boarding": 0, "stop_code": "5509", "direction_id": 1, "stop_lon": -97.717896, "parent_station": null, "route_id": "300", "stop_url": null, "stop_sequence": 20, "stop_id": "5509", "stop_desc": "006903 AIRPORT & KENNISTON", "stop_name": "6903 AIRPORT/KENNISTON", "location_type": null, "platform_code": null, "zone_id": null}, {"stop_lat": 30.255151, "stop_timezone": null, "wheelchair_boarding": 0, "stop_code": "1367", "direction_id": 1, "stop_lon": -97.7117, "parent_station": null, "route_id": "300", "stop_url": null, "stop_sequence": 21, "stop_id": "1367", "stop_desc": "000301 PLEASANT VALLEY & 3RD", "stop_name": "301 PLEASANT VALLEY/3RD", "location_type": null, "platform_code": null, "zone_id": null}, {"stop_lat": 30.33926, "stop_timezone": null, "wheelchair_boarding": 0, "stop_code": "2878", "direction_id": 1, "stop_lon": -97.71778, "parent_station": null, "route_id": "300", "stop_url": null, "stop_sequence": 21, "stop_id": "2878", "stop_desc": "007135 LAMAR & ST JOHNS", "stop_name": "7135 LAMAR/ST JOHNS", "location_type": null, "platform_code": null, "zone_id": null}, {"stop_lat": 30.257417, "stop_timezone": null, "wheelchair_boarding": 0, "stop_code": "1368", "direction_id": 1, "stop_lon": -97.710603, "parent_station": null, "route_id": "300", "stop_url": null, "stop_sequence": 22, "stop_id": "1368", "stop_desc": "000501 PLEASANT VALLEY & 5TH", "stop_name": "501 PLEASANT VALLEY/5TH (CAPMETRO)", "location_type": null, "platform_code": null, "zone_id": null}, {"stop_lat": 30.34111, "stop_timezone": null, "wheelchair_boarding": 0, "stop_code": "1417", "direction_id": 1, "stop_lon": -97.71661, "parent_station": null, "route_id": "300", "stop_url": null, "stop_sequence": 22, "stop_id": "1417", "stop_desc": "007401 LAMAR & ST JOHNS", "stop_name": "7401 LAMAR/ST JOHNS", "location_type": null, "platform_code": null, "zone_id": null}, {"stop_lat": 30.259868, "stop_timezone": null, "wheelchair_boarding": 0, "stop_code": "1369", "direction_id": 1, "stop_lon": -97.709478, "parent_station": null, "route_id": "300", "stop_url": null, "stop_sequence": 23, "stop_id": "1369", "stop_desc": "000651 PLEASANT VALLEY & 7TH", "stop_name": "651 PLEASANT VALLEY/7TH", "location_type": null, "platform_code": null, "zone_id": null}, {"stop_lat": 30.34385, "stop_timezone": null, "wheelchair_boarding": 0, "stop_code": "622", "direction_id": 1, "stop_lon": -97.71492, "parent_station": null, "route_id": "300", "stop_url": null, "stop_sequence": 23, "stop_id": "622", "stop_desc": "007545 LAMAR & MORROW", "stop_name": "7545 LAMAR/MORROW", "location_type": null, "platform_code": null, "zone_id": null}, {"stop_lat": 30.26174, "stop_timezone": null, "wheelchair_boarding": 0, "stop_code": "1811", "direction_id": 1, "stop_lon": -97.70882, "parent_station": null, "route_id": "300", "stop_url": null, "stop_sequence": 24, "stop_id": "1811", "stop_desc": "000795 PLEASANT VALLEY & PRADO", "stop_name": "795 PLEASANT VALLEY/PRADO", "location_type": null, "platform_code": null, "zone_id": null}, {"stop_lat": 30.350167, "stop_timezone": null, "wheelchair_boarding": 0, "stop_code": "5226", "direction_id": 1, "stop_lon": -97.712099, "parent_station": null, "route_id": "300", "stop_url": null, "stop_sequence": 24, "stop_id": "5226", "stop_desc": "07900B RESEARCH & LAMAR", "stop_name": "NORTH LAMAR BAY 2", "location_type": null, "platform_code": null, "zone_id": null}, {"stop_lat": 30.263527, "stop_timezone": null, "wheelchair_boarding": 0, "stop_code": "1372", "direction_id": 1, "stop_lon": -97.708225, "parent_station": null, "route_id": "300", "stop_url": null, "stop_sequence": 25, "stop_id": "1372", "stop_desc": "000819 PLEASANT VALLEY & LYONS", "stop_name": "819 PLEASANT VALLEY/LYONS", "location_type": null, "platform_code": null, "zone_id": null}, {"stop_lat": 30.2653, "stop_timezone": null, "wheelchair_boarding": 0, "stop_code": "1373", "direction_id": 1, "stop_lon": -97.70876, "parent_station": null, "route_id": "300", "stop_url": null, "stop_sequence": 26, "stop_id": "1373", "stop_desc": "000851 PLEASANT VALLEY & WEBBERVILLE", "stop_name": "851 PLEASANT VALLEY/WEBBERVILLE", "location_type": null, "platform_code": null, "zone_id": null}, {"stop_lat": 30.26771, "stop_timezone": null, "wheelchair_boarding": 0, "stop_code": "5150", "direction_id": 1, "stop_lon": -97.70755, "parent_station": null, "route_id": "300", "stop_url": null, "stop_sequence": 27, "stop_id": "5150", "stop_desc": "003113 WEBBERVILLE & GOVALLE", "stop_name": "3113 WEBBERVILLE/GOVALLE", "location_type": null, "platform_code": null, "zone_id": null}, {"stop_lat": 30.26978, "stop_timezone": null, "wheelchair_boarding": 0, "stop_code": "5148", "direction_id": 1, "stop_lon": -97.70635, "parent_station": null, "route_id": "300", "stop_url": null, "stop_sequence": 28, "stop_id": "5148", "stop_desc": "003459 WEBBERVILLE & BEDFORD", "stop_name": "3459 WEBBERVILLE/BEDFORD", "location_type": null, "platform_code": null, "zone_id": null}, {"stop_lat": 30.270089, "stop_timezone": null, "wheelchair_boarding": 0, "stop_code": "5401", "direction_id": 1, "stop_lon": -97.702239, "parent_station": null, "route_id": "300", "stop_url": null, "stop_sequence": 29, "stop_id": "5401", "stop_desc": "003001 GOODWIN & TILLERY", "stop_name": "3001 GOODWIN/TILLERY", "location_type": null, "platform_code": null, "zone_id": null}, {"stop_lat": 30.26584, "stop_timezone": null, "wheelchair_boarding": 0, "stop_code": "5130", "direction_id": 1, "stop_lon": -97.70195, "parent_station": null, "route_id": "300", "stop_url": null, "stop_sequence": 30, "stop_id": "5130", "stop_desc": "003201 GOVALLE & TILLERY", "stop_name": "3201 GOVALLE/TILLERY", "location_type": null, "platform_code": null, "zone_id": null}, {"stop_lat": 30.26462, "stop_timezone": null, "wheelchair_boarding": 0, "stop_code": "1377", "direction_id": 1, "stop_lon": -97.69846, "parent_station": null, "route_id": "300", "stop_url": null, "stop_sequence": 31, "stop_id": "1377", "stop_desc": "003601 GOVALLE & GUNTER", "stop_name": "3601 GOVALLE/GUNTER", "location_type": null, "platform_code": null, "zone_id": null}, {"stop_lat": 30.26403, "stop_timezone": null, "wheelchair_boarding": 0, "stop_code": "5465", "direction_id": 1, "stop_lon": -97.69678, "parent_station": null, "route_id": "300", "stop_url": null, "stop_sequence": 32, "stop_id": "5465", "stop_desc": "003710 GOVALLE & SPRINGDALE", "stop_name": "GOVALLE/SPRINGDALE", "location_type": null, "platform_code": null, "zone_id": null}, {"stop_lat": 30.264596, "stop_timezone": null, "wheelchair_boarding": 0, "stop_code": "4534", "direction_id": 1, "stop_lon": -97.696074, "parent_station": null, "route_id": "300", "stop_url": null, "stop_sequence": 33, "stop_id": "4534", "stop_desc": "000961 SPRINGDALE & GOVALLE", "stop_name": "961 SPRINGDALE/GOVALLE", "location_type": null, "platform_code": null, "zone_id": null}, {"stop_lat": 30.267244, "stop_timezone": null, "wheelchair_boarding": 0, "stop_code": "1379", "direction_id": 1, "stop_lon": -97.694388, "parent_station": null, "route_id": "300", "stop_url": null, "stop_sequence": 34, "stop_id": "1379", "stop_desc": "001017 SPRINGDALE & GOODWIN", "stop_name": "1017 SPRINGDALE/GOODWIN", "location_type": null, "platform_code": null, "zone_id": null}, {"stop_lat": 30.27106, "stop_timezone": null, "wheelchair_boarding": 0, "stop_code": "1381", "direction_id": 1, "stop_lon": -97.69193, "parent_station": null, "route_id": "300", "stop_url": null, "stop_sequence": 35, "stop_id": "1381", "stop_desc": "001053 SPRINGDALE & PROCK", "stop_name": "1053 SPRINGDALE/PROCK", "location_type": null, "platform_code": null, "zone_id": null}, {"stop_lat": 30.2743, "stop_timezone": null, "wheelchair_boarding": 0, "stop_code": "1382", "direction_id": 1, "stop_lon": -97.68989, "parent_station": null, "route_id": "300", "stop_url": null, "stop_sequence": 36, "stop_id": "1382", "stop_desc": "001107 SPRINGDALE & LEDESMA", "stop_name": "1107 SPRINGDALE/LEDESMA", "location_type": null, "platform_code": null, "zone_id": null}, {"stop_lat": 30.277096, "stop_timezone": null, "wheelchair_boarding": 0, "stop_code": "1383", "direction_id": 1, "stop_lon": -97.688064, "parent_station": null, "route_id": "300", "stop_url": null, "stop_sequence": 37, "stop_id": "1383", "stop_desc": "001161 SPRINGDALE & WEBBERVILLE", "stop_name": "1161 SPRINGDALE/WEBBERVILLE", "location_type": null, "platform_code": null, "zone_id": null}, {"stop_lat": 30.27992, "stop_timezone": null, "wheelchair_boarding": 0, "stop_code": "1384", "direction_id": 1, "stop_lon": -97.68635, "parent_station": null, "route_id": "300", "stop_url": null, "stop_sequence": 38, "stop_id": "1384", "stop_desc": "001207 SPRINGDALE & 12TH", "stop_name": "1207 SPRINGDALE/12TH", "location_type": null, "platform_code": null, "zone_id": null}, {"stop_lat": 30.28237, "stop_timezone": null, "wheelchair_boarding": 0, "stop_code": "1385", "direction_id": 1, "stop_lon": -97.68482, "parent_station": null, "route_id": "300", "stop_url": null, "stop_sequence": 39, "stop_id": "1385", "stop_desc": "001500 SPRINGDALE & LESLIE", "stop_name": "SPRINGDALE/LESLIE", "location_type": null, "platform_code": null, "zone_id": null}, {"stop_lat": 30.28399, "stop_timezone": null, "wheelchair_boarding": 0, "stop_code": "1386", "direction_id": 1, "stop_lon": -97.68375, "parent_station": null, "route_id": "300", "stop_url": null, "stop_sequence": 40, "stop_id": "1386", "stop_desc": "001700 SPRINGDALE & BANDERA", "stop_name": "SPRINGDALE/BANDERA", "location_type": null, "platform_code": null, "zone_id": null}, {"stop_lat": 30.28557, "stop_timezone": null, "wheelchair_boarding": 0, "stop_code": "1387", "direction_id": 1, "stop_lon": -97.68273, "parent_station": null, "route_id": "300", "stop_url": null, "stop_sequence": 41, "stop_id": "1387", "stop_desc": "001819 SPRINGDALE & MARTIN LUTHER KING", "stop_name": "1819 SPRINGDALE/MARTIN LUTHER KING", "location_type": null, "platform_code": null, "zone_id": null}, {"stop_lat": 30.286366, "stop_timezone": null, "wheelchair_boarding": 0, "stop_code": "4742", "direction_id": 1, "stop_lon": -97.682192, "parent_station": null, "route_id": "300", "stop_url": null, "stop_sequence": 42, "stop_id": "4742", "stop_desc": "004311 SPRINGDALE & MARTIN LUTHER KING", "stop_name": "4311 SPRINGDALE/MARTIN LUTHER KING", "location_type": null, "platform_code": null, "zone_id": null}, {"stop_lat": 30.2894, "stop_timezone": null, "wheelchair_boarding": 0, "stop_code": "4743", "direction_id": 1, "stop_lon": -97.68025, "parent_station": null, "route_id": "300", "stop_url": null, "stop_sequence": 43, "stop_id": "4743", "stop_desc": "004609 SPRINGDALE & TOUCHSTONE", "stop_name": "4609 SPRINGDALE/TOUCHSTONE", "location_type": null, "platform_code": null, "zone_id": null}, {"stop_lat": 30.29386, "stop_timezone": null, "wheelchair_boarding": 0, "stop_code": "1388", "direction_id": 1, "stop_lon": -97.67757, "parent_station": null, "route_id": "300", "stop_url": null, "stop_sequence": 44, "stop_id": "1388", "stop_desc": "005101 SPRINGDALE & 51ST", "stop_name": "5101 SPRINGDALE/51ST", "location_type": null, "platform_code": null, "zone_id": null}, {"stop_lat": 30.29745, "stop_timezone": null, "wheelchair_boarding": 0, "stop_code": "1389", "direction_id": 1, "stop_lon": -97.67524, "parent_station": null, "route_id": "300", "stop_url": null, "stop_sequence": 45, "stop_id": "1389", "stop_desc": "005401 SPRINGDALE & NORWOOD HILL", "stop_name": "5401 SPRINGDALE/NORWOOD HILL", "location_type": null, "platform_code": null, "zone_id": null}, {"stop_lat": 30.300896, "stop_timezone": null, "wheelchair_boarding": 0, "stop_code": "1390", "direction_id": 1, "stop_lon": -97.673522, "parent_station": null, "route_id": "300", "stop_url": null, "stop_sequence": 46, "stop_id": "1390", "stop_desc": "003506 ROGGE & SPRINGDALE", "stop_name": "3506 ROGGE/SPRINGDALE", "location_type": null, "platform_code": null, "zone_id": null}, {"stop_lat": 30.30275, "stop_timezone": null, "wheelchair_boarding": 0, "stop_code": "1391", "direction_id": 1, "stop_lon": -97.67741, "parent_station": null, "route_id": "300", "stop_url": null, "stop_sequence": 47, "stop_id": "1391", "stop_desc": "003100 ROGGE & REICHER", "stop_name": "3100 ROGGE/REICHER", "location_type": null, "platform_code": null, "zone_id": null}, {"stop_lat": 30.304865, "stop_timezone": null, "wheelchair_boarding": 0, "stop_code": "1392", "direction_id": 1, "stop_lon": -97.681812, "parent_station": null, "route_id": "300", "stop_url": null, "stop_sequence": 48, "stop_id": "1392", "stop_desc": "002806 ROGGE & MANOR", "stop_name": "2806 ROGGE/MANOR", "location_type": null, "platform_code": null, "zone_id": null}, {"stop_lat": 30.30643, "stop_timezone": null, "wheelchair_boarding": 0, "stop_code": "5525", "direction_id": 1, "stop_lon": -97.68509, "parent_station": null, "route_id": "300", "stop_url": null, "stop_sequence": 49, "stop_id": "5525", "stop_desc": "000000 ROGGE & COVENTRY", "stop_name": "ROGGE/COVENTRY", "location_type": null, "platform_code": null, "zone_id": null}, {"stop_lat": 30.307945, "stop_timezone": null, "wheelchair_boarding": 0, "stop_code": "1393", "direction_id": 1, "stop_lon": -97.689927, "parent_station": null, "route_id": "300", "stop_url": null, "stop_sequence": 50, "stop_id": "1393", "stop_desc": "002000 ROGGE & WESTMINSTER", "stop_name": "2000 ROGGE/WESTMINSTER", "location_type": null, "platform_code": null, "zone_id": null}, {"stop_lat": 30.30717, "stop_timezone": null, "wheelchair_boarding": 0, "stop_code": "1394", "direction_id": 1, "stop_lon": -97.69301, "parent_station": null, "route_id": "300", "stop_url": null, "stop_sequence": 51, "stop_id": "1394", "stop_desc": "001908 ROGGE & RIDGEMONT", "stop_name": "1908 ROGGE/RIDGEMONT", "location_type": null, "platform_code": null, "zone_id": null}, {"stop_lat": 30.31036, "stop_timezone": null, "wheelchair_boarding": 0, "stop_code": "1396", "direction_id": 1, "stop_lon": -97.69473, "parent_station": null, "route_id": "300", "stop_url": null, "stop_sequence": 52, "stop_id": "1396", "stop_desc": "005600 BERKMAN & LARKWOOD", "stop_name": "BERKMAN/LARKWOOD", "location_type": null, "platform_code": null, "zone_id": null}, {"stop_lat": 30.314779, "stop_timezone": null, "wheelchair_boarding": 0, "stop_code": "1398", "direction_id": 1, "stop_lon": -97.692038, "parent_station": null, "route_id": "300", "stop_url": null, "stop_sequence": 53, "stop_id": "1398", "stop_desc": "006001 BERKMAN & BRIARCLIFF", "stop_name": "6001 BERKMAN/BRIARCLIFF", "location_type": null, "platform_code": null, "zone_id": null}, {"stop_lat": 30.31646, "stop_timezone": null, "wheelchair_boarding": 0, "stop_code": "1399", "direction_id": 1, "stop_lon": -97.691029, "parent_station": null, "route_id": "300", "stop_url": null, "stop_sequence": 54, "stop_id": "1399", "stop_desc": "006207 BERKMAN & GLEN VALLEY", "stop_name": "6207 BERKMAN/GLEN VALLEY", "location_type": null, "platform_code": null, "zone_id": null}, {"stop_lat": 30.318728, "stop_timezone": null, "wheelchair_boarding": 0, "stop_code": "1400", "direction_id": 1, "stop_lon": -97.689634, "parent_station": null, "route_id": "300", "stop_url": null, "stop_sequence": 55, "stop_id": "1400", "stop_desc": "006509 BERKMAN & WHELESS", "stop_name": "6509 BERKMAN/WHELESS", "location_type": null, "platform_code": null, "zone_id": null}, {"stop_lat": 30.320741, "stop_timezone": null, "wheelchair_boarding": 0, "stop_code": "1401", "direction_id": 1, "stop_lon": -97.688771, "parent_station": null, "route_id": "300", "stop_url": null, "stop_sequence": 56, "stop_id": "1401", "stop_desc": "006800 BERKMAN & US 290", "stop_name": "BERKMAN/US 290 SE CORNER", "location_type": null, "platform_code": null, "zone_id": null}, {"stop_lat": 30.32244, "stop_timezone": null, "wheelchair_boarding": 0, "stop_code": "1402", "direction_id": 1, "stop_lon": -97.68899, "parent_station": null, "route_id": "300", "stop_url": null, "stop_sequence": 57, "stop_id": "1402", "stop_desc": "007000 BERKMAN & US 290", "stop_name": "BERKMAN/US 290 NE CORNER", "location_type": null, "platform_code": null, "zone_id": null}, {"stop_lat": 30.325726, "stop_timezone": null, "wheelchair_boarding": 0, "stop_code": "1404", "direction_id": 1, "stop_lon": -97.688497, "parent_station": null, "route_id": "300", "stop_url": null, "stop_sequence": 58, "stop_id": "1404", "stop_desc": "007249 BERKMAN & REAGAN HILL", "stop_name": "7249 BERKMAN/REAGAN HILL", "location_type": null, "platform_code": null, "zone_id": null}, {"stop_lat": 30.32729, "stop_timezone": null, "wheelchair_boarding": 0, "stop_code": "1405", "direction_id": 1, "stop_lon": -97.688273, "parent_station": null, "route_id": "300", "stop_url": null, "stop_sequence": 59, "stop_id": "1405", "stop_desc": "001500 CORONADO HILLS & BERKMAN", "stop_name": "CORONADO HILLS/BERKMAN", "location_type": null, "platform_code": null, "zone_id": null}, {"stop_lat": 30.328718, "stop_timezone": null, "wheelchair_boarding": 0, "stop_code": "1406", "direction_id": 1, "stop_lon": -97.689587, "parent_station": null, "route_id": "300", "stop_url": null, "stop_sequence": 60, "stop_id": "1406", "stop_desc": "001430 CORONADO HILLS & CAMERON", "stop_name": "1430 CORONADO HILLS/CAMERON", "location_type": null, "platform_code": null, "zone_id": null}, {"stop_lat": 30.32629, "stop_timezone": null, "wheelchair_boarding": 0, "stop_code": "1407", "direction_id": 1, "stop_lon": -97.69233, "parent_station": null, "route_id": "300", "stop_url": null, "stop_sequence": 61, "stop_id": "1407", "stop_desc": "007200 CAMERON & ST JOHNS", "stop_name": "7200 CAMERON/ST JOHNS", "location_type": null, "platform_code": null, "zone_id": null}, {"stop_lat": 30.32838, "stop_timezone": null, "wheelchair_boarding": 0, "stop_code": "5505", "direction_id": 1, "stop_lon": -97.694615, "parent_station": null, "route_id": "300", "stop_url": null, "stop_sequence": 62, "stop_id": "5505", "stop_desc": "001120 ST JOHNS & GRAND CANYON", "stop_name": "1120 ST JOHNS/GRAND CANYON", "location_type": null, "platform_code": null, "zone_id": null}, {"stop_lat": 30.32925, "stop_timezone": null, "wheelchair_boarding": 0, "stop_code": "1408", "direction_id": 1, "stop_lon": -97.69644, "parent_station": null, "route_id": "300", "stop_url": null, "stop_sequence": 63, "stop_id": "1408", "stop_desc": "001034 ST JOHNS & MEADOR", "stop_name": "1034 ST JOHNS/MEADOR", "location_type": null, "platform_code": null, "zone_id": null}, {"stop_lat": 30.33032, "stop_timezone": null, "wheelchair_boarding": 0, "stop_code": "1409", "direction_id": 1, "stop_lon": -97.69854, "parent_station": null, "route_id": "300", "stop_url": null, "stop_sequence": 64, "stop_id": "1409", "stop_desc": "001008 ST JOHNS & BETHUNE", "stop_name": "1008 ST JOHNS/BETHUNE", "location_type": null, "platform_code": null, "zone_id": null}, {"stop_lat": 30.331118, "stop_timezone": null, "wheelchair_boarding": 0, "stop_code": "1410", "direction_id": 1, "stop_lon": -97.700252, "parent_station": null, "route_id": "300", "stop_url": null, "stop_sequence": 65, "stop_id": "1410", "stop_desc": "000900 ST JOHNS & BENNETT", "stop_name": "900 ST JOHNS/BENNETT", "location_type": null, "platform_code": null, "zone_id": null}, {"stop_lat": 30.332336, "stop_timezone": null, "wheelchair_boarding": 0, "stop_code": "2872", "direction_id": 1, "stop_lon": -97.702985, "parent_station": null, "route_id": "300", "stop_url": null, "stop_sequence": 66, "stop_id": "2872", "stop_desc": "000800 ST JOHNS & IH 35", "stop_name": "800 ST JOHNS/IH 35", "location_type": null, "platform_code": null, "zone_id": null}, {"stop_lat": 30.333174, "stop_timezone": null, "wheelchair_boarding": 0, "stop_code": "1412", "direction_id": 1, "stop_lon": -97.706079, "parent_station": null, "route_id": "300", "stop_url": null, "stop_sequence": 67, "stop_id": "1412", "stop_desc": "007100 ROLAND JOHNSON & ST JOHNS", "stop_name": "7100 ROLAND JOHNSON/ST JOHNS", "location_type": null, "platform_code": null, "zone_id": null}, {"stop_lat": 30.330907, "stop_timezone": null, "wheelchair_boarding": 0, "stop_code": "1413", "direction_id": 1, "stop_lon": -97.706983, "parent_station": null, "route_id": "300", "stop_url": null, "stop_sequence": 68, "stop_id": "1413", "stop_desc": "006970 ROLAND JOHNSON & HUNTLAND", "stop_name": "6970 ROLAND JOHNSON/HUNTLAND", "location_type": null, "platform_code": null, "zone_id": null}, {"stop_lat": 30.33085, "stop_timezone": null, "wheelchair_boarding": 0, "stop_code": "1414", "direction_id": 1, "stop_lon": -97.71068, "parent_station": null, "route_id": "300", "stop_url": null, "stop_sequence": 69, "stop_id": "1414", "stop_desc": "000300 HUNTLAND & BRENDA", "stop_name": "300 HUNTLAND/BRENDA", "location_type": null, "platform_code": null, "zone_id": null}, {"stop_lat": 30.328767, "stop_timezone": null, "wheelchair_boarding": 0, "stop_code": "1415", "direction_id": 1, "stop_lon": -97.713056, "parent_station": null, "route_id": "300", "stop_url": null, "stop_sequence": 70, "stop_id": "1415", "stop_desc": "006500 JONATHON & HIGHLAND MALL", "stop_name": "6500 JONATHAN DR (HIGHLAND MALL)", "location_type": null, "platform_code": null, "zone_id": null}, {"stop_lat": 30.333977, "stop_timezone": null, "wheelchair_boarding": 0, "stop_code": "1273", "direction_id": 1, "stop_lon": -97.716818, "parent_station": null, "route_id": "300", "stop_url": null, "stop_sequence": 71, "stop_id": "1273", "stop_desc": "006902 AIRPORT & GUADALUPE", "stop_name": "6902 AIRPORT BLVD/GUADALUPE", "location_type": null, "platform_code": null, "zone_id": null}, {"stop_lat": 30.336072, "stop_timezone": null, "wheelchair_boarding": 0, "stop_code": "5509", "direction_id": 1, "stop_lon": -97.717896, "parent_station": null, "route_id": "300", "stop_url": null, "stop_sequence": 72, "stop_id": "5509", "stop_desc": "006903 AIRPORT & KENNISTON", "stop_name": "6903 AIRPORT/KENNISTON", "location_type": null, "platform_code": null, "zone_id": null}, {"stop_lat": 30.33926, "stop_timezone": null, "wheelchair_boarding": 0, "stop_code": "2878", "direction_id": 1, "stop_lon": -97.71778, "parent_station": null, "route_id": "300", "stop_url": null, "stop_sequence": 73, "stop_id": "2878", "stop_desc": "007135 LAMAR & ST JOHNS", "stop_name": "7135 LAMAR/ST JOHNS", "location_type": null, "platform_code": null, "zone_id": null}, {"stop_lat": 30.34111, "stop_timezone": null, "wheelchair_boarding": 0, "stop_code": "1417", "direction_id": 1, "stop_lon": -97.71661, "parent_station": null, "route_id": "300", "stop_url": null, "stop_sequence": 74, "stop_id": "1417", "stop_desc": "007401 LAMAR & ST JOHNS", "stop_name": "7401 LAMAR/ST JOHNS", "location_type": null, "platform_code": null, "zone_id": null}, {"stop_lat": 30.34385, "stop_timezone": null, "wheelchair_boarding": 0, "stop_code": "622", "direction_id": 1, "stop_lon": -97.71492, "parent_station": null, "route_id": "300", "stop_url": null, "stop_sequence": 75, "stop_id": "622", "stop_desc": "007545 LAMAR & MORROW", "stop_name": "7545 LAMAR/MORROW", "location_type": null, "platform_code": null, "zone_id": null}, {"stop_lat": 30.350167, "stop_timezone": null, "wheelchair_boarding": 0, "stop_code": "5226", "direction_id": 1, "stop_lon": -97.712099, "parent_station": null, "route_id": "300", "stop_url": null, "stop_sequence": 76, "stop_id": "5226", "stop_desc": "07900B RESEARCH & LAMAR", "stop_name": "NORTH LAMAR BAY 2", "location_type": null, "platform_code": null, "zone_id": null}]
