[{"stop_timezone": "", "parent_station": "", "direction_id": "0", "stop_url": "https://www.capmetro.org/stopdetail/index.php?stop=5554", "stop_sequence": "1", "stop_id": "5554", "stop_desc": "001805 RIVERSIDE & PARKER", "location_type": "", "zone_id": "", "stop_lat": "30.242658", "wheelchair_boarding": "0", "stop_code": "5554", "stop_lon": "-97.729061", "route_id": "411", "stop_name": "1805 Riverside/Parker"}, {"stop_timezone": "", "parent_station": "", "direction_id": "0", "stop_url": "https://www.capmetro.org/stopdetail/index.php?stop=5966", "stop_sequence": "1", "stop_id": "5966", "stop_desc": "000000 COLORADO & 6TH", "location_type": "", "zone_id": "", "stop_lat": "30.268628", "wheelchair_boarding": "0", "stop_code": "5966", "stop_lon": "-97.744180", "route_id": "411", "stop_name": "Colorado/6th"}, {"stop_timezone": "", "parent_station": "", "direction_id": "0", "stop_url": "https://www.capmetro.org/stopdetail/index.php?stop=4300", "stop_sequence": "10", "stop_id": "4300", "stop_desc": "001901 CROSSING PLACE & RIVERSIDE", "location_type": "", "zone_id": "", "stop_lat": "30.232153", "wheelchair_boarding": "0", "stop_code": "4300", "stop_lon": "-97.717055", "route_id": "411", "stop_name": "1901 Crossing Place/Riverside"}, {"stop_timezone": "", "parent_station": "", "direction_id": "0", "stop_url": "https://www.capmetro.org/stopdetail/index.php?stop=4301", "stop_sequence": "10", "stop_id": "4301", "stop_desc": "001501 CROSSING PLACE & FARO", "location_type": "", "zone_id": "", "stop_lat": "30.235016", "wheelchair_boarding": "0", "stop_code": "4301", "stop_lon": "-97.714646", "route_id": "411", "stop_name": "1501 Crossing Place/Faro"}, {"stop_timezone": "", "parent_station": "", "direction_id": "0", "stop_url": "https://www.capmetro.org/stopdetail/index.php?stop=3852", "stop_sequence": "11", "stop_id": "3852", "stop_desc": "001300 CROSSING PLACE & ELMONT", "location_type": "", "zone_id": "", "stop_lat": "30.237369", "wheelchair_boarding": "0", "stop_code": "3852", "stop_lon": "-97.713500", "route_id": "411", "stop_name": "Melrose Place Apt"}, {"stop_timezone": "", "parent_station": "", "direction_id": "0", "stop_url": "https://www.capmetro.org/stopdetail/index.php?stop=4301", "stop_sequence": "11", "stop_id": "4301", "stop_desc": "001501 CROSSING PLACE & FARO", "location_type": "", "zone_id": "", "stop_lat": "30.235016", "wheelchair_boarding": "0", "stop_code": "4301", "stop_lon": "-97.714646", "route_id": "411", "stop_name": "1501 Crossing Place/Faro"}, {"stop_timezone": "", "parent_station": "", "direction_id": "0", "stop_url": "https://www.capmetro.org/stopdetail/index.php?stop=3852", "stop_sequence": "12", "stop_id": "3852", "stop_desc": "001300 CROSSING PLACE & ELMONT", "location_type": "", "zone_id": "", "stop_lat": "30.237369", "wheelchair_boarding": "0", "stop_code": "3852", "stop_lon": "-97.713500", "route_id": "411", "stop_name": "Melrose Place Apt"}, {"stop_timezone": "", "parent_station": "", "direction_id": "0", "stop_url": "https://www.capmetro.org/stopdetail/index.php?stop=4302", "stop_sequence": "12", "stop_id": "4302", "stop_desc": "001500 CROSSING PLACE & FARO", "location_type": "", "zone_id": "", "stop_lat": "30.234887", "wheelchair_boarding": "0", "stop_code": "4302", "stop_lon": "-97.715060", "route_id": "411", "stop_name": "1500 Crossing Place/Faro"}, {"stop_timezone": "", "parent_station": "", "direction_id": "0", "stop_url": "https://www.capmetro.org/stopdetail/index.php?stop=4299", "stop_sequence": "13", "stop_id": "4299", "stop_desc": "001900 CROSSING PLACE & RIVERSIDE", "location_type": "", "zone_id": "", "stop_lat": "30.232408", "wheelchair_boarding": "0", "stop_code": "4299", "stop_lon": "-97.717232", "route_id": "411", "stop_name": "1900 Crossing Place/Riverside"}, {"stop_timezone": "", "parent_station": "", "direction_id": "0", "stop_url": "https://www.capmetro.org/stopdetail/index.php?stop=4302", "stop_sequence": "13", "stop_id": "4302", "stop_desc": "001500 CROSSING PLACE & FARO", "location_type": "", "zone_id": "", "stop_lat": "30.234887", "wheelchair_boarding": "0", "stop_code": "4302", "stop_lon": "-97.715060", "route_id": "411", "stop_name": "1500 Crossing Place/Faro"}, {"stop_timezone": "", "parent_station": "", "direction_id": "0", "stop_url": "https://www.capmetro.org/stopdetail/index.php?stop=4299", "stop_sequence": "14", "stop_id": "4299", "stop_desc": "001900 CROSSING PLACE & RIVERSIDE", "location_type": "", "zone_id": "", "stop_lat": "30.232408", "wheelchair_boarding": "0", "stop_code": "4299", "stop_lon": "-97.717232", "route_id": "411", "stop_name": "1900 Crossing Place/Riverside"}, {"stop_timezone": "", "parent_station": "", "direction_id": "0", "stop_url": "https://www.capmetro.org/stopdetail/index.php?stop=5079", "stop_sequence": "14", "stop_id": "5079", "stop_desc": "001900 WICKERSHAM & RIVERSIDE", "location_type": "", "zone_id": "", "stop_lat": "30.232959", "wheelchair_boarding": "0", "stop_code": "5079", "stop_lon": "-97.720095", "route_id": "411", "stop_name": "Wickersham/Riverside"}, {"stop_timezone": "", "parent_station": "", "direction_id": "0", "stop_url": "https://www.capmetro.org/stopdetail/index.php?stop=5078", "stop_sequence": "15", "stop_id": "5078", "stop_desc": "001515 WICKERSHAM & RIVERSIDE", "location_type": "", "zone_id": "", "stop_lat": "30.235709", "wheelchair_boarding": "0", "stop_code": "5078", "stop_lon": "-97.718516", "route_id": "411", "stop_name": "1515 Wickersham/Riverside"}, {"stop_timezone": "", "parent_station": "", "direction_id": "0", "stop_url": "https://www.capmetro.org/stopdetail/index.php?stop=5079", "stop_sequence": "15", "stop_id": "5079", "stop_desc": "001900 WICKERSHAM & RIVERSIDE", "location_type": "", "zone_id": "", "stop_lat": "30.232959", "wheelchair_boarding": "0", "stop_code": "5079", "stop_lon": "-97.720095", "route_id": "411", "stop_name": "Wickersham/Riverside"}, {"stop_timezone": "", "parent_station": "", "direction_id": "0", "stop_url": "https://www.capmetro.org/stopdetail/index.php?stop=5077", "stop_sequence": "16", "stop_id": "5077", "stop_desc": "004500 ELMONT & WICKERSHAM", "location_type": "", "zone_id": "", "stop_lat": "30.238352", "wheelchair_boarding": "0", "stop_code": "5077", "stop_lon": "-97.718471", "route_id": "411", "stop_name": "Elmont/Wickersham"}, {"stop_timezone": "", "parent_station": "", "direction_id": "0", "stop_url": "https://www.capmetro.org/stopdetail/index.php?stop=5078", "stop_sequence": "16", "stop_id": "5078", "stop_desc": "001515 WICKERSHAM & RIVERSIDE", "location_type": "", "zone_id": "", "stop_lat": "30.235709", "wheelchair_boarding": "0", "stop_code": "5078", "stop_lon": "-97.718516", "route_id": "411", "stop_name": "1515 Wickersham/Riverside"}, {"stop_timezone": "", "parent_station": "", "direction_id": "0", "stop_url": "https://www.capmetro.org/stopdetail/index.php?stop=5077", "stop_sequence": "17", "stop_id": "5077", "stop_desc": "004500 ELMONT & WICKERSHAM", "location_type": "", "zone_id": "", "stop_lat": "30.238352", "wheelchair_boarding": "0", "stop_code": "5077", "stop_lon": "-97.718471", "route_id": "411", "stop_name": "Elmont/Wickersham"}, {"stop_timezone": "", "parent_station": "", "direction_id": "0", "stop_url": "https://www.capmetro.org/stopdetail/index.php?stop=6083", "stop_sequence": "17", "stop_id": "6083", "stop_desc": "002300 ELMONT & VIOLET CROWN", "location_type": "", "zone_id": "", "stop_lat": "30.240547", "wheelchair_boarding": "0", "stop_code": "6083", "stop_lon": "-97.723068", "route_id": "411", "stop_name": "2300 Elmont/Violet Crown"}, {"stop_timezone": "", "parent_station": "", "direction_id": "0", "stop_url": "https://www.capmetro.org/stopdetail/index.php?stop=5966", "stop_sequence": "18", "stop_id": "5966", "stop_desc": "000000 COLORADO & 6TH", "location_type": "", "zone_id": "", "stop_lat": "30.268628", "wheelchair_boarding": "0", "stop_code": "5966", "stop_lon": "-97.744180", "route_id": "411", "stop_name": "Colorado/6th"}, {"stop_timezone": "", "parent_station": "", "direction_id": "0", "stop_url": "https://www.capmetro.org/stopdetail/index.php?stop=6083", "stop_sequence": "18", "stop_id": "6083", "stop_desc": "002300 ELMONT & VIOLET CROWN", "location_type": "", "zone_id": "", "stop_lat": "30.240547", "wheelchair_boarding": "0", "stop_code": "6083", "stop_lon": "-97.723068", "route_id": "411", "stop_name": "2300 Elmont/Violet Crown"}, {"stop_timezone": "", "parent_station": "", "direction_id": "0", "stop_url": "https://www.capmetro.org/stopdetail/index.php?stop=5966", "stop_sequence": "19", "stop_id": "5966", "stop_desc": "000000 COLORADO & 6TH", "location_type": "", "zone_id": "", "stop_lat": "30.268628", "wheelchair_boarding": "0", "stop_code": "5966", "stop_lon": "-97.744180", "route_id": "411", "stop_name": "Colorado/6th"}, {"stop_timezone": "", "parent_station": "", "direction_id": "0", "stop_url": "https://www.capmetro.org/stopdetail/index.php?stop=4295", "stop_sequence": "2", "stop_id": "4295", "stop_desc": "001900 WILLOW CREEK & WOODLAND", "location_type": "", "zone_id": "", "stop_lat": "30.233100", "wheelchair_boarding": "0", "stop_code": "4295", "stop_lon": "-97.728953", "route_id": "411", "stop_name": "Willow Creek/Woodland"}, {"stop_timezone": "", "parent_station": "", "direction_id": "0", "stop_url": "https://www.capmetro.org/stopdetail/index.php?stop=5554", "stop_sequence": "2", "stop_id": "5554", "stop_desc": "001805 RIVERSIDE & PARKER", "location_type": "", "zone_id": "", "stop_lat": "30.242658", "wheelchair_boarding": "0", "stop_code": "5554", "stop_lon": "-97.729061", "route_id": "411", "stop_name": "1805 Riverside/Parker"}, {"stop_timezone": "", "parent_station": "", "direction_id": "0", "stop_url": "https://www.capmetro.org/stopdetail/index.php?stop=4295", "stop_sequence": "3", "stop_id": "4295", "stop_desc": "001900 WILLOW CREEK & WOODLAND", "location_type": "", "zone_id": "", "stop_lat": "30.233100", "wheelchair_boarding": "0", "stop_code": "4295", "stop_lon": "-97.728953", "route_id": "411", "stop_name": "Willow Creek/Woodland"}, {"stop_timezone": "", "parent_station": "", "direction_id": "0", "stop_url": "https://www.capmetro.org/stopdetail/index.php?stop=5080", "stop_sequence": "3", "stop_id": "5080", "stop_desc": "002300 ANKEN & WILLOW CREEK", "location_type": "", "zone_id": "", "stop_lat": "30.230869", "wheelchair_boarding": "0", "stop_code": "5080", "stop_lon": "-97.728974", "route_id": "411", "stop_name": "Anken/Willow Creek"}, {"stop_timezone": "", "parent_station": "", "direction_id": "0", "stop_url": "https://www.capmetro.org/stopdetail/index.php?stop=3527", "stop_sequence": "4", "stop_id": "3527", "stop_desc": "002316 PLEASANT VALLEY & ANKEN", "location_type": "", "zone_id": "", "stop_lat": "30.229360", "wheelchair_boarding": "0", "stop_code": "3527", "stop_lon": "-97.726739", "route_id": "411", "stop_name": "2316 Pleasant Valley/Anken"}, {"stop_timezone": "", "parent_station": "", "direction_id": "0", "stop_url": "https://www.capmetro.org/stopdetail/index.php?stop=5080", "stop_sequence": "4", "stop_id": "5080", "stop_desc": "002300 ANKEN & WILLOW CREEK", "location_type": "", "zone_id": "", "stop_lat": "30.230869", "wheelchair_boarding": "0", "stop_code": "5080", "stop_lon": "-97.728974", "route_id": "411", "stop_name": "Anken/Willow Creek"}, {"stop_timezone": "", "parent_station": "", "direction_id": "0", "stop_url": "https://www.capmetro.org/stopdetail/index.php?stop=1008", "stop_sequence": "5", "stop_id": "1008", "stop_desc": "004411 OLTORF & HUNTWICK", "location_type": "", "zone_id": "", "stop_lat": "30.226655", "wheelchair_boarding": "0", "stop_code": "1008", "stop_lon": "-97.726263", "route_id": "411", "stop_name": "4411 Oltorf/Huntwick"}, {"stop_timezone": "", "parent_station": "", "direction_id": "0", "stop_url": "https://www.capmetro.org/stopdetail/index.php?stop=3527", "stop_sequence": "5", "stop_id": "3527", "stop_desc": "002316 PLEASANT VALLEY & ANKEN", "location_type": "", "zone_id": "", "stop_lat": "30.229360", "wheelchair_boarding": "0", "stop_code": "3527", "stop_lon": "-97.726739", "route_id": "411", "stop_name": "2316 Pleasant Valley/Anken"}, {"stop_timezone": "", "parent_station": "", "direction_id": "0", "stop_url": "https://www.capmetro.org/stopdetail/index.php?stop=1008", "stop_sequence": "6", "stop_id": "1008", "stop_desc": "004411 OLTORF & HUNTWICK", "location_type": "", "zone_id": "", "stop_lat": "30.226655", "wheelchair_boarding": "0", "stop_code": "1008", "stop_lon": "-97.726263", "route_id": "411", "stop_name": "4411 Oltorf/Huntwick"}, {"stop_timezone": "", "parent_station": "", "direction_id": "0", "stop_url": "https://www.capmetro.org/stopdetail/index.php?stop=1009", "stop_sequence": "6", "stop_id": "1009", "stop_desc": "002401 WICKERSHAM & OLTORF", "location_type": "", "zone_id": "", "stop_lat": "30.226039", "wheelchair_boarding": "0", "stop_code": "1009", "stop_lon": "-97.723488", "route_id": "411", "stop_name": "2401 Wickersham/Oltorf"}, {"stop_timezone": "", "parent_station": "", "direction_id": "0", "stop_url": "https://www.capmetro.org/stopdetail/index.php?stop=1009", "stop_sequence": "7", "stop_id": "1009", "stop_desc": "002401 WICKERSHAM & OLTORF", "location_type": "", "zone_id": "", "stop_lat": "30.226039", "wheelchair_boarding": "0", "stop_code": "1009", "stop_lon": "-97.723488", "route_id": "411", "stop_name": "2401 Wickersham/Oltorf"}, {"stop_timezone": "", "parent_station": "", "direction_id": "0", "stop_url": "https://www.capmetro.org/stopdetail/index.php?stop=1010", "stop_sequence": "7", "stop_id": "1010", "stop_desc": "002300 WICKERSHAM & CROMWELL", "location_type": "", "zone_id": "", "stop_lat": "30.227021", "wheelchair_boarding": "0", "stop_code": "1010", "stop_lon": "-97.721847", "route_id": "411", "stop_name": "Wickersham/Cromwell"}, {"stop_timezone": "", "parent_station": "", "direction_id": "0", "stop_url": "https://www.capmetro.org/stopdetail/index.php?stop=1010", "stop_sequence": "8", "stop_id": "1010", "stop_desc": "002300 WICKERSHAM & CROMWELL", "location_type": "", "zone_id": "", "stop_lat": "30.227021", "wheelchair_boarding": "0", "stop_code": "1010", "stop_lon": "-97.721847", "route_id": "411", "stop_name": "Wickersham/Cromwell"}, {"stop_timezone": "", "parent_station": "", "direction_id": "0", "stop_url": "https://www.capmetro.org/stopdetail/index.php?stop=1011", "stop_sequence": "8", "stop_id": "1011", "stop_desc": "002207 WICKERSHAM & SHERINGHAM", "location_type": "", "zone_id": "", "stop_lat": "30.229315", "wheelchair_boarding": "0", "stop_code": "1011", "stop_lon": "-97.721353", "route_id": "411", "stop_name": "2207 Wickersham/Sheringham"}, {"stop_timezone": "", "parent_station": "", "direction_id": "0", "stop_url": "https://www.capmetro.org/stopdetail/index.php?stop=1011", "stop_sequence": "9", "stop_id": "1011", "stop_desc": "002207 WICKERSHAM & SHERINGHAM", "location_type": "", "zone_id": "", "stop_lat": "30.229315", "wheelchair_boarding": "0", "stop_code": "1011", "stop_lon": "-97.721353", "route_id": "411", "stop_name": "2207 Wickersham/Sheringham"}, {"stop_timezone": "", "parent_station": "", "direction_id": "0", "stop_url": "https://www.capmetro.org/stopdetail/index.php?stop=4300", "stop_sequence": "9", "stop_id": "4300", "stop_desc": "001901 CROSSING PLACE & RIVERSIDE", "location_type": "", "zone_id": "", "stop_lat": "30.232153", "wheelchair_boarding": "0", "stop_code": "4300", "stop_lon": "-97.717055", "route_id": "411", "stop_name": "1901 Crossing Place/Riverside"}]
