[{"stop_lat": 30.290572, "stop_timezone": null, "wheelchair_boarding": 0, "stop_code": "1706", "direction_id": 0, "stop_lon": -97.727389, "parent_station": null, "route_id": "110", "stop_url": "http://www.capmetro.org/gismaps/stops/1706.html", "stop_sequence": 1, "stop_id": "1706", "stop_desc": "Southwest corner of RED RIVER and 32ND - Farside", "stop_name": "3100 RED RIVER/32ND", "location_type": null, "platform_code": null, "zone_id": null}, {"stop_lat": 30.287579, "stop_timezone": null, "wheelchair_boarding": 0, "stop_code": "2077", "direction_id": 0, "stop_lon": -97.727345, "parent_station": null, "route_id": "110", "stop_url": "http://www.capmetro.org/gismaps/stops/2077.html", "stop_sequence": 2, "stop_id": "2077", "stop_desc": "Northwest corner of DEAN KEETON and RED RIVER - Farside", "stop_name": "920 DEAN KEETON/RED RIVER", "location_type": null, "platform_code": null, "zone_id": null}, {"stop_lat": 30.289184, "stop_timezone": null, "wheelchair_boarding": 0, "stop_code": "2757", "direction_id": 0, "stop_lon": -97.730013, "parent_station": null, "route_id": "110", "stop_url": "http://www.capmetro.org/gismaps/stops/2757.html", "stop_sequence": 3, "stop_id": "2757", "stop_desc": "Northwest corner of DEAN KEETON and HAMPTON - Farside", "stop_name": "810 DEAN KEETON/HAMPTON", "location_type": null, "platform_code": null, "zone_id": null}, {"stop_lat": 30.287254, "stop_timezone": null, "wheelchair_boarding": 0, "stop_code": "1178", "direction_id": 0, "stop_lon": -97.733663, "parent_station": null, "route_id": "110", "stop_url": "http://www.capmetro.org/gismaps/stops/1178.html", "stop_sequence": 4, "stop_id": "1178", "stop_desc": "Northwest corner of SAN JACINTO and 24TH - Nearside", "stop_name": "2400 SAN JACINTO/24TH", "location_type": null, "platform_code": null, "zone_id": null}, {"stop_lat": 30.287254, "stop_timezone": null, "wheelchair_boarding": 0, "stop_code": "1178", "direction_id": 0, "stop_lon": -97.733663, "parent_station": null, "route_id": "110", "stop_url": "http://www.capmetro.org/gismaps/stops/1178.html", "stop_sequence": 5, "stop_id": "1178", "stop_desc": "Northwest corner of SAN JACINTO and 24TH - Nearside", "stop_name": "2400 SAN JACINTO/24TH", "location_type": null, "platform_code": null, "zone_id": null}, {"stop_lat": 30.285505, "stop_timezone": null, "wheelchair_boarding": 0, "stop_code": "1179", "direction_id": 0, "stop_lon": -97.733783, "parent_station": null, "route_id": "110", "stop_url": "http://www.capmetro.org/gismaps/stops/1179.html", "stop_sequence": 5, "stop_id": "1179", "stop_desc": "Northwest corner of SAN JACINTO and 23RD - Nearside", "stop_name": "2300 SAN JACINTO/23RD", "location_type": null, "platform_code": null, "zone_id": null}, {"stop_lat": 30.285505, "stop_timezone": null, "wheelchair_boarding": 0, "stop_code": "1179", "direction_id": 0, "stop_lon": -97.733783, "parent_station": null, "route_id": "110", "stop_url": "http://www.capmetro.org/gismaps/stops/1179.html", "stop_sequence": 6, "stop_id": "1179", "stop_desc": "Northwest corner of SAN JACINTO and 23RD - Nearside", "stop_name": "2300 SAN JACINTO/23RD", "location_type": null, "platform_code": null, "zone_id": null}, {"stop_lat": 30.283361, "stop_timezone": null, "wheelchair_boarding": 0, "stop_code": "1180", "direction_id": 0, "stop_lon": -97.734167, "parent_station": null, "route_id": "110", "stop_url": "http://www.capmetro.org/gismaps/stops/1180.html", "stop_sequence": 6, "stop_id": "1180", "stop_desc": "Northwest corner of SAN JACINTO and 21ST - Nearside", "stop_name": "2100 SAN JACINTO/21ST", "location_type": null, "platform_code": null, "zone_id": null}, {"stop_lat": 30.283361, "stop_timezone": null, "wheelchair_boarding": 0, "stop_code": "1180", "direction_id": 0, "stop_lon": -97.734167, "parent_station": null, "route_id": "110", "stop_url": "http://www.capmetro.org/gismaps/stops/1180.html", "stop_sequence": 7, "stop_id": "1180", "stop_desc": "Northwest corner of SAN JACINTO and 21ST - Nearside", "stop_name": "2100 SAN JACINTO/21ST", "location_type": null, "platform_code": null, "zone_id": null}, {"stop_lat": 30.279395, "stop_timezone": null, "wheelchair_boarding": 0, "stop_code": "2587", "direction_id": 0, "stop_lon": -97.73868, "parent_station": null, "route_id": "110", "stop_url": "http://www.capmetro.org/gismaps/stops/2587.html", "stop_sequence": 7, "stop_id": "2587", "stop_desc": "Southwest corner of CONGRESS and 18TH - Mid-Block", "stop_name": "1714 CONGRESS/18TH", "location_type": null, "platform_code": null, "zone_id": null}, {"stop_lat": 30.279395, "stop_timezone": null, "wheelchair_boarding": 0, "stop_code": "2587", "direction_id": 0, "stop_lon": -97.73868, "parent_station": null, "route_id": "110", "stop_url": "http://www.capmetro.org/gismaps/stops/2587.html", "stop_sequence": 8, "stop_id": "2587", "stop_desc": "Southwest corner of CONGRESS and 18TH - Mid-Block", "stop_name": "1714 CONGRESS/18TH", "location_type": null, "platform_code": null, "zone_id": null}, {"stop_lat": 30.277958, "stop_timezone": null, "wheelchair_boarding": 0, "stop_code": "2588", "direction_id": 0, "stop_lon": -97.739212, "parent_station": null, "route_id": "110", "stop_url": "http://www.capmetro.org/gismaps/stops/2588.html", "stop_sequence": 8, "stop_id": "2588", "stop_desc": "Northwest corner of CONGRESS and 16TH - Nearside", "stop_name": "1600 CONGRESS/16TH", "location_type": null, "platform_code": null, "zone_id": null}, {"stop_lat": 30.277958, "stop_timezone": null, "wheelchair_boarding": 0, "stop_code": "2588", "direction_id": 0, "stop_lon": -97.739212, "parent_station": null, "route_id": "110", "stop_url": "http://www.capmetro.org/gismaps/stops/2588.html", "stop_sequence": 9, "stop_id": "2588", "stop_desc": "Northwest corner of CONGRESS and 16TH - Nearside", "stop_name": "1600 CONGRESS/16TH", "location_type": null, "platform_code": null, "zone_id": null}, {"stop_lat": 30.275022, "stop_timezone": null, "wheelchair_boarding": 0, "stop_code": "2738", "direction_id": 0, "stop_lon": -97.744169, "parent_station": null, "route_id": "110", "stop_url": "http://www.capmetro.org/gismaps/stops/2738.html", "stop_sequence": 9, "stop_id": "2738", "stop_desc": "Northwest corner of GUADALUPE and 12TH - Nearside", "stop_name": "CAPITOL STATION (SB)", "location_type": null, "platform_code": null, "zone_id": null}, {"stop_lat": 30.275022, "stop_timezone": null, "wheelchair_boarding": 0, "stop_code": "2738", "direction_id": 0, "stop_lon": -97.744169, "parent_station": null, "route_id": "110", "stop_url": "http://www.capmetro.org/gismaps/stops/2738.html", "stop_sequence": 10, "stop_id": "2738", "stop_desc": "Northwest corner of GUADALUPE and 12TH - Nearside", "stop_name": "CAPITOL STATION (SB)", "location_type": null, "platform_code": null, "zone_id": null}, {"stop_lat": 30.271503, "stop_timezone": null, "wheelchair_boarding": 0, "stop_code": "5950", "direction_id": 0, "stop_lon": -97.745478, "parent_station": null, "route_id": "110", "stop_url": "http://www.capmetro.org/gismaps/stops/5950.html", "stop_sequence": 10, "stop_id": "5950", "stop_desc": "Northwest corner of GUADALUPE and 8TH - Mid-Block", "stop_name": "GUADALUPE/8TH", "location_type": null, "platform_code": null, "zone_id": null}, {"stop_lat": 30.268253, "stop_timezone": null, "wheelchair_boarding": 0, "stop_code": "2612", "direction_id": 0, "stop_lon": -97.74669, "parent_station": null, "route_id": "110", "stop_url": "http://www.capmetro.org/gismaps/stops/2612.html", "stop_sequence": 11, "stop_id": "2612", "stop_desc": "Southwest corner of GUADALUPE and 5TH - Nearside", "stop_name": "500 GUADALUPE/5TH", "location_type": null, "platform_code": null, "zone_id": null}, {"stop_lat": 30.271503, "stop_timezone": null, "wheelchair_boarding": 0, "stop_code": "5950", "direction_id": 0, "stop_lon": -97.745478, "parent_station": null, "route_id": "110", "stop_url": "http://www.capmetro.org/gismaps/stops/5950.html", "stop_sequence": 11, "stop_id": "5950", "stop_desc": "Northwest corner of GUADALUPE and 8TH - Mid-Block", "stop_name": "GUADALUPE/8TH", "location_type": null, "platform_code": null, "zone_id": null}, {"stop_lat": 30.259308, "stop_timezone": null, "wheelchair_boarding": 1, "stop_code": "1655", "direction_id": 0, "stop_lon": -97.749759, "parent_station": null, "route_id": "110", "stop_url": "http://www.capmetro.org/gismaps/stops/1655.html", "stop_sequence": 12, "stop_id": "1655", "stop_desc": "Southwest corner of 1ST and RIVERSIDE - Mid-Block", "stop_name": "400 S 1ST/RIVERSIDE", "location_type": null, "platform_code": null, "zone_id": null}, {"stop_lat": 30.268253, "stop_timezone": null, "wheelchair_boarding": 0, "stop_code": "2612", "direction_id": 0, "stop_lon": -97.74669, "parent_station": null, "route_id": "110", "stop_url": "http://www.capmetro.org/gismaps/stops/2612.html", "stop_sequence": 12, "stop_id": "2612", "stop_desc": "Southwest corner of GUADALUPE and 5TH - Nearside", "stop_name": "500 GUADALUPE/5TH", "location_type": null, "platform_code": null, "zone_id": null}, {"stop_lat": 30.259308, "stop_timezone": null, "wheelchair_boarding": 1, "stop_code": "1655", "direction_id": 0, "stop_lon": -97.749759, "parent_station": null, "route_id": "110", "stop_url": "http://www.capmetro.org/gismaps/stops/1655.html", "stop_sequence": 13, "stop_id": "1655", "stop_desc": "Southwest corner of 1ST and RIVERSIDE - Mid-Block", "stop_name": "400 S 1ST/RIVERSIDE", "location_type": null, "platform_code": null, "zone_id": null}, {"stop_lat": 30.258081, "stop_timezone": null, "wheelchair_boarding": 0, "stop_code": "1656", "direction_id": 0, "stop_lon": -97.750396, "parent_station": null, "route_id": "110", "stop_url": "http://www.capmetro.org/gismaps/stops/1656.html", "stop_sequence": 13, "stop_id": "1656", "stop_desc": "Southwest corner of 1ST and BARTON SPRINGS - Farside", "stop_name": "500 S 1ST/BARTON SPRINGS", "location_type": null, "platform_code": null, "zone_id": null}, {"stop_lat": 30.258081, "stop_timezone": null, "wheelchair_boarding": 0, "stop_code": "1656", "direction_id": 0, "stop_lon": -97.750396, "parent_station": null, "route_id": "110", "stop_url": "http://www.capmetro.org/gismaps/stops/1656.html", "stop_sequence": 14, "stop_id": "1656", "stop_desc": "Southwest corner of 1ST and BARTON SPRINGS - Farside", "stop_name": "500 S 1ST/BARTON SPRINGS", "location_type": null, "platform_code": null, "zone_id": null}, {"stop_lat": 30.208753, "stop_timezone": null, "wheelchair_boarding": 0, "stop_code": "2623", "direction_id": 0, "stop_lon": -97.78142, "parent_station": null, "route_id": "110", "stop_url": "http://www.capmetro.org/gismaps/stops/2623.html", "stop_sequence": 14, "stop_id": "2623", "stop_desc": "Northwest corner of 1ST and STASSNEY - Nearside", "stop_name": "5500 S 1ST/STASSNEY", "location_type": null, "platform_code": null, "zone_id": null}, {"stop_lat": 30.208753, "stop_timezone": null, "wheelchair_boarding": 0, "stop_code": "2623", "direction_id": 0, "stop_lon": -97.78142, "parent_station": null, "route_id": "110", "stop_url": "http://www.capmetro.org/gismaps/stops/2623.html", "stop_sequence": 15, "stop_id": "2623", "stop_desc": "Northwest corner of 1ST and STASSNEY - Nearside", "stop_name": "5500 S 1ST/STASSNEY", "location_type": null, "platform_code": null, "zone_id": null}, {"stop_lat": 30.205367, "stop_timezone": null, "wheelchair_boarding": 1, "stop_code": "4394", "direction_id": 0, "stop_lon": -97.78315, "parent_station": null, "route_id": "110", "stop_url": "http://www.capmetro.org/gismaps/stops/4394.html", "stop_sequence": 15, "stop_id": "4394", "stop_desc": "Southwest corner of 1ST and STASSNEY - Mid-Block", "stop_name": "5802 SOUTH 1ST/STASSNEY", "location_type": null, "platform_code": null, "zone_id": null}, {"stop_lat": 30.202421, "stop_timezone": null, "wheelchair_boarding": 0, "stop_code": "1681", "direction_id": 0, "stop_lon": -97.784596, "parent_station": null, "route_id": "110", "stop_url": "http://www.capmetro.org/gismaps/stops/1681.html", "stop_sequence": 16, "stop_id": "1681", "stop_desc": "Northwest corner of 1ST and BLUEBERRY - Nearside", "stop_name": "6106 S 1ST/BLUEBERRY", "location_type": null, "platform_code": null, "zone_id": null}, {"stop_lat": 30.205367, "stop_timezone": null, "wheelchair_boarding": 1, "stop_code": "4394", "direction_id": 0, "stop_lon": -97.78315, "parent_station": null, "route_id": "110", "stop_url": "http://www.capmetro.org/gismaps/stops/4394.html", "stop_sequence": 16, "stop_id": "4394", "stop_desc": "Southwest corner of 1ST and STASSNEY - Mid-Block", "stop_name": "5802 SOUTH 1ST/STASSNEY", "location_type": null, "platform_code": null, "zone_id": null}, {"stop_lat": 30.202421, "stop_timezone": null, "wheelchair_boarding": 0, "stop_code": "1681", "direction_id": 0, "stop_lon": -97.784596, "parent_station": null, "route_id": "110", "stop_url": "http://www.capmetro.org/gismaps/stops/1681.html", "stop_sequence": 17, "stop_id": "1681", "stop_desc": "Northwest corner of 1ST and BLUEBERRY - Nearside", "stop_name": "6106 S 1ST/BLUEBERRY", "location_type": null, "platform_code": null, "zone_id": null}, {"stop_lat": 30.200712, "stop_timezone": null, "wheelchair_boarding": 0, "stop_code": "1682", "direction_id": 0, "stop_lon": -97.785683, "parent_station": null, "route_id": "110", "stop_url": "http://www.capmetro.org/gismaps/stops/1682.html", "stop_sequence": 17, "stop_id": "1682", "stop_desc": "Northwest corner of 1ST and EBERHART - Nearside", "stop_name": "6400 S 1ST/EBERHART", "location_type": null, "platform_code": null, "zone_id": null}, {"stop_lat": 30.200712, "stop_timezone": null, "wheelchair_boarding": 0, "stop_code": "1682", "direction_id": 0, "stop_lon": -97.785683, "parent_station": null, "route_id": "110", "stop_url": "http://www.capmetro.org/gismaps/stops/1682.html", "stop_sequence": 18, "stop_id": "1682", "stop_desc": "Northwest corner of 1ST and EBERHART - Nearside", "stop_name": "6400 S 1ST/EBERHART", "location_type": null, "platform_code": null, "zone_id": null}, {"stop_lat": 30.199208, "stop_timezone": null, "wheelchair_boarding": 0, "stop_code": "1683", "direction_id": 0, "stop_lon": -97.786609, "parent_station": null, "route_id": "110", "stop_url": "http://www.capmetro.org/gismaps/stops/1683.html", "stop_sequence": 18, "stop_id": "1683", "stop_desc": "Northwest corner of 1ST and KING EDWARD - Mid-Block", "stop_name": "6502 S 1ST/KING EDWARD", "location_type": null, "platform_code": null, "zone_id": null}, {"stop_lat": 30.199208, "stop_timezone": null, "wheelchair_boarding": 0, "stop_code": "1683", "direction_id": 0, "stop_lon": -97.786609, "parent_station": null, "route_id": "110", "stop_url": "http://www.capmetro.org/gismaps/stops/1683.html", "stop_sequence": 19, "stop_id": "1683", "stop_desc": "Northwest corner of 1ST and KING EDWARD - Mid-Block", "stop_name": "6502 S 1ST/KING EDWARD", "location_type": null, "platform_code": null, "zone_id": null}, {"stop_lat": 30.197336, "stop_timezone": null, "wheelchair_boarding": 0, "stop_code": "2640", "direction_id": 0, "stop_lon": -97.787836, "parent_station": null, "route_id": "110", "stop_url": "http://www.capmetro.org/gismaps/stops/2640.html", "stop_sequence": 19, "stop_id": "2640", "stop_desc": "Northwest corner of 1ST and WILLIAM CANNON - Nearside", "stop_name": "NWC S 1ST/WILLIAM CANNON", "location_type": null, "platform_code": null, "zone_id": null}, {"stop_lat": 30.197336, "stop_timezone": null, "wheelchair_boarding": 0, "stop_code": "2640", "direction_id": 0, "stop_lon": -97.787836, "parent_station": null, "route_id": "110", "stop_url": "http://www.capmetro.org/gismaps/stops/2640.html", "stop_sequence": 20, "stop_id": "2640", "stop_desc": "Northwest corner of 1ST and WILLIAM CANNON - Nearside", "stop_name": "NWC S 1ST/WILLIAM CANNON", "location_type": null, "platform_code": null, "zone_id": null}, {"stop_lat": 30.196414, "stop_timezone": null, "wheelchair_boarding": 0, "stop_code": "4397", "direction_id": 0, "stop_lon": -97.788391, "parent_station": null, "route_id": "110", "stop_url": "http://www.capmetro.org/gismaps/stops/4397.html", "stop_sequence": 20, "stop_id": "4397", "stop_desc": "Southwest corner of 1ST and WILLIAM CANNON - Farside", "stop_name": "6800 S 1ST/WILLIAM CANNON", "location_type": null, "platform_code": null, "zone_id": null}, {"stop_lat": 30.193782, "stop_timezone": null, "wheelchair_boarding": 0, "stop_code": "2626", "direction_id": 0, "stop_lon": -97.790034, "parent_station": null, "route_id": "110", "stop_url": "http://www.capmetro.org/gismaps/stops/2626.html", "stop_sequence": 21, "stop_id": "2626", "stop_desc": "Northwest corner of 1ST and MULBERRY - Nearside", "stop_name": "S. 1ST/MULBERRY", "location_type": null, "platform_code": null, "zone_id": null}, {"stop_lat": 30.196414, "stop_timezone": null, "wheelchair_boarding": 0, "stop_code": "4397", "direction_id": 0, "stop_lon": -97.788391, "parent_station": null, "route_id": "110", "stop_url": "http://www.capmetro.org/gismaps/stops/4397.html", "stop_sequence": 21, "stop_id": "4397", "stop_desc": "Southwest corner of 1ST and WILLIAM CANNON - Farside", "stop_name": "6800 S 1ST/WILLIAM CANNON", "location_type": null, "platform_code": null, "zone_id": null}, {"stop_lat": 30.193782, "stop_timezone": null, "wheelchair_boarding": 0, "stop_code": "2626", "direction_id": 0, "stop_lon": -97.790034, "parent_station": null, "route_id": "110", "stop_url": "http://www.capmetro.org/gismaps/stops/2626.html", "stop_sequence": 22, "stop_id": "2626", "stop_desc": "Northwest corner of 1ST and MULBERRY - Nearside", "stop_name": "S. 1ST/MULBERRY", "location_type": null, "platform_code": null, "zone_id": null}, {"stop_lat": 30.191739, "stop_timezone": null, "wheelchair_boarding": 0, "stop_code": "3763", "direction_id": 0, "stop_lon": -97.790498, "parent_station": null, "route_id": "110", "stop_url": "http://www.capmetro.org/gismaps/stops/3763.html", "stop_sequence": 22, "stop_id": "3763", "stop_desc": "Southwest corner of 1ST and PRINCE VALIANT - Farside", "stop_name": "7200 S 1ST/PRINCE VALIANT", "location_type": null, "platform_code": null, "zone_id": null}, {"stop_lat": 30.190183, "stop_timezone": null, "wheelchair_boarding": 0, "stop_code": "2627", "direction_id": 0, "stop_lon": -97.79057, "parent_station": null, "route_id": "110", "stop_url": "http://www.capmetro.org/gismaps/stops/2627.html", "stop_sequence": 23, "stop_id": "2627", "stop_desc": "Northwest corner of 1ST and MEADOW LEA - Nearside", "stop_name": "7230 S 1ST/MEADOW LEA", "location_type": null, "platform_code": null, "zone_id": null}, {"stop_lat": 30.191739, "stop_timezone": null, "wheelchair_boarding": 0, "stop_code": "3763", "direction_id": 0, "stop_lon": -97.790498, "parent_station": null, "route_id": "110", "stop_url": "http://www.capmetro.org/gismaps/stops/3763.html", "stop_sequence": 23, "stop_id": "3763", "stop_desc": "Southwest corner of 1ST and PRINCE VALIANT - Farside", "stop_name": "7200 S 1ST/PRINCE VALIANT", "location_type": null, "platform_code": null, "zone_id": null}, {"stop_lat": 30.190183, "stop_timezone": null, "wheelchair_boarding": 0, "stop_code": "2627", "direction_id": 0, "stop_lon": -97.79057, "parent_station": null, "route_id": "110", "stop_url": "http://www.capmetro.org/gismaps/stops/2627.html", "stop_sequence": 24, "stop_id": "2627", "stop_desc": "Northwest corner of 1ST and MEADOW LEA - Nearside", "stop_name": "7230 S 1ST/MEADOW LEA", "location_type": null, "platform_code": null, "zone_id": null}, {"stop_lat": 30.184112, "stop_timezone": null, "wheelchair_boarding": 0, "stop_code": "2628", "direction_id": 0, "stop_lon": -97.792603, "parent_station": null, "route_id": "110", "stop_url": "http://www.capmetro.org/gismaps/stops/2628.html", "stop_sequence": 24, "stop_id": "2628", "stop_desc": "Northwest corner of 1ST and DITTMAR - Nearside", "stop_name": "7816 S 1ST/DITTMAR", "location_type": null, "platform_code": null, "zone_id": null}, {"stop_lat": 30.184112, "stop_timezone": null, "wheelchair_boarding": 0, "stop_code": "2628", "direction_id": 0, "stop_lon": -97.792603, "parent_station": null, "route_id": "110", "stop_url": "http://www.capmetro.org/gismaps/stops/2628.html", "stop_sequence": 25, "stop_id": "2628", "stop_desc": "Northwest corner of 1ST and DITTMAR - Nearside", "stop_name": "7816 S 1ST/DITTMAR", "location_type": null, "platform_code": null, "zone_id": null}, {"stop_lat": 30.181296, "stop_timezone": null, "wheelchair_boarding": 0, "stop_code": "2629", "direction_id": 0, "stop_lon": -97.794775, "parent_station": null, "route_id": "110", "stop_url": "http://www.capmetro.org/gismaps/stops/2629.html", "stop_sequence": 25, "stop_id": "2629", "stop_desc": "Northwest corner of 1ST and MAIRO - Nearside", "stop_name": "8116 S 1ST/MAIRO", "location_type": null, "platform_code": null, "zone_id": null}, {"stop_lat": 30.181296, "stop_timezone": null, "wheelchair_boarding": 0, "stop_code": "2629", "direction_id": 0, "stop_lon": -97.794775, "parent_station": null, "route_id": "110", "stop_url": "http://www.capmetro.org/gismaps/stops/2629.html", "stop_sequence": 26, "stop_id": "2629", "stop_desc": "Northwest corner of 1ST and MAIRO - Nearside", "stop_name": "8116 S 1ST/MAIRO", "location_type": null, "platform_code": null, "zone_id": null}, {"stop_lat": 30.179602, "stop_timezone": null, "wheelchair_boarding": 0, "stop_code": "3764", "direction_id": 0, "stop_lon": -97.79606, "parent_station": null, "route_id": "110", "stop_url": "http://www.capmetro.org/gismaps/stops/3764.html", "stop_sequence": 26, "stop_id": "3764", "stop_desc": "Northwest corner of 1ST and GREAT BRITAIN - Nearside", "stop_name": "8318 S 1ST/GREAT BRITAIN", "location_type": null, "platform_code": null, "zone_id": null}, {"stop_lat": 30.179602, "stop_timezone": null, "wheelchair_boarding": 0, "stop_code": "3764", "direction_id": 0, "stop_lon": -97.79606, "parent_station": null, "route_id": "110", "stop_url": "http://www.capmetro.org/gismaps/stops/3764.html", "stop_sequence": 27, "stop_id": "3764", "stop_desc": "Northwest corner of 1ST and GREAT BRITAIN - Nearside", "stop_name": "8318 S 1ST/GREAT BRITAIN", "location_type": null, "platform_code": null, "zone_id": null}, {"stop_lat": 30.176287, "stop_timezone": null, "wheelchair_boarding": 0, "stop_code": "4403", "direction_id": 0, "stop_lon": -97.79814, "parent_station": null, "route_id": "110", "stop_url": "http://www.capmetro.org/gismaps/stops/4403.html", "stop_sequence": 27, "stop_id": "4403", "stop_desc": "Northwest corner of 1ST and HYDE PARK - Nearside", "stop_name": "8600 S 1ST/HYDE PARK", "location_type": null, "platform_code": null, "zone_id": null}, {"stop_lat": 30.176287, "stop_timezone": null, "wheelchair_boarding": 0, "stop_code": "4403", "direction_id": 0, "stop_lon": -97.79814, "parent_station": null, "route_id": "110", "stop_url": "http://www.capmetro.org/gismaps/stops/4403.html", "stop_sequence": 28, "stop_id": "4403", "stop_desc": "Northwest corner of 1ST and HYDE PARK - Nearside", "stop_name": "8600 S 1ST/HYDE PARK", "location_type": null, "platform_code": null, "zone_id": null}, {"stop_lat": 30.173319, "stop_timezone": null, "wheelchair_boarding": 0, "stop_code": "4915", "direction_id": 0, "stop_lon": -97.79903, "parent_station": null, "route_id": "110", "stop_url": "http://www.capmetro.org/gismaps/stops/4915.html", "stop_sequence": 28, "stop_id": "4915", "stop_desc": "Northwest corner of 1ST and SLAUGHTER - Nearside", "stop_name": "9000 S 1ST/SLAUGHTER", "location_type": null, "platform_code": null, "zone_id": null}, {"stop_lat": 30.173762, "stop_timezone": null, "wheelchair_boarding": 0, "stop_code": "4626", "direction_id": 0, "stop_lon": -97.80117, "parent_station": null, "route_id": "110", "stop_url": "http://www.capmetro.org/gismaps/stops/4626.html", "stop_sequence": 29, "stop_id": "4626", "stop_desc": "Northwest corner of SLAUGHTER and 1ST - Mid-Block", "stop_name": "SLAUGHTER/1ST", "location_type": null, "platform_code": null, "zone_id": null}, {"stop_lat": 30.173319, "stop_timezone": null, "wheelchair_boarding": 0, "stop_code": "4915", "direction_id": 0, "stop_lon": -97.79903, "parent_station": null, "route_id": "110", "stop_url": "http://www.capmetro.org/gismaps/stops/4915.html", "stop_sequence": 29, "stop_id": "4915", "stop_desc": "Northwest corner of 1ST and SLAUGHTER - Nearside", "stop_name": "9000 S 1ST/SLAUGHTER", "location_type": null, "platform_code": null, "zone_id": null}, {"stop_lat": 30.173762, "stop_timezone": null, "wheelchair_boarding": 0, "stop_code": "4626", "direction_id": 0, "stop_lon": -97.80117, "parent_station": null, "route_id": "110", "stop_url": "http://www.capmetro.org/gismaps/stops/4626.html", "stop_sequence": 30, "stop_id": "4626", "stop_desc": "Northwest corner of SLAUGHTER and 1ST - Mid-Block", "stop_name": "SLAUGHTER/1ST", "location_type": null, "platform_code": null, "zone_id": null}, {"stop_lat": 30.174173, "stop_timezone": null, "wheelchair_boarding": 0, "stop_code": "5416", "direction_id": 0, "stop_lon": -97.804467, "parent_station": null, "route_id": "110", "stop_url": "http://www.capmetro.org/gismaps/stops/5416.html", "stop_sequence": 30, "stop_id": "5416", "stop_desc": "Northwest corner of SLAUGHTER and SIMONETTI - Farside", "stop_name": "SLAUGHTER/SIMONETTI", "location_type": null, "platform_code": null, "zone_id": null}, {"stop_lat": 30.174173, "stop_timezone": null, "wheelchair_boarding": 0, "stop_code": "5416", "direction_id": 0, "stop_lon": -97.804467, "parent_station": null, "route_id": "110", "stop_url": "http://www.capmetro.org/gismaps/stops/5416.html", "stop_sequence": 31, "stop_id": "5416", "stop_desc": "Northwest corner of SLAUGHTER and SIMONETTI - Farside", "stop_name": "SLAUGHTER/SIMONETTI", "location_type": null, "platform_code": null, "zone_id": null}]
