[{"stop_lat": 30.418565, "stop_timezone": null, "wheelchair_boarding": 0, "stop_code": "5301", "direction_id": 0, "stop_lon": -97.669112, "parent_station": null, "route_id": "243", "stop_url": "http://www.capmetro.org/gismaps/stops/5301.html", "stop_sequence": 1, "stop_id": "5301", "stop_desc": "Northwest corner of CENTER RIDGE and CENTER LINE - Mid-Block", "stop_name": "TECH RIDGE BAY E", "location_type": null, "platform_code": null, "zone_id": null}, {"stop_lat": 30.422415, "stop_timezone": null, "wheelchair_boarding": 0, "stop_code": "5770", "direction_id": 0, "stop_lon": -97.658839, "parent_station": null, "route_id": "243", "stop_url": "http://www.capmetro.org/gismaps/stops/5770.html", "stop_sequence": 2, "stop_id": "5770", "stop_desc": "Northeast corner of HEATHERWILDE and WILD SENNA - Farside", "stop_name": "2551 HEATHERWILDE/WILD SENNA", "location_type": null, "platform_code": null, "zone_id": null}, {"stop_lat": 30.433412, "stop_timezone": null, "wheelchair_boarding": 0, "stop_code": "5769", "direction_id": 0, "stop_lon": -97.653076, "parent_station": null, "route_id": "243", "stop_url": "http://www.capmetro.org/gismaps/stops/5769.html", "stop_sequence": 3, "stop_id": "5769", "stop_desc": "Northeast corner of WELLS BRANCH and HEATHERWILDE - Farside", "stop_name": "501 WELLS BRANCH/HEATHERWILDE", "location_type": null, "platform_code": null, "zone_id": null}, {"stop_lat": 30.438694, "stop_timezone": null, "wheelchair_boarding": 0, "stop_code": "5766", "direction_id": 0, "stop_lon": -97.65949, "parent_station": null, "route_id": "243", "stop_url": "http://www.capmetro.org/gismaps/stops/5766.html", "stop_sequence": 4, "stop_id": "5766", "stop_desc": "Northwest corner of WELLS BRANCH and DRUSILLAS - Farside", "stop_name": "1114 WELLS BRANCH/DRUSILLAS", "location_type": null, "platform_code": null, "zone_id": null}, {"stop_lat": 30.441366, "stop_timezone": null, "wheelchair_boarding": 0, "stop_code": "5764", "direction_id": 0, "stop_lon": -97.665433, "parent_station": null, "route_id": "243", "stop_url": "http://www.capmetro.org/gismaps/stops/5764.html", "stop_sequence": 5, "stop_id": "5764", "stop_desc": "Northeast corner of WELLS BRANCH and FM 1825 - Mid-Block", "stop_name": "1426 WELLS BRANCH/FM 1825", "location_type": null, "platform_code": null, "zone_id": null}, {"stop_lat": 30.434837, "stop_timezone": null, "wheelchair_boarding": 0, "stop_code": "4818", "direction_id": 0, "stop_lon": -97.679157, "parent_station": null, "route_id": "243", "stop_url": "http://www.capmetro.org/gismaps/stops/4818.html", "stop_sequence": 6, "stop_id": "4818", "stop_desc": "Northwest corner of WELLS BRANCH and ALEX - Farside", "stop_name": "1900 WELLS BRANCH/ALEX", "location_type": null, "platform_code": null, "zone_id": null}, {"stop_lat": 30.43565, "stop_timezone": null, "wheelchair_boarding": 0, "stop_code": "5976", "direction_id": 0, "stop_lon": -97.675662, "parent_station": null, "route_id": "243", "stop_url": "http://www.capmetro.org/gismaps/stops/5976.html", "stop_sequence": 6, "stop_id": "5976", "stop_desc": "Northwest corner of WELLS BRANCH and WELLS PORT - Farside", "stop_name": "1800 WELLS BRANCH/WELLS PORT", "location_type": null, "platform_code": null, "zone_id": null}, {"stop_lat": 30.436623, "stop_timezone": null, "wheelchair_boarding": 0, "stop_code": "4816", "direction_id": 0, "stop_lon": -97.683609, "parent_station": null, "route_id": "243", "stop_url": "http://www.capmetro.org/gismaps/stops/4816.html", "stop_sequence": 7, "stop_id": "4816", "stop_desc": "Northwest corner of WELLS BRANCH and SURRENDER - Mid-Block", "stop_name": "2112 WELLS BRANCH/SURRENDER", "location_type": null, "platform_code": null, "zone_id": null}, {"stop_lat": 30.434837, "stop_timezone": null, "wheelchair_boarding": 0, "stop_code": "4818", "direction_id": 0, "stop_lon": -97.679157, "parent_station": null, "route_id": "243", "stop_url": "http://www.capmetro.org/gismaps/stops/4818.html", "stop_sequence": 7, "stop_id": "4818", "stop_desc": "Northwest corner of WELLS BRANCH and ALEX - Farside", "stop_name": "1900 WELLS BRANCH/ALEX", "location_type": null, "platform_code": null, "zone_id": null}, {"stop_lat": 30.439293, "stop_timezone": null, "wheelchair_boarding": 0, "stop_code": "4814", "direction_id": 0, "stop_lon": -97.68557, "parent_station": null, "route_id": "243", "stop_url": "http://www.capmetro.org/gismaps/stops/4814.html", "stop_sequence": 8, "stop_id": "4814", "stop_desc": "Northwest corner of WELLS BRANCH and MERRILLTOWN - Farside", "stop_name": "2300 WELLS BRANCH/MERRILLTOWN", "location_type": null, "platform_code": null, "zone_id": null}, {"stop_lat": 30.436623, "stop_timezone": null, "wheelchair_boarding": 0, "stop_code": "4816", "direction_id": 0, "stop_lon": -97.683609, "parent_station": null, "route_id": "243", "stop_url": "http://www.capmetro.org/gismaps/stops/4816.html", "stop_sequence": 8, "stop_id": "4816", "stop_desc": "Northwest corner of WELLS BRANCH and SURRENDER - Mid-Block", "stop_name": "2112 WELLS BRANCH/SURRENDER", "location_type": null, "platform_code": null, "zone_id": null}, {"stop_lat": 30.439293, "stop_timezone": null, "wheelchair_boarding": 0, "stop_code": "4814", "direction_id": 0, "stop_lon": -97.68557, "parent_station": null, "route_id": "243", "stop_url": "http://www.capmetro.org/gismaps/stops/4814.html", "stop_sequence": 9, "stop_id": "4814", "stop_desc": "Northwest corner of WELLS BRANCH and MERRILLTOWN - Farside", "stop_name": "2300 WELLS BRANCH/MERRILLTOWN", "location_type": null, "platform_code": null, "zone_id": null}, {"stop_lat": 30.441831, "stop_timezone": null, "wheelchair_boarding": 0, "stop_code": "5929", "direction_id": 0, "stop_lon": -97.690286, "parent_station": null, "route_id": "243", "stop_url": "http://www.capmetro.org/gismaps/stops/5929.html", "stop_sequence": 9, "stop_id": "5929", "stop_desc": "Northeast corner of WELLS BRANCH and DOUBLE FILE - Nearside", "stop_name": "WELLS BRANCH/DOUBLE FILE", "location_type": null, "platform_code": null, "zone_id": null}, {"stop_lat": 30.441494, "stop_timezone": null, "wheelchair_boarding": 0, "stop_code": "5277", "direction_id": 0, "stop_lon": -97.692608, "parent_station": null, "route_id": "243", "stop_url": "http://www.capmetro.org/gismaps/stops/5277.html", "stop_sequence": 10, "stop_id": "5277", "stop_desc": "Northwest corner of WELLS BRANCH and TANDEM - Farside", "stop_name": "3000 WELLS BRANCH/TANDEM", "location_type": null, "platform_code": null, "zone_id": null}, {"stop_lat": 30.441831, "stop_timezone": null, "wheelchair_boarding": 0, "stop_code": "5929", "direction_id": 0, "stop_lon": -97.690286, "parent_station": null, "route_id": "243", "stop_url": "http://www.capmetro.org/gismaps/stops/5929.html", "stop_sequence": 10, "stop_id": "5929", "stop_desc": "Northeast corner of WELLS BRANCH and DOUBLE FILE - Nearside", "stop_name": "WELLS BRANCH/DOUBLE FILE", "location_type": null, "platform_code": null, "zone_id": null}, {"stop_lat": 30.441494, "stop_timezone": null, "wheelchair_boarding": 0, "stop_code": "5277", "direction_id": 0, "stop_lon": -97.692608, "parent_station": null, "route_id": "243", "stop_url": "http://www.capmetro.org/gismaps/stops/5277.html", "stop_sequence": 11, "stop_id": "5277", "stop_desc": "Northwest corner of WELLS BRANCH and TANDEM - Farside", "stop_name": "3000 WELLS BRANCH/TANDEM", "location_type": null, "platform_code": null, "zone_id": null}, {"stop_lat": 30.440229, "stop_timezone": null, "wheelchair_boarding": 0, "stop_code": "5339", "direction_id": 0, "stop_lon": -97.695602, "parent_station": null, "route_id": "243", "stop_url": "http://www.capmetro.org/gismaps/stops/5339.html", "stop_sequence": 11, "stop_id": "5339", "stop_desc": "Northeast corner of WELLS BRANCH and HOWARD - Nearside", "stop_name": "3300 WELLS BRANCH/HOWARD", "location_type": null, "platform_code": null, "zone_id": null}, {"stop_lat": 30.440229, "stop_timezone": null, "wheelchair_boarding": 0, "stop_code": "5339", "direction_id": 0, "stop_lon": -97.695602, "parent_station": null, "route_id": "243", "stop_url": "http://www.capmetro.org/gismaps/stops/5339.html", "stop_sequence": 12, "stop_id": "5339", "stop_desc": "Northeast corner of WELLS BRANCH and HOWARD - Nearside", "stop_name": "3300 WELLS BRANCH/HOWARD", "location_type": null, "platform_code": null, "zone_id": null}, {"stop_lat": 30.439972, "stop_timezone": null, "wheelchair_boarding": 0, "stop_code": "5607", "direction_id": 0, "stop_lon": -97.70124, "parent_station": null, "route_id": "243", "stop_url": "http://www.capmetro.org/gismaps/stops/5607.html", "stop_sequence": 12, "stop_id": "5607", "stop_desc": "Southeast corner of HOWARD and MOPAC - Nearside", "stop_name": "HOWARD STATION BUS STOP", "location_type": null, "platform_code": null, "zone_id": null}, {"stop_lat": 30.439972, "stop_timezone": null, "wheelchair_boarding": 0, "stop_code": "5607", "direction_id": 0, "stop_lon": -97.70124, "parent_station": null, "route_id": "243", "stop_url": "http://www.capmetro.org/gismaps/stops/5607.html", "stop_sequence": 13, "stop_id": "5607", "stop_desc": "Southeast corner of HOWARD and MOPAC - Nearside", "stop_name": "HOWARD STATION BUS STOP", "location_type": null, "platform_code": null, "zone_id": null}]
