[{"stop_lat": 30.285087, "stop_timezone": null, "wheelchair_boarding": 0, "stop_code": "5175", "direction_id": 0, "stop_lon": -97.732622, "parent_station": null, "route_id": "680", "stop_url": "http://www.capmetro.org/gismaps/stops/5175.html", "stop_sequence": 1, "stop_id": "5175", "stop_desc": "Southeast corner of 23RD and TRINITY - Farside", "stop_name": "501 23RD/TRINITY", "location_type": null, "platform_code": null, "zone_id": null}, {"stop_lat": 30.283303, "stop_timezone": null, "wheelchair_boarding": 0, "stop_code": "4593", "direction_id": 0, "stop_lon": -97.728685, "parent_station": null, "route_id": "680", "stop_url": "http://www.capmetro.org/gismaps/stops/4593.html", "stop_sequence": 2, "stop_id": "4593", "stop_desc": "Southwest corner of CLYDE LITTLEFIELD and RED RIVER - Mid-Block", "stop_name": "801 CLYDE LITTLEFIELD/RED RIVER", "location_type": null, "platform_code": null, "zone_id": null}, {"stop_lat": 30.278688, "stop_timezone": null, "wheelchair_boarding": 0, "stop_code": "5624", "direction_id": 0, "stop_lon": -97.731471, "parent_station": null, "route_id": "680", "stop_url": "http://www.capmetro.org/gismaps/stops/5624.html", "stop_sequence": 3, "stop_id": "5624", "stop_desc": "Southeast corner of MARTIN LUTHER KING and RED RIVER - Mid-Block", "stop_name": "MARTIN LUTHER KING/RED RIVER", "location_type": null, "platform_code": null, "zone_id": null}, {"stop_lat": 30.244801, "stop_timezone": null, "wheelchair_boarding": 0, "stop_code": "5052", "direction_id": 0, "stop_lon": -97.729304, "parent_station": null, "route_id": "680", "stop_url": "http://www.capmetro.org/gismaps/stops/5052.html", "stop_sequence": 4, "stop_id": "5052", "stop_desc": "Southeast corner of LAKESHORE and RIVERSIDE - Mid-Block", "stop_name": "1701 LAKESHORE/RIVERSIDE", "location_type": null, "platform_code": null, "zone_id": null}, {"stop_lat": 30.24477, "stop_timezone": null, "wheelchair_boarding": 0, "stop_code": "4280", "direction_id": 0, "stop_lon": -97.72713, "parent_station": null, "route_id": "680", "stop_url": "http://www.capmetro.org/gismaps/stops/4280.html", "stop_sequence": 5, "stop_id": "4280", "stop_desc": "Southeast corner of LAKESHORE and RIVERSIDE - Mid-Block", "stop_name": "1809 LAKESHORE/RIVERSIDE", "location_type": null, "platform_code": null, "zone_id": null}, {"stop_lat": 30.244251, "stop_timezone": null, "wheelchair_boarding": 0, "stop_code": "4281", "direction_id": 0, "stop_lon": -97.722126, "parent_station": null, "route_id": "680", "stop_url": "http://www.capmetro.org/gismaps/stops/4281.html", "stop_sequence": 6, "stop_id": "4281", "stop_desc": "Southeast corner of LAKESHORE and TINNIN FORD - Mid-Block", "stop_name": "2201 LAKESHORE/TINNIN FORD", "location_type": null, "platform_code": null, "zone_id": null}, {"stop_lat": 30.243157, "stop_timezone": null, "wheelchair_boarding": 0, "stop_code": "3959", "direction_id": 0, "stop_lon": -97.719174, "parent_station": null, "route_id": "680", "stop_url": "http://www.capmetro.org/gismaps/stops/3959.html", "stop_sequence": 7, "stop_id": "3959", "stop_desc": "Southeast corner of LAKESHORE and TINNIN FORD - Mid-Block", "stop_name": "2401 LAKESHORE/TINNIN FORD", "location_type": null, "platform_code": null, "zone_id": null}, {"stop_lat": 30.242025, "stop_timezone": null, "wheelchair_boarding": 0, "stop_code": "1353", "direction_id": 0, "stop_lon": -97.717608, "parent_station": null, "route_id": "680", "stop_url": "http://www.capmetro.org/gismaps/stops/1353.html", "stop_sequence": 8, "stop_id": "1353", "stop_desc": "Southwest corner of PLEASANT VALLEY and LAKESHORE - Farside", "stop_name": "1108 PLEASANT VALLEY/LAKESHORE", "location_type": null, "platform_code": null, "zone_id": null}, {"stop_lat": 30.240161, "stop_timezone": null, "wheelchair_boarding": 0, "stop_code": "4283", "direction_id": 0, "stop_lon": -97.71877, "parent_station": null, "route_id": "680", "stop_url": "http://www.capmetro.org/gismaps/stops/4283.html", "stop_sequence": 9, "stop_id": "4283", "stop_desc": "Southwest corner of PLEASANT VALLEY and LAKESHORE - Mid-Block", "stop_name": "1400 PLEASANT VALLEY/LAKESHORE", "location_type": null, "platform_code": null, "zone_id": null}, {"stop_lat": 30.238125, "stop_timezone": null, "wheelchair_boarding": 0, "stop_code": "4285", "direction_id": 0, "stop_lon": -97.718348, "parent_station": null, "route_id": "680", "stop_url": "http://www.capmetro.org/gismaps/stops/4285.html", "stop_sequence": 10, "stop_id": "4285", "stop_desc": "Southeast corner of ELMONT and PLEASANT VALLEY - Mid-Block", "stop_name": "ELMONT/PLEASANT VALLEY", "location_type": null, "platform_code": null, "zone_id": null}, {"stop_lat": 30.235821, "stop_timezone": null, "wheelchair_boarding": 0, "stop_code": "4286", "direction_id": 0, "stop_lon": -97.718624, "parent_station": null, "route_id": "680", "stop_url": "http://www.capmetro.org/gismaps/stops/4286.html", "stop_sequence": 11, "stop_id": "4286", "stop_desc": "Southwest corner of WICKERSHAM and ELMONT - Mid-Block", "stop_name": "1600 WICKERSHAM/ELMONT", "location_type": null, "platform_code": null, "zone_id": null}, {"stop_lat": 30.233631, "stop_timezone": null, "wheelchair_boarding": 0, "stop_code": "3526", "direction_id": 0, "stop_lon": -97.720092, "parent_station": null, "route_id": "680", "stop_url": "http://www.capmetro.org/gismaps/stops/3526.html", "stop_sequence": 12, "stop_id": "3526", "stop_desc": "Southwest corner of WICKERSHAM and ELMONT - Mid-Block", "stop_name": "WICKERSHAM/ELMONT", "location_type": null, "platform_code": null, "zone_id": null}]
