[{"stop_lat": 30.282567, "stop_timezone": null, "wheelchair_boarding": 0, "stop_code": "5626", "direction_id": 1, "stop_lon": -97.776462, "parent_station": null, "route_id": "663", "stop_url": "http://www.capmetro.org/gismaps/stops/5626.html", "stop_sequence": 5, "stop_id": "5626", "stop_desc": "Southeast corner of LAKE AUSTIN and EXPOSITION - Farside", "stop_name": "2629 LAKE AUSTIN/EXPOSITION", "location_type": null, "platform_code": null, "zone_id": null}, {"stop_lat": 30.279378, "stop_timezone": null, "wheelchair_boarding": 0, "stop_code": "4162", "direction_id": 1, "stop_lon": -97.774279, "parent_station": null, "route_id": "663", "stop_url": "http://www.capmetro.org/gismaps/stops/4162.html", "stop_sequence": 6, "stop_id": "4162", "stop_desc": "Southwest corner of LAKE AUSTIN and DUMAS - Mid-Block", "stop_name": "2531 LAKE AUSTIN/DUMAS", "location_type": null, "platform_code": null, "zone_id": null}, {"stop_lat": 30.273605, "stop_timezone": null, "wheelchair_boarding": 1, "stop_code": "4086", "direction_id": 1, "stop_lon": -97.763241, "parent_station": null, "route_id": "663", "stop_url": "http://www.capmetro.org/gismaps/stops/4086.html", "stop_sequence": 7, "stop_id": "4086", "stop_desc": "Southeast corner of 5TH and WEST LYNN - Farside", "stop_name": "5TH/WEST LYNN", "location_type": null, "platform_code": null, "zone_id": null}, {"stop_lat": 30.272678, "stop_timezone": null, "wheelchair_boarding": 0, "stop_code": "2104", "direction_id": 1, "stop_lon": -97.760934, "parent_station": null, "route_id": "663", "stop_url": "http://www.capmetro.org/gismaps/stops/2104.html", "stop_sequence": 8, "stop_id": "2104", "stop_desc": "Southwest corner of 5TH and PRESSLER - Nearside", "stop_name": "5TH/PRESSLER", "location_type": null, "platform_code": null, "zone_id": null}, {"stop_lat": 30.270977, "stop_timezone": null, "wheelchair_boarding": 0, "stop_code": "2106", "direction_id": 1, "stop_lon": -97.756406, "parent_station": null, "route_id": "663", "stop_url": "http://www.capmetro.org/gismaps/stops/2106.html", "stop_sequence": 9, "stop_id": "2106", "stop_desc": "Southwest corner of 5TH and BAYLOR - Nearside", "stop_name": "5TH/BAYLOR", "location_type": null, "platform_code": null, "zone_id": null}, {"stop_lat": 30.268672, "stop_timezone": null, "wheelchair_boarding": 0, "stop_code": "2110", "direction_id": 1, "stop_lon": -97.748979, "parent_station": null, "route_id": "663", "stop_url": "http://www.capmetro.org/gismaps/stops/2110.html", "stop_sequence": 10, "stop_id": "2110", "stop_desc": "Southwest corner of 5TH and NUECES - Nearside", "stop_name": "5TH/NUECES", "location_type": null, "platform_code": null, "zone_id": null}, {"stop_lat": 30.277383, "stop_timezone": null, "wheelchair_boarding": 1, "stop_code": "593", "direction_id": 1, "stop_lon": -97.741894, "parent_station": null, "route_id": "663", "stop_url": "http://www.capmetro.org/gismaps/stops/593.html", "stop_sequence": 11, "stop_id": "593", "stop_desc": "Southeast corner of LAVACA and 15TH - Nearside", "stop_name": "LAVACA/15TH", "location_type": null, "platform_code": null, "zone_id": null}, {"stop_lat": 30.278435, "stop_timezone": null, "wheelchair_boarding": 0, "stop_code": "866", "direction_id": 1, "stop_lon": -97.734985, "parent_station": null, "route_id": "663", "stop_url": "http://www.capmetro.org/gismaps/stops/866.html", "stop_sequence": 12, "stop_id": "866", "stop_desc": "Southeast corner of TRINITY and 18TH - Nearside", "stop_name": "TRINITY/18TH", "location_type": null, "platform_code": null, "zone_id": null}, {"stop_lat": 30.283311, "stop_timezone": null, "wheelchair_boarding": 0, "stop_code": "4136", "direction_id": 1, "stop_lon": -97.734547, "parent_station": null, "route_id": "663", "stop_url": "http://www.capmetro.org/gismaps/stops/4136.html", "stop_sequence": 14, "stop_id": "4136", "stop_desc": "Northwest corner of 21ST and SAN JACINTO - Mid-Block", "stop_name": "300 21ST/SAN JACINTO", "location_type": null, "platform_code": null, "zone_id": null}, {"stop_lat": 30.283493, "stop_timezone": null, "wheelchair_boarding": 0, "stop_code": "5207", "direction_id": 1, "stop_lon": -97.737156, "parent_station": null, "route_id": "663", "stop_url": "http://www.capmetro.org/gismaps/stops/5207.html", "stop_sequence": 15, "stop_id": "5207", "stop_desc": "Northeast corner of 21ST and SPEEDWAY - Nearside", "stop_name": "21ST/SPEEDWAY", "location_type": null, "platform_code": null, "zone_id": null}]
