[{"stop_lat": 30.278962, "stop_timezone": null, "wheelchair_boarding": 0, "stop_code": "501", "direction_id": 0, "stop_lon": -97.742708, "parent_station": null, "route_id": "663", "stop_url": "http://www.capmetro.org/gismaps/stops/501.html", "stop_sequence": 2, "stop_id": "501", "stop_desc": "Northwest corner of GUADALUPE and 16TH - Nearside", "stop_name": "GUADALUPE/16TH STREET", "location_type": null, "platform_code": null, "zone_id": null}, {"stop_lat": 30.270016, "stop_timezone": null, "wheelchair_boarding": 0, "stop_code": "1969", "direction_id": 0, "stop_lon": -97.74939, "parent_station": null, "route_id": "663", "stop_url": "http://www.capmetro.org/gismaps/stops/1969.html", "stop_sequence": 3, "stop_id": "1969", "stop_desc": "Northeast corner of 6TH and RIO GRANDE - Nearside", "stop_name": "6TH/RIO GRANDE", "location_type": null, "platform_code": null, "zone_id": null}, {"stop_lat": 30.271955, "stop_timezone": null, "wheelchair_boarding": 1, "stop_code": "1971", "direction_id": 0, "stop_lon": -97.754879, "parent_station": null, "route_id": "663", "stop_url": "http://www.capmetro.org/gismaps/stops/1971.html", "stop_sequence": 4, "stop_id": "1971", "stop_desc": "Northeast corner of 6TH and BAYLOR - Nearside", "stop_name": "6TH/BAYLOR", "location_type": null, "platform_code": null, "zone_id": null}, {"stop_lat": 30.273935, "stop_timezone": null, "wheelchair_boarding": 0, "stop_code": "1973", "direction_id": 0, "stop_lon": -97.760118, "parent_station": null, "route_id": "663", "stop_url": "http://www.capmetro.org/gismaps/stops/1973.html", "stop_sequence": 5, "stop_id": "1973", "stop_desc": "Northeast corner of 6TH and PRESSLER - Nearside", "stop_name": "6TH/PRESSLER", "location_type": null, "platform_code": null, "zone_id": null}, {"stop_lat": 30.276005, "stop_timezone": null, "wheelchair_boarding": 0, "stop_code": "3519", "direction_id": 0, "stop_lon": -97.76454, "parent_station": null, "route_id": "663", "stop_url": "http://www.capmetro.org/gismaps/stops/3519.html", "stop_sequence": 6, "stop_id": "3519", "stop_desc": "Northwest corner of 6TH and CAMPBELL - Farside", "stop_name": "6TH/CAMPBELL", "location_type": null, "platform_code": null, "zone_id": null}, {"stop_lat": 30.279419, "stop_timezone": null, "wheelchair_boarding": 0, "stop_code": "5825", "direction_id": 0, "stop_lon": -97.774048, "parent_station": null, "route_id": "663", "stop_url": "http://www.capmetro.org/gismaps/stops/5825.html", "stop_sequence": 7, "stop_id": "5825", "stop_desc": "Northwest corner of LAKE AUSTIN and HEARN - Mid-Block", "stop_name": "2530 LAKE AUSTIN/HEARN", "location_type": null, "platform_code": null, "zone_id": null}, {"stop_lat": 30.282319, "stop_timezone": null, "wheelchair_boarding": 0, "stop_code": "1981", "direction_id": 0, "stop_lon": -97.776058, "parent_station": null, "route_id": "663", "stop_url": "http://www.capmetro.org/gismaps/stops/1981.html", "stop_sequence": 8, "stop_id": "1981", "stop_desc": "Southeast corner of LAKE AUSTIN and 7TH - Nearside", "stop_name": "LAKE AUSTIN/7TH", "location_type": null, "platform_code": null, "zone_id": null}]
