[{"stop_timezone": "", "parent_station": "", "direction_id": "1", "stop_url": "https://www.capmetro.org/stopdetail/index.php?stop=1178", "stop_sequence": "1", "stop_id": "1178", "stop_desc": "002400 SAN JACINTO & 24TH", "location_type": "", "zone_id": "", "stop_lat": "30.287254", "wheelchair_boarding": "0", "stop_code": "1178", "stop_lon": "-97.733663", "route_id": "171", "stop_name": "2400 San Jacinto/24th"}, {"stop_timezone": "", "parent_station": "", "direction_id": "1", "stop_url": "https://www.capmetro.org/stopdetail/index.php?stop=1706", "stop_sequence": "1", "stop_id": "1706", "stop_desc": "003100 RED RIVER & 32ND", "location_type": "", "zone_id": "", "stop_lat": "30.290572", "wheelchair_boarding": "0", "stop_code": "1706", "stop_lon": "-97.727389", "route_id": "171", "stop_name": "3100 Red River/32nd"}, {"stop_timezone": "", "parent_station": "", "direction_id": "1", "stop_url": "https://www.capmetro.org/stopdetail/index.php?stop=4486", "stop_sequence": "10", "stop_id": "4486", "stop_desc": "006400 US 290 & WILLIAM CANNON", "location_type": "", "zone_id": "", "stop_lat": "30.234397", "wheelchair_boarding": "0", "stop_code": "4486", "stop_lon": "-97.863234", "route_id": "171", "stop_name": "Oak Hill Park and Ride"}, {"stop_timezone": "", "parent_station": "", "direction_id": "1", "stop_url": "https://www.capmetro.org/stopdetail/index.php?stop=5937", "stop_sequence": "10", "stop_id": "5937", "stop_desc": "000104 8TH & CONGRESS", "location_type": "", "zone_id": "", "stop_lat": "30.269914", "wheelchair_boarding": "0", "stop_code": "5937", "stop_lon": "-97.741869", "route_id": "171", "stop_name": "104 8th/Congress"}, {"stop_timezone": "", "parent_station": "", "direction_id": "1", "stop_url": "https://www.capmetro.org/stopdetail/index.php?stop=5950", "stop_sequence": "10", "stop_id": "5950", "stop_desc": "000000 GUADALUPE & 8TH", "location_type": "", "zone_id": "", "stop_lat": "30.271503", "wheelchair_boarding": "0", "stop_code": "5950", "stop_lon": "-97.745478", "route_id": "171", "stop_name": "Guadalupe/8th"}, {"stop_timezone": "", "parent_station": "", "direction_id": "1", "stop_url": "https://www.capmetro.org/stopdetail/index.php?stop=716", "stop_sequence": "10", "stop_id": "716", "stop_desc": "000800 CESAR CHAVEZ & WEST", "location_type": "", "zone_id": "", "stop_lat": "30.265741", "wheelchair_boarding": "0", "stop_code": "716", "stop_lon": "-97.752406", "route_id": "171", "stop_name": "800 Cesar Chavez/West"}, {"stop_timezone": "", "parent_station": "", "direction_id": "1", "stop_url": "https://www.capmetro.org/stopdetail/index.php?stop=2612", "stop_sequence": "11", "stop_id": "2612", "stop_desc": "000500 GUADALUPE & 5TH", "location_type": "", "zone_id": "", "stop_lat": "30.268253", "wheelchair_boarding": "0", "stop_code": "2612", "stop_lon": "-97.746690", "route_id": "171", "stop_name": "500 Guadalupe/5th"}, {"stop_timezone": "", "parent_station": "", "direction_id": "1", "stop_url": "https://www.capmetro.org/stopdetail/index.php?stop=4486", "stop_sequence": "11", "stop_id": "4486", "stop_desc": "006400 US 290 & WILLIAM CANNON", "location_type": "", "zone_id": "", "stop_lat": "30.234397", "wheelchair_boarding": "0", "stop_code": "4486", "stop_lon": "-97.863234", "route_id": "171", "stop_name": "Oak Hill Park and Ride"}, {"stop_timezone": "", "parent_station": "", "direction_id": "1", "stop_url": "https://www.capmetro.org/stopdetail/index.php?stop=5938", "stop_sequence": "11", "stop_id": "5938", "stop_desc": "000216 8TH & LAVACA", "location_type": "", "zone_id": "", "stop_lat": "30.270613", "wheelchair_boarding": "0", "stop_code": "5938", "stop_lon": "-97.744215", "route_id": "171", "stop_name": "216 8th/Lavaca"}, {"stop_timezone": "", "parent_station": "", "direction_id": "1", "stop_url": "https://www.capmetro.org/stopdetail/index.php?stop=2612", "stop_sequence": "12", "stop_id": "2612", "stop_desc": "000500 GUADALUPE & 5TH", "location_type": "", "zone_id": "", "stop_lat": "30.268253", "wheelchair_boarding": "0", "stop_code": "2612", "stop_lon": "-97.746690", "route_id": "171", "stop_name": "500 Guadalupe/5th"}, {"stop_timezone": "", "parent_station": "", "direction_id": "1", "stop_url": "https://www.capmetro.org/stopdetail/index.php?stop=716", "stop_sequence": "12", "stop_id": "716", "stop_desc": "000800 CESAR CHAVEZ & WEST", "location_type": "", "zone_id": "", "stop_lat": "30.265741", "wheelchair_boarding": "0", "stop_code": "716", "stop_lon": "-97.752406", "route_id": "171", "stop_name": "800 Cesar Chavez/West"}, {"stop_timezone": "", "parent_station": "", "direction_id": "1", "stop_url": "https://www.capmetro.org/stopdetail/index.php?stop=4486", "stop_sequence": "13", "stop_id": "4486", "stop_desc": "006400 US 290 & WILLIAM CANNON", "location_type": "", "zone_id": "", "stop_lat": "30.234397", "wheelchair_boarding": "0", "stop_code": "4486", "stop_lon": "-97.863234", "route_id": "171", "stop_name": "Oak Hill Park and Ride"}, {"stop_timezone": "", "parent_station": "", "direction_id": "1", "stop_url": "https://www.capmetro.org/stopdetail/index.php?stop=716", "stop_sequence": "13", "stop_id": "716", "stop_desc": "000800 CESAR CHAVEZ & WEST", "location_type": "", "zone_id": "", "stop_lat": "30.265741", "wheelchair_boarding": "0", "stop_code": "716", "stop_lon": "-97.752406", "route_id": "171", "stop_name": "800 Cesar Chavez/West"}, {"stop_timezone": "", "parent_station": "", "direction_id": "1", "stop_url": "https://www.capmetro.org/stopdetail/index.php?stop=2617", "stop_sequence": "14", "stop_id": "2617", "stop_desc": "006132 US 290 & PARKWOOD", "location_type": "", "zone_id": "", "stop_lat": "30.235662", "wheelchair_boarding": "0", "stop_code": "2617", "stop_lon": "-97.855267", "route_id": "171", "stop_name": "6132 US 290/Parkwood"}, {"stop_timezone": "", "parent_station": "", "direction_id": "1", "stop_url": "https://www.capmetro.org/stopdetail/index.php?stop=4486", "stop_sequence": "14", "stop_id": "4486", "stop_desc": "006400 US 290 & WILLIAM CANNON", "location_type": "", "zone_id": "", "stop_lat": "30.234397", "wheelchair_boarding": "0", "stop_code": "4486", "stop_lon": "-97.863234", "route_id": "171", "stop_name": "Oak Hill Park and Ride"}, {"stop_timezone": "", "parent_station": "", "direction_id": "1", "stop_url": "https://www.capmetro.org/stopdetail/index.php?stop=2617", "stop_sequence": "15", "stop_id": "2617", "stop_desc": "006132 US 290 & PARKWOOD", "location_type": "", "zone_id": "", "stop_lat": "30.235662", "wheelchair_boarding": "0", "stop_code": "2617", "stop_lon": "-97.855267", "route_id": "171", "stop_name": "6132 US 290/Parkwood"}, {"stop_timezone": "", "parent_station": "", "direction_id": "1", "stop_url": "https://www.capmetro.org/stopdetail/index.php?stop=4473", "stop_sequence": "15", "stop_id": "4473", "stop_desc": "006900 SCENIC BROOK & SH 71", "location_type": "", "zone_id": "", "stop_lat": "30.237011", "wheelchair_boarding": "0", "stop_code": "4473", "stop_lon": "-97.878699", "route_id": "171", "stop_name": "6900 Scenic Brook/SH 71"}, {"stop_timezone": "", "parent_station": "", "direction_id": "1", "stop_url": "https://www.capmetro.org/stopdetail/index.php?stop=4473", "stop_sequence": "16", "stop_id": "4473", "stop_desc": "006900 SCENIC BROOK & SH 71", "location_type": "", "zone_id": "", "stop_lat": "30.237011", "wheelchair_boarding": "0", "stop_code": "4473", "stop_lon": "-97.878699", "route_id": "171", "stop_name": "6900 Scenic Brook/SH 71"}, {"stop_timezone": "", "parent_station": "", "direction_id": "1", "stop_url": "https://www.capmetro.org/stopdetail/index.php?stop=4481", "stop_sequence": "16", "stop_id": "4481", "stop_desc": "007300 SCENIC BROOK & HANBRIDGE", "location_type": "", "zone_id": "", "stop_lat": "30.237524", "wheelchair_boarding": "0", "stop_code": "4481", "stop_lon": "-97.893567", "route_id": "171", "stop_name": "Scenic Brook/Hanbridge"}, {"stop_timezone": "", "parent_station": "", "direction_id": "1", "stop_url": "https://www.capmetro.org/stopdetail/index.php?stop=2618", "stop_sequence": "17", "stop_id": "2618", "stop_desc": "008400 FENTON & SCENIC BROOK", "location_type": "", "zone_id": "", "stop_lat": "30.235646", "wheelchair_boarding": "0", "stop_code": "2618", "stop_lon": "-97.898749", "route_id": "171", "stop_name": "Fenton/Scenic Brook"}, {"stop_timezone": "", "parent_station": "", "direction_id": "1", "stop_url": "https://www.capmetro.org/stopdetail/index.php?stop=4481", "stop_sequence": "17", "stop_id": "4481", "stop_desc": "007300 SCENIC BROOK & HANBRIDGE", "location_type": "", "zone_id": "", "stop_lat": "30.237524", "wheelchair_boarding": "0", "stop_code": "4481", "stop_lon": "-97.893567", "route_id": "171", "stop_name": "Scenic Brook/Hanbridge"}, {"stop_timezone": "", "parent_station": "", "direction_id": "1", "stop_url": "https://www.capmetro.org/stopdetail/index.php?stop=2618", "stop_sequence": "18", "stop_id": "2618", "stop_desc": "008400 FENTON & SCENIC BROOK", "location_type": "", "zone_id": "", "stop_lat": "30.235646", "wheelchair_boarding": "0", "stop_code": "2618", "stop_lon": "-97.898749", "route_id": "171", "stop_name": "Fenton/Scenic Brook"}, {"stop_timezone": "", "parent_station": "", "direction_id": "1", "stop_url": "https://www.capmetro.org/stopdetail/index.php?stop=4462", "stop_sequence": "18", "stop_id": "4462", "stop_desc": "008500 FENTON & RED WILLOW", "location_type": "", "zone_id": "", "stop_lat": "30.236672", "wheelchair_boarding": "0", "stop_code": "4462", "stop_lon": "-97.900803", "route_id": "171", "stop_name": "Fenton/Red Willow"}, {"stop_timezone": "", "parent_station": "", "direction_id": "1", "stop_url": "https://www.capmetro.org/stopdetail/index.php?stop=4457", "stop_sequence": "19", "stop_id": "4457", "stop_desc": "008525 RED WILLOW & BARGAMEN", "location_type": "", "zone_id": "", "stop_lat": "30.240953", "wheelchair_boarding": "0", "stop_code": "4457", "stop_lon": "-97.898066", "route_id": "171", "stop_name": "8525 Red Willow/Bargamen"}, {"stop_timezone": "", "parent_station": "", "direction_id": "1", "stop_url": "https://www.capmetro.org/stopdetail/index.php?stop=4462", "stop_sequence": "19", "stop_id": "4462", "stop_desc": "008500 FENTON & RED WILLOW", "location_type": "", "zone_id": "", "stop_lat": "30.236672", "wheelchair_boarding": "0", "stop_code": "4462", "stop_lon": "-97.900803", "route_id": "171", "stop_name": "Fenton/Red Willow"}, {"stop_timezone": "", "parent_station": "", "direction_id": "1", "stop_url": "https://www.capmetro.org/stopdetail/index.php?stop=1179", "stop_sequence": "2", "stop_id": "1179", "stop_desc": "002300 SAN JACINTO & 23RD", "location_type": "", "zone_id": "", "stop_lat": "30.285506", "wheelchair_boarding": "0", "stop_code": "1179", "stop_lon": "-97.733782", "route_id": "171", "stop_name": "2300 San Jacinto/23rd"}, {"stop_timezone": "", "parent_station": "", "direction_id": "1", "stop_url": "https://www.capmetro.org/stopdetail/index.php?stop=2077", "stop_sequence": "2", "stop_id": "2077", "stop_desc": "000920 DEAN KEETON & RED RIVER", "location_type": "", "zone_id": "", "stop_lat": "30.287579", "wheelchair_boarding": "0", "stop_code": "2077", "stop_lon": "-97.727345", "route_id": "171", "stop_name": "920 Dean Keeton/Red River"}, {"stop_timezone": "", "parent_station": "", "direction_id": "1", "stop_url": "https://www.capmetro.org/stopdetail/index.php?stop=4453", "stop_sequence": "20", "stop_id": "4453", "stop_desc": "008403 RED WILLOW & SMOKEY HILL", "location_type": "", "zone_id": "", "stop_lat": "30.241590", "wheelchair_boarding": "0", "stop_code": "4453", "stop_lon": "-97.894279", "route_id": "171", "stop_name": "8403 Red Willow/Smokey Hill"}, {"stop_timezone": "", "parent_station": "", "direction_id": "1", "stop_url": "https://www.capmetro.org/stopdetail/index.php?stop=4457", "stop_sequence": "20", "stop_id": "4457", "stop_desc": "008525 RED WILLOW & BARGAMEN", "location_type": "", "zone_id": "", "stop_lat": "30.240953", "wheelchair_boarding": "0", "stop_code": "4457", "stop_lon": "-97.898066", "route_id": "171", "stop_name": "8525 Red Willow/Bargamen"}, {"stop_timezone": "", "parent_station": "", "direction_id": "1", "stop_url": "https://www.capmetro.org/stopdetail/index.php?stop=4448", "stop_sequence": "21", "stop_id": "4448", "stop_desc": "006701 SILVERMINE & SH 71", "location_type": "", "zone_id": "", "stop_lat": "30.245996", "wheelchair_boarding": "0", "stop_code": "4448", "stop_lon": "-97.888647", "route_id": "171", "stop_name": "6701 Silvermine/SH 71"}, {"stop_timezone": "", "parent_station": "", "direction_id": "1", "stop_url": "https://www.capmetro.org/stopdetail/index.php?stop=4453", "stop_sequence": "21", "stop_id": "4453", "stop_desc": "008403 RED WILLOW & SMOKEY HILL", "location_type": "", "zone_id": "", "stop_lat": "30.241590", "wheelchair_boarding": "0", "stop_code": "4453", "stop_lon": "-97.894279", "route_id": "171", "stop_name": "8403 Red Willow/Smokey Hill"}, {"stop_timezone": "", "parent_station": "", "direction_id": "1", "stop_url": "https://www.capmetro.org/stopdetail/index.php?stop=4448", "stop_sequence": "22", "stop_id": "4448", "stop_desc": "006701 SILVERMINE & SH 71", "location_type": "", "zone_id": "", "stop_lat": "30.245996", "wheelchair_boarding": "0", "stop_code": "4448", "stop_lon": "-97.888647", "route_id": "171", "stop_name": "6701 Silvermine/SH 71"}, {"stop_timezone": "", "parent_station": "", "direction_id": "1", "stop_url": "https://www.capmetro.org/stopdetail/index.php?stop=1180", "stop_sequence": "3", "stop_id": "1180", "stop_desc": "002100 SAN JACINTO & 21ST", "location_type": "", "zone_id": "", "stop_lat": "30.283362", "wheelchair_boarding": "0", "stop_code": "1180", "stop_lon": "-97.734165", "route_id": "171", "stop_name": "2100 San Jacinto/21st"}, {"stop_timezone": "", "parent_station": "", "direction_id": "1", "stop_url": "https://www.capmetro.org/stopdetail/index.php?stop=2757", "stop_sequence": "3", "stop_id": "2757", "stop_desc": "000810 DEAN KEETON & HAMPTON", "location_type": "", "zone_id": "", "stop_lat": "30.289184", "wheelchair_boarding": "0", "stop_code": "2757", "stop_lon": "-97.730013", "route_id": "171", "stop_name": "810 Dean Keeton/Hampton"}, {"stop_timezone": "", "parent_station": "", "direction_id": "1", "stop_url": "https://www.capmetro.org/stopdetail/index.php?stop=1178", "stop_sequence": "4", "stop_id": "1178", "stop_desc": "002400 SAN JACINTO & 24TH", "location_type": "", "zone_id": "", "stop_lat": "30.287254", "wheelchair_boarding": "0", "stop_code": "1178", "stop_lon": "-97.733663", "route_id": "171", "stop_name": "2400 San Jacinto/24th"}, {"stop_timezone": "", "parent_station": "", "direction_id": "1", "stop_url": "https://www.capmetro.org/stopdetail/index.php?stop=915", "stop_sequence": "4", "stop_id": "915", "stop_desc": "001806 SAN JACINTO & MARTIN LUTHER KING", "location_type": "", "zone_id": "", "stop_lat": "30.279508", "wheelchair_boarding": "0", "stop_code": "915", "stop_lon": "-97.736019", "route_id": "171", "stop_name": "1806 San Jacinto/Martin Luther King"}, {"stop_timezone": "", "parent_station": "", "direction_id": "1", "stop_url": "https://www.capmetro.org/stopdetail/index.php?stop=1179", "stop_sequence": "5", "stop_id": "1179", "stop_desc": "002300 SAN JACINTO & 23RD", "location_type": "", "zone_id": "", "stop_lat": "30.285506", "wheelchair_boarding": "0", "stop_code": "1179", "stop_lon": "-97.733782", "route_id": "171", "stop_name": "2300 San Jacinto/23rd"}, {"stop_timezone": "", "parent_station": "", "direction_id": "1", "stop_url": "https://www.capmetro.org/stopdetail/index.php?stop=919", "stop_sequence": "5", "stop_id": "919", "stop_desc": "001400 SAN JACINTO & 14TH", "location_type": "", "zone_id": "", "stop_lat": "30.275451", "wheelchair_boarding": "0", "stop_code": "919", "stop_lon": "-97.737526", "route_id": "171", "stop_name": "San Jacinto/14th"}, {"stop_timezone": "", "parent_station": "", "direction_id": "1", "stop_url": "https://www.capmetro.org/stopdetail/index.php?stop=1180", "stop_sequence": "6", "stop_id": "1180", "stop_desc": "002100 SAN JACINTO & 21ST", "location_type": "", "zone_id": "", "stop_lat": "30.283362", "wheelchair_boarding": "0", "stop_code": "1180", "stop_lon": "-97.734165", "route_id": "171", "stop_name": "2100 San Jacinto/21st"}, {"stop_timezone": "", "parent_station": "", "direction_id": "1", "stop_url": "https://www.capmetro.org/stopdetail/index.php?stop=922", "stop_sequence": "6", "stop_id": "922", "stop_desc": "001100 SAN JACINTO & 11TH", "location_type": "", "zone_id": "", "stop_lat": "30.272213", "wheelchair_boarding": "0", "stop_code": "922", "stop_lon": "-97.738718", "route_id": "171", "stop_name": "San Jacinto/11th"}, {"stop_timezone": "", "parent_station": "", "direction_id": "1", "stop_url": "https://www.capmetro.org/stopdetail/index.php?stop=5937", "stop_sequence": "7", "stop_id": "5937", "stop_desc": "000104 8TH & CONGRESS", "location_type": "", "zone_id": "", "stop_lat": "30.269914", "wheelchair_boarding": "0", "stop_code": "5937", "stop_lon": "-97.741869", "route_id": "171", "stop_name": "104 8th/Congress"}, {"stop_timezone": "", "parent_station": "", "direction_id": "1", "stop_url": "https://www.capmetro.org/stopdetail/index.php?stop=5950", "stop_sequence": "7", "stop_id": "5950", "stop_desc": "000000 GUADALUPE & 8TH", "location_type": "", "zone_id": "", "stop_lat": "30.271503", "wheelchair_boarding": "0", "stop_code": "5950", "stop_lon": "-97.745478", "route_id": "171", "stop_name": "Guadalupe/8th"}, {"stop_timezone": "", "parent_station": "", "direction_id": "1", "stop_url": "https://www.capmetro.org/stopdetail/index.php?stop=915", "stop_sequence": "7", "stop_id": "915", "stop_desc": "001806 SAN JACINTO & MARTIN LUTHER KING", "location_type": "", "zone_id": "", "stop_lat": "30.279508", "wheelchair_boarding": "0", "stop_code": "915", "stop_lon": "-97.736019", "route_id": "171", "stop_name": "1806 San Jacinto/Martin Luther King"}, {"stop_timezone": "", "parent_station": "", "direction_id": "1", "stop_url": "https://www.capmetro.org/stopdetail/index.php?stop=2612", "stop_sequence": "8", "stop_id": "2612", "stop_desc": "000500 GUADALUPE & 5TH", "location_type": "", "zone_id": "", "stop_lat": "30.268253", "wheelchair_boarding": "0", "stop_code": "2612", "stop_lon": "-97.746690", "route_id": "171", "stop_name": "500 Guadalupe/5th"}, {"stop_timezone": "", "parent_station": "", "direction_id": "1", "stop_url": "https://www.capmetro.org/stopdetail/index.php?stop=5938", "stop_sequence": "8", "stop_id": "5938", "stop_desc": "000216 8TH & LAVACA", "location_type": "", "zone_id": "", "stop_lat": "30.270613", "wheelchair_boarding": "0", "stop_code": "5938", "stop_lon": "-97.744215", "route_id": "171", "stop_name": "216 8th/Lavaca"}, {"stop_timezone": "", "parent_station": "", "direction_id": "1", "stop_url": "https://www.capmetro.org/stopdetail/index.php?stop=919", "stop_sequence": "8", "stop_id": "919", "stop_desc": "001400 SAN JACINTO & 14TH", "location_type": "", "zone_id": "", "stop_lat": "30.275451", "wheelchair_boarding": "0", "stop_code": "919", "stop_lon": "-97.737526", "route_id": "171", "stop_name": "San Jacinto/14th"}, {"stop_timezone": "", "parent_station": "", "direction_id": "1", "stop_url": "https://www.capmetro.org/stopdetail/index.php?stop=2612", "stop_sequence": "9", "stop_id": "2612", "stop_desc": "000500 GUADALUPE & 5TH", "location_type": "", "zone_id": "", "stop_lat": "30.268253", "wheelchair_boarding": "0", "stop_code": "2612", "stop_lon": "-97.746690", "route_id": "171", "stop_name": "500 Guadalupe/5th"}, {"stop_timezone": "", "parent_station": "", "direction_id": "1", "stop_url": "https://www.capmetro.org/stopdetail/index.php?stop=716", "stop_sequence": "9", "stop_id": "716", "stop_desc": "000800 CESAR CHAVEZ & WEST", "location_type": "", "zone_id": "", "stop_lat": "30.265741", "wheelchair_boarding": "0", "stop_code": "716", "stop_lon": "-97.752406", "route_id": "171", "stop_name": "800 Cesar Chavez/West"}, {"stop_timezone": "", "parent_station": "", "direction_id": "1", "stop_url": "https://www.capmetro.org/stopdetail/index.php?stop=922", "stop_sequence": "9", "stop_id": "922", "stop_desc": "001100 SAN JACINTO & 11TH", "location_type": "", "zone_id": "", "stop_lat": "30.272213", "wheelchair_boarding": "0", "stop_code": "922", "stop_lon": "-97.738718", "route_id": "171", "stop_name": "San Jacinto/11th"}]
