[{"stop_timezone": "", "parent_station": "", "direction_id": "1", "stop_url": "https://www.capmetro.org/stopdetail/index.php?stop=5804", "stop_sequence": "1", "stop_id": "5804", "stop_desc": "000219 11TH & SAN JACINTO", "location_type": "", "zone_id": "", "stop_lat": "30.272292", "wheelchair_boarding": "0", "stop_code": "5804", "stop_lon": "-97.739054", "route_id": "6", "stop_name": "219 11th/San Jacinto"}, {"stop_timezone": "", "parent_station": "", "direction_id": "1", "stop_url": "https://www.capmetro.org/stopdetail/index.php?stop=6345", "stop_sequence": "1", "stop_id": "6345", "stop_desc": "000309 San Antonio & 4Th", "location_type": "", "zone_id": "", "stop_lat": "30.267071", "wheelchair_boarding": "0", "stop_code": "6345", "stop_lon": "-97.748099", "route_id": "6", "stop_name": "309 San Antonio/4th"}, {"stop_timezone": "", "parent_station": "", "direction_id": "1", "stop_url": "https://www.capmetro.org/stopdetail/index.php?stop=1113", "stop_sequence": "10", "stop_id": "1113", "stop_desc": "000800 12TH & BRANCH", "location_type": "", "zone_id": "", "stop_lat": "30.271886", "wheelchair_boarding": "0", "stop_code": "1113", "stop_lon": "-97.731306", "route_id": "6", "stop_name": "12th/Branch"}, {"stop_timezone": "", "parent_station": "", "direction_id": "1", "stop_url": "https://www.capmetro.org/stopdetail/index.php?stop=1118", "stop_sequence": "10", "stop_id": "1118", "stop_desc": "001819 12TH & CHICON", "location_type": "", "zone_id": "", "stop_lat": "30.273695", "wheelchair_boarding": "0", "stop_code": "1118", "stop_lon": "-97.720001", "route_id": "6", "stop_name": "1819 12th/Chicon"}, {"stop_timezone": "", "parent_station": "", "direction_id": "1", "stop_url": "https://www.capmetro.org/stopdetail/index.php?stop=1114", "stop_sequence": "11", "stop_id": "1114", "stop_desc": "001100 12TH & NAVASOTA", "location_type": "", "zone_id": "", "stop_lat": "30.272434", "wheelchair_boarding": "0", "stop_code": "1114", "stop_lon": "-97.727844", "route_id": "6", "stop_name": "12th/Navasota"}, {"stop_timezone": "", "parent_station": "", "direction_id": "1", "stop_url": "https://www.capmetro.org/stopdetail/index.php?stop=5747", "stop_sequence": "11", "stop_id": "5747", "stop_desc": "002401 12TH & PLEASANT VALLEY", "location_type": "", "zone_id": "", "stop_lat": "30.274488", "wheelchair_boarding": "0", "stop_code": "5747", "stop_lon": "-97.714983", "route_id": "6", "stop_name": "2401 12th/Pleasant Valley"}, {"stop_timezone": "", "parent_station": "", "direction_id": "1", "stop_url": "https://www.capmetro.org/stopdetail/index.php?stop=1121", "stop_sequence": "12", "stop_id": "1121", "stop_desc": "002601 12TH & CEDAR", "location_type": "", "zone_id": "", "stop_lat": "30.274815", "wheelchair_boarding": "0", "stop_code": "1121", "stop_lon": "-97.712846", "route_id": "6", "stop_name": "2601 12th/Cedar"}, {"stop_timezone": "", "parent_station": "", "direction_id": "1", "stop_url": "https://www.capmetro.org/stopdetail/index.php?stop=4173", "stop_sequence": "12", "stop_id": "4173", "stop_desc": "001321 12TH & ANGELINA", "location_type": "", "zone_id": "", "stop_lat": "30.272878", "wheelchair_boarding": "0", "stop_code": "4173", "stop_lon": "-97.725052", "route_id": "6", "stop_name": "1321 12th/Angelina"}, {"stop_timezone": "", "parent_station": "", "direction_id": "1", "stop_url": "https://www.capmetro.org/stopdetail/index.php?stop=1122", "stop_sequence": "13", "stop_id": "1122", "stop_desc": "002733 12TH & NEW YORK", "location_type": "", "zone_id": "", "stop_lat": "30.275203", "wheelchair_boarding": "0", "stop_code": "1122", "stop_lon": "-97.710441", "route_id": "6", "stop_name": "2733 12th/New York"}, {"stop_timezone": "", "parent_station": "", "direction_id": "1", "stop_url": "https://www.capmetro.org/stopdetail/index.php?stop=2856", "stop_sequence": "13", "stop_id": "2856", "stop_desc": "001703 12TH & LEONA", "location_type": "", "zone_id": "", "stop_lat": "30.273472", "wheelchair_boarding": "0", "stop_code": "2856", "stop_lon": "-97.721367", "route_id": "6", "stop_name": "1703 12th/Leona"}, {"stop_timezone": "", "parent_station": "", "direction_id": "1", "stop_url": "https://www.capmetro.org/stopdetail/index.php?stop=1118", "stop_sequence": "14", "stop_id": "1118", "stop_desc": "001819 12TH & CHICON", "location_type": "", "zone_id": "", "stop_lat": "30.273695", "wheelchair_boarding": "0", "stop_code": "1118", "stop_lon": "-97.720001", "route_id": "6", "stop_name": "1819 12th/Chicon"}, {"stop_timezone": "", "parent_station": "", "direction_id": "1", "stop_url": "https://www.capmetro.org/stopdetail/index.php?stop=1123", "stop_sequence": "14", "stop_id": "1123", "stop_desc": "002863 12TH & ALEXANDER", "location_type": "", "zone_id": "", "stop_lat": "30.275533", "wheelchair_boarding": "0", "stop_code": "1123", "stop_lon": "-97.708349", "route_id": "6", "stop_name": "2863 12th/Alexander"}, {"stop_timezone": "", "parent_station": "", "direction_id": "1", "stop_url": "https://www.capmetro.org/stopdetail/index.php?stop=1124", "stop_sequence": "15", "stop_id": "1124", "stop_desc": "002917 12TH & HARGRAVE", "location_type": "", "zone_id": "", "stop_lat": "30.275868", "wheelchair_boarding": "0", "stop_code": "1124", "stop_lon": "-97.706343", "route_id": "6", "stop_name": "2917 12th/Hargrave"}, {"stop_timezone": "", "parent_station": "", "direction_id": "1", "stop_url": "https://www.capmetro.org/stopdetail/index.php?stop=5747", "stop_sequence": "15", "stop_id": "5747", "stop_desc": "002401 12TH & PLEASANT VALLEY", "location_type": "", "zone_id": "", "stop_lat": "30.274488", "wheelchair_boarding": "0", "stop_code": "5747", "stop_lon": "-97.714983", "route_id": "6", "stop_name": "2401 12th/Pleasant Valley"}, {"stop_timezone": "", "parent_station": "", "direction_id": "1", "stop_url": "https://www.capmetro.org/stopdetail/index.php?stop=1121", "stop_sequence": "16", "stop_id": "1121", "stop_desc": "002601 12TH & CEDAR", "location_type": "", "zone_id": "", "stop_lat": "30.274815", "wheelchair_boarding": "0", "stop_code": "1121", "stop_lon": "-97.712846", "route_id": "6", "stop_name": "2601 12th/Cedar"}, {"stop_timezone": "", "parent_station": "", "direction_id": "1", "stop_url": "https://www.capmetro.org/stopdetail/index.php?stop=4200", "stop_sequence": "16", "stop_id": "4200", "stop_desc": "002900 12TH & OAK GROVE", "location_type": "", "zone_id": "", "stop_lat": "30.276207", "wheelchair_boarding": "0", "stop_code": "4200", "stop_lon": "-97.704140", "route_id": "6", "stop_name": "12th/Oak Grove"}, {"stop_timezone": "", "parent_station": "", "direction_id": "1", "stop_url": "https://www.capmetro.org/stopdetail/index.php?stop=1122", "stop_sequence": "17", "stop_id": "1122", "stop_desc": "002733 12TH & NEW YORK", "location_type": "", "zone_id": "", "stop_lat": "30.275203", "wheelchair_boarding": "0", "stop_code": "1122", "stop_lon": "-97.710441", "route_id": "6", "stop_name": "2733 12th/New York"}, {"stop_timezone": "", "parent_station": "", "direction_id": "1", "stop_url": "https://www.capmetro.org/stopdetail/index.php?stop=1125", "stop_sequence": "17", "stop_id": "1125", "stop_desc": "003021 12TH & MCKINLEY", "location_type": "", "zone_id": "", "stop_lat": "30.276474", "wheelchair_boarding": "0", "stop_code": "1125", "stop_lon": "-97.702363", "route_id": "6", "stop_name": "3021 12th/McKinley"}, {"stop_timezone": "", "parent_station": "", "direction_id": "1", "stop_url": "https://www.capmetro.org/stopdetail/index.php?stop=1123", "stop_sequence": "18", "stop_id": "1123", "stop_desc": "002863 12TH & ALEXANDER", "location_type": "", "zone_id": "", "stop_lat": "30.275533", "wheelchair_boarding": "0", "stop_code": "1123", "stop_lon": "-97.708349", "route_id": "6", "stop_name": "2863 12th/Alexander"}, {"stop_timezone": "", "parent_station": "", "direction_id": "1", "stop_url": "https://www.capmetro.org/stopdetail/index.php?stop=1126", "stop_sequence": "18", "stop_id": "1126", "stop_desc": "003245 12TH & AIRPORT", "location_type": "", "zone_id": "", "stop_lat": "30.276731", "wheelchair_boarding": "0", "stop_code": "1126", "stop_lon": "-97.700547", "route_id": "6", "stop_name": "3245 12th/Airport"}, {"stop_timezone": "", "parent_station": "", "direction_id": "1", "stop_url": "https://www.capmetro.org/stopdetail/index.php?stop=1124", "stop_sequence": "19", "stop_id": "1124", "stop_desc": "002917 12TH & HARGRAVE", "location_type": "", "zone_id": "", "stop_lat": "30.275868", "wheelchair_boarding": "0", "stop_code": "1124", "stop_lon": "-97.706343", "route_id": "6", "stop_name": "2917 12th/Hargrave"}, {"stop_timezone": "", "parent_station": "", "direction_id": "1", "stop_url": "https://www.capmetro.org/stopdetail/index.php?stop=1127", "stop_sequence": "19", "stop_id": "1127", "stop_desc": "003403 12TH & GREENWOOD", "location_type": "", "zone_id": "", "stop_lat": "30.277301", "wheelchair_boarding": "0", "stop_code": "1127", "stop_lon": "-97.697085", "route_id": "6", "stop_name": "3403 12th/Greenwood"}, {"stop_timezone": "", "parent_station": "", "direction_id": "1", "stop_url": "https://www.capmetro.org/stopdetail/index.php?stop=2112", "stop_sequence": "2", "stop_id": "2112", "stop_desc": "000422 5TH & GUADALUPE", "location_type": "", "zone_id": "", "stop_lat": "30.268054", "wheelchair_boarding": "0", "stop_code": "2112", "stop_lon": "-97.746790", "route_id": "6", "stop_name": "5th/Guadalupe"}, {"stop_timezone": "", "parent_station": "", "direction_id": "1", "stop_url": "https://www.capmetro.org/stopdetail/index.php?stop=5950", "stop_sequence": "2", "stop_id": "5950", "stop_desc": "000000 GUADALUPE & 8TH", "location_type": "", "zone_id": "", "stop_lat": "30.271503", "wheelchair_boarding": "0", "stop_code": "5950", "stop_lon": "-97.745478", "route_id": "6", "stop_name": "Guadalupe/8th"}, {"stop_timezone": "", "parent_station": "", "direction_id": "1", "stop_url": "https://www.capmetro.org/stopdetail/index.php?stop=1128", "stop_sequence": "20", "stop_id": "1128", "stop_desc": "003525 12TH & E M FRANKLIN", "location_type": "", "zone_id": "", "stop_lat": "30.277722", "wheelchair_boarding": "0", "stop_code": "1128", "stop_lon": "-97.694402", "route_id": "6", "stop_name": "3525 12th/E M Franklin"}, {"stop_timezone": "", "parent_station": "", "direction_id": "1", "stop_url": "https://www.capmetro.org/stopdetail/index.php?stop=4200", "stop_sequence": "20", "stop_id": "4200", "stop_desc": "002900 12TH & OAK GROVE", "location_type": "", "zone_id": "", "stop_lat": "30.276207", "wheelchair_boarding": "0", "stop_code": "4200", "stop_lon": "-97.704140", "route_id": "6", "stop_name": "12th/Oak Grove"}, {"stop_timezone": "", "parent_station": "", "direction_id": "1", "stop_url": "https://www.capmetro.org/stopdetail/index.php?stop=1125", "stop_sequence": "21", "stop_id": "1125", "stop_desc": "003021 12TH & MCKINLEY", "location_type": "", "zone_id": "", "stop_lat": "30.276474", "wheelchair_boarding": "0", "stop_code": "1125", "stop_lon": "-97.702363", "route_id": "6", "stop_name": "3021 12th/McKinley"}, {"stop_timezone": "", "parent_station": "", "direction_id": "1", "stop_url": "https://www.capmetro.org/stopdetail/index.php?stop=4668", "stop_sequence": "21", "stop_id": "4668", "stop_desc": "3900 12TH & LUNA", "location_type": "", "zone_id": "", "stop_lat": "30.278280", "wheelchair_boarding": "0", "stop_code": "4668", "stop_lon": "-97.690770", "route_id": "6", "stop_name": "12th/Luna"}, {"stop_timezone": "", "parent_station": "", "direction_id": "1", "stop_url": "https://www.capmetro.org/stopdetail/index.php?stop=1126", "stop_sequence": "22", "stop_id": "1126", "stop_desc": "003245 12TH & AIRPORT", "location_type": "", "zone_id": "", "stop_lat": "30.276731", "wheelchair_boarding": "0", "stop_code": "1126", "stop_lon": "-97.700547", "route_id": "6", "stop_name": "3245 12th/Airport"}, {"stop_timezone": "", "parent_station": "", "direction_id": "1", "stop_url": "https://www.capmetro.org/stopdetail/index.php?stop=4667", "stop_sequence": "22", "stop_id": "4667", "stop_desc": "004609 12TH & SPRINGDALE", "location_type": "", "zone_id": "", "stop_lat": "30.278604", "wheelchair_boarding": "0", "stop_code": "4667", "stop_lon": "-97.686295", "route_id": "6", "stop_name": "4609 12th/Springdale"}, {"stop_timezone": "", "parent_station": "", "direction_id": "1", "stop_url": "https://www.capmetro.org/stopdetail/index.php?stop=1127", "stop_sequence": "23", "stop_id": "1127", "stop_desc": "003403 12TH & GREENWOOD", "location_type": "", "zone_id": "", "stop_lat": "30.277301", "wheelchair_boarding": "0", "stop_code": "1127", "stop_lon": "-97.697085", "route_id": "6", "stop_name": "3403 12th/Greenwood"}, {"stop_timezone": "", "parent_station": "", "direction_id": "1", "stop_url": "https://www.capmetro.org/stopdetail/index.php?stop=1130", "stop_sequence": "23", "stop_id": "1130", "stop_desc": "001201 WEBBERVILLE & 12TH", "location_type": "", "zone_id": "", "stop_lat": "30.278282", "wheelchair_boarding": "0", "stop_code": "1130", "stop_lon": "-97.684544", "route_id": "6", "stop_name": "1201 Webberville/12th"}, {"stop_timezone": "", "parent_station": "", "direction_id": "1", "stop_url": "https://www.capmetro.org/stopdetail/index.php?stop=1128", "stop_sequence": "24", "stop_id": "1128", "stop_desc": "003525 12TH & E M FRANKLIN", "location_type": "", "zone_id": "", "stop_lat": "30.277722", "wheelchair_boarding": "0", "stop_code": "1128", "stop_lon": "-97.694402", "route_id": "6", "stop_name": "3525 12th/E M Franklin"}, {"stop_timezone": "", "parent_station": "", "direction_id": "1", "stop_url": "https://www.capmetro.org/stopdetail/index.php?stop=1131", "stop_sequence": "24", "stop_id": "1131", "stop_desc": "001401 WEBBERVILLE & RIBBECKE", "location_type": "", "zone_id": "", "stop_lat": "30.279406", "wheelchair_boarding": "0", "stop_code": "1131", "stop_lon": "-97.682614", "route_id": "6", "stop_name": "1401 Webberville/Ribbecke"}, {"stop_timezone": "", "parent_station": "", "direction_id": "1", "stop_url": "https://www.capmetro.org/stopdetail/index.php?stop=1132", "stop_sequence": "25", "stop_id": "1132", "stop_desc": "001419 WEBBERVILLE & FORT BRANCH", "location_type": "", "zone_id": "", "stop_lat": "30.279744", "wheelchair_boarding": "0", "stop_code": "1132", "stop_lon": "-97.680966", "route_id": "6", "stop_name": "1419 Webberville/Fort Branch"}, {"stop_timezone": "", "parent_station": "", "direction_id": "1", "stop_url": "https://www.capmetro.org/stopdetail/index.php?stop=4668", "stop_sequence": "25", "stop_id": "4668", "stop_desc": "3900 12TH & LUNA", "location_type": "", "zone_id": "", "stop_lat": "30.278280", "wheelchair_boarding": "0", "stop_code": "4668", "stop_lon": "-97.690770", "route_id": "6", "stop_name": "12th/Luna"}, {"stop_timezone": "", "parent_station": "", "direction_id": "1", "stop_url": "https://www.capmetro.org/stopdetail/index.php?stop=4667", "stop_sequence": "26", "stop_id": "4667", "stop_desc": "004609 12TH & SPRINGDALE", "location_type": "", "zone_id": "", "stop_lat": "30.278604", "wheelchair_boarding": "0", "stop_code": "4667", "stop_lon": "-97.686295", "route_id": "6", "stop_name": "4609 12th/Springdale"}, {"stop_timezone": "", "parent_station": "", "direction_id": "1", "stop_url": "https://www.capmetro.org/stopdetail/index.php?stop=5461", "stop_sequence": "26", "stop_id": "5461", "stop_desc": "001404 FORT BRANCH & DELANO", "location_type": "", "zone_id": "", "stop_lat": "30.278343", "wheelchair_boarding": "0", "stop_code": "5461", "stop_lon": "-97.680174", "route_id": "6", "stop_name": "1404 Fort Branch/Delano"}, {"stop_timezone": "", "parent_station": "", "direction_id": "1", "stop_url": "https://www.capmetro.org/stopdetail/index.php?stop=1130", "stop_sequence": "27", "stop_id": "1130", "stop_desc": "001201 WEBBERVILLE & 12TH", "location_type": "", "zone_id": "", "stop_lat": "30.278282", "wheelchair_boarding": "0", "stop_code": "1130", "stop_lon": "-97.684544", "route_id": "6", "stop_name": "1201 Webberville/12th"}, {"stop_timezone": "", "parent_station": "", "direction_id": "1", "stop_url": "https://www.capmetro.org/stopdetail/index.php?stop=5911", "stop_sequence": "27", "stop_id": "5911", "stop_desc": "005507 JACKIE ROBINSON & DELANO", "location_type": "", "zone_id": "", "stop_lat": "30.276475", "wheelchair_boarding": "0", "stop_code": "5911", "stop_lon": "-97.678406", "route_id": "6", "stop_name": "5507 Jackie Robinson/Delano"}, {"stop_timezone": "", "parent_station": "", "direction_id": "1", "stop_url": "https://www.capmetro.org/stopdetail/index.php?stop=1131", "stop_sequence": "28", "stop_id": "1131", "stop_desc": "001401 WEBBERVILLE & RIBBECKE", "location_type": "", "zone_id": "", "stop_lat": "30.279406", "wheelchair_boarding": "0", "stop_code": "1131", "stop_lon": "-97.682614", "route_id": "6", "stop_name": "1401 Webberville/Ribbecke"}, {"stop_timezone": "", "parent_station": "", "direction_id": "1", "stop_url": "https://www.capmetro.org/stopdetail/index.php?stop=1137", "stop_sequence": "28", "stop_id": "1137", "stop_desc": "003811 TANNEHILL & JACKIE ROBINSON", "location_type": "", "zone_id": "", "stop_lat": "30.276584", "wheelchair_boarding": "0", "stop_code": "1137", "stop_lon": "-97.675697", "route_id": "6", "stop_name": "3811 Tannehill/Jackie Robinson"}, {"stop_timezone": "", "parent_station": "", "direction_id": "1", "stop_url": "https://www.capmetro.org/stopdetail/index.php?stop=1132", "stop_sequence": "29", "stop_id": "1132", "stop_desc": "001419 WEBBERVILLE & FORT BRANCH", "location_type": "", "zone_id": "", "stop_lat": "30.279744", "wheelchair_boarding": "0", "stop_code": "1132", "stop_lon": "-97.680966", "route_id": "6", "stop_name": "1419 Webberville/Fort Branch"}, {"stop_timezone": "", "parent_station": "", "direction_id": "1", "stop_url": "https://www.capmetro.org/stopdetail/index.php?stop=1138", "stop_sequence": "29", "stop_id": "1138", "stop_desc": "004021 TANNEHILL & SAMUEL HUSTON", "location_type": "", "zone_id": "", "stop_lat": "30.279192", "wheelchair_boarding": "0", "stop_code": "1138", "stop_lon": "-97.673977", "route_id": "6", "stop_name": "4021 Tannehill/Samuel Huston"}, {"stop_timezone": "", "parent_station": "", "direction_id": "1", "stop_url": "https://www.capmetro.org/stopdetail/index.php?stop=2613", "stop_sequence": "3", "stop_id": "2613", "stop_desc": "000400 GUADALUPE & 4TH", "location_type": "", "zone_id": "", "stop_lat": "30.267331", "wheelchair_boarding": "0", "stop_code": "2613", "stop_lon": "-97.747037", "route_id": "6", "stop_name": "Guadalupe/4th"}, {"stop_timezone": "", "parent_station": "", "direction_id": "1", "stop_url": "https://www.capmetro.org/stopdetail/index.php?stop=6314", "stop_sequence": "3", "stop_id": "6314", "stop_desc": "000115 7TH & COLORADO", "location_type": "", "zone_id": "", "stop_lat": "30.269174", "wheelchair_boarding": "0", "stop_code": "6314", "stop_lon": "-97.743476", "route_id": "6", "stop_name": "115 7th/Colorado"}, {"stop_timezone": "", "parent_station": "", "direction_id": "1", "stop_url": "https://www.capmetro.org/stopdetail/index.php?stop=5007", "stop_sequence": "30", "stop_id": "5007", "stop_desc": "004700 TANNEHILL & WEBBERVILLE", "location_type": "", "zone_id": "", "stop_lat": "30.283973", "wheelchair_boarding": "0", "stop_code": "5007", "stop_lon": "-97.671344", "route_id": "6", "stop_name": "Tannehill/Webberville"}, {"stop_timezone": "", "parent_station": "", "direction_id": "1", "stop_url": "https://www.capmetro.org/stopdetail/index.php?stop=5461", "stop_sequence": "30", "stop_id": "5461", "stop_desc": "001404 FORT BRANCH & DELANO", "location_type": "", "zone_id": "", "stop_lat": "30.278343", "wheelchair_boarding": "0", "stop_code": "5461", "stop_lon": "-97.680174", "route_id": "6", "stop_name": "1404 Fort Branch/Delano"}, {"stop_timezone": "", "parent_station": "", "direction_id": "1", "stop_url": "https://www.capmetro.org/stopdetail/index.php?stop=1133", "stop_sequence": "31", "stop_id": "1133", "stop_desc": "001302 FORT BRANCH & ELEANOR", "location_type": "", "zone_id": "", "stop_lat": "30.276930", "wheelchair_boarding": "0", "stop_code": "1133", "stop_lon": "-97.680222", "route_id": "6", "stop_name": "1302 Fort Branch/Eleanor"}, {"stop_timezone": "", "parent_station": "", "direction_id": "1", "stop_url": "https://www.capmetro.org/stopdetail/index.php?stop=1087", "stop_sequence": "32", "stop_id": "1087", "stop_desc": "001200 ELEANOR & HUDSON", "location_type": "", "zone_id": "", "stop_lat": "30.273978", "wheelchair_boarding": "0", "stop_code": "1087", "stop_lon": "-97.679372", "route_id": "6", "stop_name": "Hudson/Eleanor"}, {"stop_timezone": "", "parent_station": "", "direction_id": "1", "stop_url": "https://www.capmetro.org/stopdetail/index.php?stop=1135", "stop_sequence": "33", "stop_id": "1135", "stop_desc": "001201 DELANO & HUDSON", "location_type": "", "zone_id": "", "stop_lat": "30.273423", "wheelchair_boarding": "0", "stop_code": "1135", "stop_lon": "-97.677929", "route_id": "6", "stop_name": "1201 Delano/Hudson"}, {"stop_timezone": "", "parent_station": "", "direction_id": "1", "stop_url": "https://www.capmetro.org/stopdetail/index.php?stop=5911", "stop_sequence": "34", "stop_id": "5911", "stop_desc": "005507 JACKIE ROBINSON & DELANO", "location_type": "", "zone_id": "", "stop_lat": "30.276475", "wheelchair_boarding": "0", "stop_code": "5911", "stop_lon": "-97.678406", "route_id": "6", "stop_name": "5507 Jackie Robinson/Delano"}, {"stop_timezone": "", "parent_station": "", "direction_id": "1", "stop_url": "https://www.capmetro.org/stopdetail/index.php?stop=1137", "stop_sequence": "35", "stop_id": "1137", "stop_desc": "003811 TANNEHILL & JACKIE ROBINSON", "location_type": "", "zone_id": "", "stop_lat": "30.276584", "wheelchair_boarding": "0", "stop_code": "1137", "stop_lon": "-97.675697", "route_id": "6", "stop_name": "3811 Tannehill/Jackie Robinson"}, {"stop_timezone": "", "parent_station": "", "direction_id": "1", "stop_url": "https://www.capmetro.org/stopdetail/index.php?stop=1138", "stop_sequence": "36", "stop_id": "1138", "stop_desc": "004021 TANNEHILL & SAMUEL HUSTON", "location_type": "", "zone_id": "", "stop_lat": "30.279192", "wheelchair_boarding": "0", "stop_code": "1138", "stop_lon": "-97.673977", "route_id": "6", "stop_name": "4021 Tannehill/Samuel Huston"}, {"stop_timezone": "", "parent_station": "", "direction_id": "1", "stop_url": "https://www.capmetro.org/stopdetail/index.php?stop=5007", "stop_sequence": "37", "stop_id": "5007", "stop_desc": "004700 TANNEHILL & WEBBERVILLE", "location_type": "", "zone_id": "", "stop_lat": "30.283973", "wheelchair_boarding": "0", "stop_code": "5007", "stop_lon": "-97.671344", "route_id": "6", "stop_name": "Tannehill/Webberville"}, {"stop_timezone": "", "parent_station": "", "direction_id": "1", "stop_url": "https://www.capmetro.org/stopdetail/index.php?stop=2643", "stop_sequence": "4", "stop_id": "2643", "stop_desc": "000300 LAVACA & 4TH", "location_type": "", "zone_id": "", "stop_lat": "30.266689", "wheelchair_boarding": "0", "stop_code": "2643", "stop_lon": "-97.745863", "route_id": "6", "stop_name": "Lavaca/4th"}, {"stop_timezone": "", "parent_station": "", "direction_id": "1", "stop_url": "https://www.capmetro.org/stopdetail/index.php?stop=6315", "stop_sequence": "4", "stop_id": "6315", "stop_desc": "000714 Trinity & 8Th", "location_type": "", "zone_id": "", "stop_lat": "30.269216", "wheelchair_boarding": "0", "stop_code": "6315", "stop_lon": "-97.738446", "route_id": "6", "stop_name": "805 Trinity/8th"}, {"stop_timezone": "", "parent_station": "", "direction_id": "1", "stop_url": "https://www.capmetro.org/stopdetail/index.php?stop=5965", "stop_sequence": "5", "stop_id": "5965", "stop_desc": "000813 LAVACA & 8TH", "location_type": "", "zone_id": "", "stop_lat": "30.270952", "wheelchair_boarding": "0", "stop_code": "5965", "stop_lon": "-97.744272", "route_id": "6", "stop_name": "813 Lavaca/8th (Farside)"}, {"stop_timezone": "", "parent_station": "", "direction_id": "1", "stop_url": "https://www.capmetro.org/stopdetail/index.php?stop=864", "stop_sequence": "5", "stop_id": "864", "stop_desc": "001117 TRINITY & 12TH", "location_type": "", "zone_id": "", "stop_lat": "30.272709", "wheelchair_boarding": "0", "stop_code": "864", "stop_lon": "-97.737150", "route_id": "6", "stop_name": "Trinity/12th"}, {"stop_timezone": "", "parent_station": "", "direction_id": "1", "stop_url": "https://www.capmetro.org/stopdetail/index.php?stop=1113", "stop_sequence": "6", "stop_id": "1113", "stop_desc": "000800 12TH & BRANCH", "location_type": "", "zone_id": "", "stop_lat": "30.271886", "wheelchair_boarding": "0", "stop_code": "1113", "stop_lon": "-97.731306", "route_id": "6", "stop_name": "12th/Branch"}, {"stop_timezone": "", "parent_station": "", "direction_id": "1", "stop_url": "https://www.capmetro.org/stopdetail/index.php?stop=2607", "stop_sequence": "6", "stop_id": "2607", "stop_desc": "000910 LAVACA & 10TH", "location_type": "", "zone_id": "", "stop_lat": "30.272281", "wheelchair_boarding": "0", "stop_code": "2607", "stop_lon": "-97.743773", "route_id": "6", "stop_name": "Lavaca/10th"}, {"stop_timezone": "", "parent_station": "", "direction_id": "1", "stop_url": "https://www.capmetro.org/stopdetail/index.php?stop=1114", "stop_sequence": "7", "stop_id": "1114", "stop_desc": "001100 12TH & NAVASOTA", "location_type": "", "zone_id": "", "stop_lat": "30.272434", "wheelchair_boarding": "0", "stop_code": "1114", "stop_lon": "-97.727844", "route_id": "6", "stop_name": "12th/Navasota"}, {"stop_timezone": "", "parent_station": "", "direction_id": "1", "stop_url": "https://www.capmetro.org/stopdetail/index.php?stop=506", "stop_sequence": "7", "stop_id": "506", "stop_desc": "000100 11TH & CONGRESS", "location_type": "", "zone_id": "", "stop_lat": "30.272700", "wheelchair_boarding": "0", "stop_code": "506", "stop_lon": "-97.741376", "route_id": "6", "stop_name": "11th/Congress"}, {"stop_timezone": "", "parent_station": "", "direction_id": "1", "stop_url": "https://www.capmetro.org/stopdetail/index.php?stop=4173", "stop_sequence": "8", "stop_id": "4173", "stop_desc": "001321 12TH & ANGELINA", "location_type": "", "zone_id": "", "stop_lat": "30.272878", "wheelchair_boarding": "0", "stop_code": "4173", "stop_lon": "-97.725052", "route_id": "6", "stop_name": "1321 12th/Angelina"}, {"stop_timezone": "", "parent_station": "", "direction_id": "1", "stop_url": "https://www.capmetro.org/stopdetail/index.php?stop=863", "stop_sequence": "8", "stop_id": "863", "stop_desc": "000200 11TH & SAN JACINTO", "location_type": "", "zone_id": "", "stop_lat": "30.272000", "wheelchair_boarding": "0", "stop_code": "863", "stop_lon": "-97.738836", "route_id": "6", "stop_name": "11th/San Jacinto SW Corner"}, {"stop_timezone": "", "parent_station": "", "direction_id": "1", "stop_url": "https://www.capmetro.org/stopdetail/index.php?stop=1569", "stop_sequence": "9", "stop_id": "1569", "stop_desc": "001121 RED RIVER & 12TH", "location_type": "", "zone_id": "", "stop_lat": "30.272138", "wheelchair_boarding": "0", "stop_code": "1569", "stop_lon": "-97.734944", "route_id": "6", "stop_name": "1121 Red River/12th"}, {"stop_timezone": "", "parent_station": "", "direction_id": "1", "stop_url": "https://www.capmetro.org/stopdetail/index.php?stop=2856", "stop_sequence": "9", "stop_id": "2856", "stop_desc": "001703 12TH & LEONA", "location_type": "", "zone_id": "", "stop_lat": "30.273472", "wheelchair_boarding": "0", "stop_code": "2856", "stop_lon": "-97.721367", "route_id": "6", "stop_name": "1703 12th/Leona"}]
