[{"stop_timezone": "", "parent_station": "", "direction_id": "1", "stop_url": "https://www.capmetro.org/stopdetail/index.php?stop=2280", "stop_sequence": "1", "stop_id": "2280", "stop_desc": "001900 GROVE & RIVERSIDE", "location_type": "", "zone_id": "", "stop_lat": "30.228217", "wheelchair_boarding": "0", "stop_code": "2280", "stop_lon": "-97.707046", "route_id": "271", "stop_name": "Grove/Riverside"}, {"stop_timezone": "", "parent_station": "", "direction_id": "1", "stop_url": "https://www.capmetro.org/stopdetail/index.php?stop=831", "stop_sequence": "1", "stop_id": "831", "stop_desc": "001020 ACC & GROVE", "location_type": "", "zone_id": "", "stop_lat": "30.236214", "wheelchair_boarding": "0", "stop_code": "831", "stop_lon": "-97.704856", "route_id": "271", "stop_name": "ACC Riverside Campus Stop"}, {"stop_timezone": "", "parent_station": "", "direction_id": "1", "stop_url": "https://www.capmetro.org/stopdetail/index.php?stop=5045", "stop_sequence": "10", "stop_id": "5045", "stop_desc": "002474 SH 71 & PRESIDENTIAL", "location_type": "", "zone_id": "", "stop_lat": "30.212705", "wheelchair_boarding": "0", "stop_code": "5045", "stop_lon": "-97.659090", "route_id": "271", "stop_name": "2474 SH 71/Presidential"}, {"stop_timezone": "", "parent_station": "", "direction_id": "1", "stop_url": "https://www.capmetro.org/stopdetail/index.php?stop=5797", "stop_sequence": "11", "stop_id": "5797", "stop_desc": "000000 SH 71 & CHEVIOT", "location_type": "", "zone_id": "", "stop_lat": "30.204687", "wheelchair_boarding": "0", "stop_code": "5797", "stop_lon": "-97.642909", "route_id": "271", "stop_name": "SH 71/Cheviot (EB)"}, {"stop_timezone": "", "parent_station": "", "direction_id": "1", "stop_url": "https://www.capmetro.org/stopdetail/index.php?stop=3323", "stop_sequence": "12", "stop_id": "3323", "stop_desc": "003320 973 & 71", "location_type": "", "zone_id": "", "stop_lat": "30.200828", "wheelchair_boarding": "0", "stop_code": "3323", "stop_lon": "-97.640184", "route_id": "271", "stop_name": "3320 FM 973/SH 71"}, {"stop_timezone": "", "parent_station": "", "direction_id": "1", "stop_url": "https://www.capmetro.org/stopdetail/index.php?stop=3324", "stop_sequence": "13", "stop_id": "3324", "stop_desc": "003518 BILL PRICE & FM 973", "location_type": "", "zone_id": "", "stop_lat": "30.198800", "wheelchair_boarding": "0", "stop_code": "3324", "stop_lon": "-97.642815", "route_id": "271", "stop_name": "3518 Bill Price/FM 973"}, {"stop_timezone": "", "parent_station": "", "direction_id": "1", "stop_url": "https://www.capmetro.org/stopdetail/index.php?stop=3238", "stop_sequence": "14", "stop_id": "3238", "stop_desc": "003618 BILL PRICE & FM 973", "location_type": "", "zone_id": "", "stop_lat": "30.197840", "wheelchair_boarding": "0", "stop_code": "3238", "stop_lon": "-97.645546", "route_id": "271", "stop_name": "Travis Correctional Facility"}, {"stop_timezone": "", "parent_station": "", "direction_id": "1", "stop_url": "https://www.capmetro.org/stopdetail/index.php?stop=5980", "stop_sequence": "15", "stop_id": "5980", "stop_desc": "012323 PEARCE & LAS ALAS", "location_type": "", "zone_id": "", "stop_lat": "30.171314", "wheelchair_boarding": "0", "stop_code": "5980", "stop_lon": "-97.627242", "route_id": "271", "stop_name": "12323 Pearce/Las Alas"}, {"stop_timezone": "", "parent_station": "", "direction_id": "1", "stop_url": "https://www.capmetro.org/stopdetail/index.php?stop=5986", "stop_sequence": "16", "stop_id": "5986", "stop_desc": "012905 THOME VALLEY & ALOMAR", "location_type": "", "zone_id": "", "stop_lat": "30.172853", "wheelchair_boarding": "0", "stop_code": "5986", "stop_lon": "-97.617366", "route_id": "271", "stop_name": "12905 Thome Valley/Alomar"}, {"stop_timezone": "", "parent_station": "", "direction_id": "1", "stop_url": "https://www.capmetro.org/stopdetail/index.php?stop=5989", "stop_sequence": "17", "stop_id": "5989", "stop_desc": "000000 GILWELL & JUSTICE", "location_type": "", "zone_id": "", "stop_lat": "30.174761", "wheelchair_boarding": "0", "stop_code": "5989", "stop_lon": "-97.613460", "route_id": "271", "stop_name": "Gilwell/Justice"}, {"stop_timezone": "", "parent_station": "", "direction_id": "1", "stop_url": "https://www.capmetro.org/stopdetail/index.php?stop=5991", "stop_sequence": "18", "stop_id": "5991", "stop_desc": "000000 GILWELL & MATHRA", "location_type": "", "zone_id": "", "stop_lat": "30.175667", "wheelchair_boarding": "0", "stop_code": "5991", "stop_lon": "-97.616277", "route_id": "271", "stop_name": "Gilwell/Mathra"}, {"stop_timezone": "", "parent_station": "", "direction_id": "1", "stop_url": "https://www.capmetro.org/stopdetail/index.php?stop=5927", "stop_sequence": "19", "stop_id": "5927", "stop_desc": "000000 DEL VALLE ISD & ROSS", "location_type": "", "zone_id": "", "stop_lat": "30.177571", "wheelchair_boarding": "0", "stop_code": "5927", "stop_lon": "-97.614481", "route_id": "271", "stop_name": "Del Valle High (Tennis Courts)"}, {"stop_timezone": "", "parent_station": "", "direction_id": "1", "stop_url": "https://www.capmetro.org/stopdetail/index.php?stop=5045", "stop_sequence": "2", "stop_id": "5045", "stop_desc": "002474 SH 71 & PRESIDENTIAL", "location_type": "", "zone_id": "", "stop_lat": "30.212705", "wheelchair_boarding": "0", "stop_code": "5045", "stop_lon": "-97.659090", "route_id": "271", "stop_name": "2474 SH 71/Presidential"}, {"stop_timezone": "", "parent_station": "", "direction_id": "1", "stop_url": "https://www.capmetro.org/stopdetail/index.php?stop=5191", "stop_sequence": "2", "stop_id": "5191", "stop_desc": "001601 MONTOPOLIS & CADDIE", "location_type": "", "zone_id": "", "stop_lat": "30.227350", "wheelchair_boarding": "0", "stop_code": "5191", "stop_lon": "-97.702007", "route_id": "271", "stop_name": "Montopolis/Caddie"}, {"stop_timezone": "", "parent_station": "", "direction_id": "1", "stop_url": "https://www.capmetro.org/stopdetail/index.php?stop=3311", "stop_sequence": "3", "stop_id": "3311", "stop_desc": "001814 MONTOPOLIS & KASPER", "location_type": "", "zone_id": "", "stop_lat": "30.225821", "wheelchair_boarding": "0", "stop_code": "3311", "stop_lon": "-97.702985", "route_id": "271", "stop_name": "1814 Montopolis/Kasper"}, {"stop_timezone": "", "parent_station": "", "direction_id": "1", "stop_url": "https://www.capmetro.org/stopdetail/index.php?stop=5797", "stop_sequence": "3", "stop_id": "5797", "stop_desc": "000000 SH 71 & CHEVIOT", "location_type": "", "zone_id": "", "stop_lat": "30.204687", "wheelchair_boarding": "0", "stop_code": "5797", "stop_lon": "-97.642909", "route_id": "271", "stop_name": "SH 71/Cheviot (EB)"}, {"stop_timezone": "", "parent_station": "", "direction_id": "1", "stop_url": "https://www.capmetro.org/stopdetail/index.php?stop=3315", "stop_sequence": "4", "stop_id": "3315", "stop_desc": "006605 RIVERSIDE & VARGAS", "location_type": "", "zone_id": "", "stop_lat": "30.223718", "wheelchair_boarding": "0", "stop_code": "3315", "stop_lon": "-97.700756", "route_id": "271", "stop_name": "6605 Riverside/Vargas"}, {"stop_timezone": "", "parent_station": "", "direction_id": "1", "stop_url": "https://www.capmetro.org/stopdetail/index.php?stop=5980", "stop_sequence": "4", "stop_id": "5980", "stop_desc": "012323 PEARCE & LAS ALAS", "location_type": "", "zone_id": "", "stop_lat": "30.171314", "wheelchair_boarding": "0", "stop_code": "5980", "stop_lon": "-97.627242", "route_id": "271", "stop_name": "12323 Pearce/Las Alas"}, {"stop_timezone": "", "parent_station": "", "direction_id": "1", "stop_url": "https://www.capmetro.org/stopdetail/index.php?stop=3316", "stop_sequence": "5", "stop_id": "3316", "stop_desc": "006903 RIVERSIDE & MAXWELL", "location_type": "", "zone_id": "", "stop_lat": "30.222270", "wheelchair_boarding": "0", "stop_code": "3316", "stop_lon": "-97.697493", "route_id": "271", "stop_name": "6903 Riverside/Maxwell"}, {"stop_timezone": "", "parent_station": "", "direction_id": "1", "stop_url": "https://www.capmetro.org/stopdetail/index.php?stop=5986", "stop_sequence": "5", "stop_id": "5986", "stop_desc": "012905 THOME VALLEY & ALOMAR", "location_type": "", "zone_id": "", "stop_lat": "30.172853", "wheelchair_boarding": "0", "stop_code": "5986", "stop_lon": "-97.617366", "route_id": "271", "stop_name": "12905 Thome Valley/Alomar"}, {"stop_timezone": "", "parent_station": "", "direction_id": "1", "stop_url": "https://www.capmetro.org/stopdetail/index.php?stop=3317", "stop_sequence": "6", "stop_id": "3317", "stop_desc": "007200 RIVERSIDE & YELLOW JACKET", "location_type": "", "zone_id": "", "stop_lat": "30.220770", "wheelchair_boarding": "0", "stop_code": "3317", "stop_lon": "-97.694749", "route_id": "271", "stop_name": "Riverside/Yellow Jacket"}, {"stop_timezone": "", "parent_station": "", "direction_id": "1", "stop_url": "https://www.capmetro.org/stopdetail/index.php?stop=5989", "stop_sequence": "6", "stop_id": "5989", "stop_desc": "000000 GILWELL & JUSTICE", "location_type": "", "zone_id": "", "stop_lat": "30.174761", "wheelchair_boarding": "0", "stop_code": "5989", "stop_lon": "-97.613460", "route_id": "271", "stop_name": "Gilwell/Justice"}, {"stop_timezone": "", "parent_station": "", "direction_id": "1", "stop_url": "https://www.capmetro.org/stopdetail/index.php?stop=3318", "stop_sequence": "7", "stop_id": "3318", "stop_desc": "007400 RIVERSIDE & UPHILL", "location_type": "", "zone_id": "", "stop_lat": "30.219599", "wheelchair_boarding": "0", "stop_code": "3318", "stop_lon": "-97.692736", "route_id": "271", "stop_name": "Riverside/Uphill"}, {"stop_timezone": "", "parent_station": "", "direction_id": "1", "stop_url": "https://www.capmetro.org/stopdetail/index.php?stop=5991", "stop_sequence": "7", "stop_id": "5991", "stop_desc": "000000 GILWELL & MATHRA", "location_type": "", "zone_id": "", "stop_lat": "30.175667", "wheelchair_boarding": "0", "stop_code": "5991", "stop_lon": "-97.616277", "route_id": "271", "stop_name": "Gilwell/Mathra"}, {"stop_timezone": "", "parent_station": "", "direction_id": "1", "stop_url": "https://www.capmetro.org/stopdetail/index.php?stop=5592", "stop_sequence": "8", "stop_id": "5592", "stop_desc": "007900 RIVERSIDE & HOEKE", "location_type": "", "zone_id": "", "stop_lat": "30.215795", "wheelchair_boarding": "0", "stop_code": "5592", "stop_lon": "-97.688718", "route_id": "271", "stop_name": "7900 Riverside/Hoeke"}, {"stop_timezone": "", "parent_station": "", "direction_id": "1", "stop_url": "https://www.capmetro.org/stopdetail/index.php?stop=5927", "stop_sequence": "8", "stop_id": "5927", "stop_desc": "000000 DEL VALLE ISD & ROSS", "location_type": "", "zone_id": "", "stop_lat": "30.177571", "wheelchair_boarding": "0", "stop_code": "5927", "stop_lon": "-97.614481", "route_id": "271", "stop_name": "Del Valle High (Tennis Courts)"}, {"stop_timezone": "", "parent_station": "", "direction_id": "1", "stop_url": "https://www.capmetro.org/stopdetail/index.php?stop=5593", "stop_sequence": "9", "stop_id": "5593", "stop_desc": "000000 PALMA VERDE & BEN WHITE", "location_type": "", "zone_id": "", "stop_lat": "30.219121", "wheelchair_boarding": "0", "stop_code": "5593", "stop_lon": "-97.687830", "route_id": "271", "stop_name": "Palma Verde/Ben White"}, {"stop_timezone": "", "parent_station": "", "direction_id": "1", "stop_url": "https://www.capmetro.org/stopdetail/index.php?stop=5622", "stop_sequence": "9", "stop_id": "5622", "stop_desc": "000000 DEL VALLE ISD & ROSS", "location_type": "", "zone_id": "", "stop_lat": "30.174866", "wheelchair_boarding": "0", "stop_code": "5622", "stop_lon": "-97.610837", "route_id": "271", "stop_name": "Del Valle ISD"}]
