[{"stop_lat": 30.586407, "stop_timezone": null, "wheelchair_boarding": 0, "stop_code": "5387", "direction_id": 0, "stop_lon": -97.855296, "parent_station": null, "route_id": "985", "stop_url": null, "stop_sequence": 1, "stop_id": "5387", "stop_desc": "000000 US 183 & EVANS", "stop_name": "LEANDER STATION BAY D", "location_type": null, "platform_code": null, "zone_id": null}, {"stop_lat": 30.480719, "stop_timezone": null, "wheelchair_boarding": 0, "stop_code": "5230", "direction_id": 0, "stop_lon": -97.786775, "parent_station": null, "route_id": "985", "stop_url": null, "stop_sequence": 2, "stop_id": "5230", "stop_desc": "10900G LYNDHURST & LAKELINE", "stop_name": "LAKELINE STATION BAY G", "location_type": null, "platform_code": null, "zone_id": null}, {"stop_lat": 30.279309, "stop_timezone": null, "wheelchair_boarding": 0, "stop_code": "2761", "direction_id": 0, "stop_lon": -97.732951, "parent_station": null, "route_id": "985", "stop_url": null, "stop_sequence": 3, "stop_id": "2761", "stop_desc": "000500 MARTIN LUTHER KING & RED RIVER", "stop_name": "500 MARTIN LUTHER KING/RED RIVER", "location_type": null, "platform_code": null, "zone_id": null}, {"stop_lat": 30.279508, "stop_timezone": null, "wheelchair_boarding": 0, "stop_code": "915", "direction_id": 0, "stop_lon": -97.736019, "parent_station": null, "route_id": "985", "stop_url": null, "stop_sequence": 4, "stop_id": "915", "stop_desc": "001806 SAN JACINTO & MARTIN LUTHER KING", "stop_name": "1806 SAN JACINTO/MARTIN LUTHER KING", "location_type": null, "platform_code": null, "zone_id": null}, {"stop_lat": 30.27816, "stop_timezone": null, "wheelchair_boarding": 0, "stop_code": "916", "direction_id": 0, "stop_lon": -97.7365, "parent_station": null, "route_id": "985", "stop_url": null, "stop_sequence": 5, "stop_id": "916", "stop_desc": "001700 SAN JACINTO & 17TH", "stop_name": "SAN JACINTO/17TH", "location_type": null, "platform_code": null, "zone_id": null}, {"stop_lat": 30.27641, "stop_timezone": null, "wheelchair_boarding": 0, "stop_code": "918", "direction_id": 0, "stop_lon": -97.73718, "parent_station": null, "route_id": "985", "stop_url": null, "stop_sequence": 6, "stop_id": "918", "stop_desc": "001500 SAN JACINTO & 15TH", "stop_name": "SAN JACINTO/15TH", "location_type": null, "platform_code": null, "zone_id": null}, {"stop_lat": 30.275022, "stop_timezone": null, "wheelchair_boarding": 0, "stop_code": "2738", "direction_id": 0, "stop_lon": -97.744169, "parent_station": null, "route_id": "985", "stop_url": null, "stop_sequence": 7, "stop_id": "2738", "stop_desc": "001200 GUADALUPE & 12TH", "stop_name": "CAPITOL STATION (SB)", "location_type": null, "platform_code": null, "zone_id": null}, {"stop_lat": 30.271503, "stop_timezone": null, "wheelchair_boarding": 0, "stop_code": "5950", "direction_id": 0, "stop_lon": -97.745478, "parent_station": null, "route_id": "985", "stop_url": null, "stop_sequence": 8, "stop_id": "5950", "stop_desc": "000000 GUADALUPE & 8TH", "stop_name": "GUADALUPE/8TH", "location_type": null, "platform_code": null, "zone_id": null}, {"stop_lat": 30.268253, "stop_timezone": null, "wheelchair_boarding": 0, "stop_code": "2612", "direction_id": 0, "stop_lon": -97.74669, "parent_station": null, "route_id": "985", "stop_url": null, "stop_sequence": 9, "stop_id": "2612", "stop_desc": "000500 GUADALUPE & 5TH", "stop_name": "500 GUADALUPE/5TH", "location_type": null, "platform_code": null, "zone_id": null}, {"stop_lat": 30.258767, "stop_timezone": null, "wheelchair_boarding": 0, "stop_code": "2763", "direction_id": 0, "stop_lon": -97.7487, "parent_station": null, "route_id": "985", "stop_url": null, "stop_sequence": 10, "stop_id": "2763", "stop_desc": "000425 RIVERSIDE & BARTON SPRINGS", "stop_name": "AUDITORIUM SHORES STATION (SB)", "location_type": null, "platform_code": null, "zone_id": null}, {"stop_lat": 30.2562, "stop_timezone": null, "wheelchair_boarding": 0, "stop_code": "3846", "direction_id": 0, "stop_lon": -97.74602, "parent_station": null, "route_id": "985", "stop_url": null, "stop_sequence": 11, "stop_id": "3846", "stop_desc": "000118 RIVERSIDE & CONGRESS", "stop_name": "RIVERSIDE/CONGRESS FS", "location_type": null, "platform_code": null, "zone_id": null}, {"stop_lat": 30.254846, "stop_timezone": null, "wheelchair_boarding": 0, "stop_code": "3847", "direction_id": 0, "stop_lon": -97.744793, "parent_station": null, "route_id": "985", "stop_url": null, "stop_sequence": 12, "stop_id": "3847", "stop_desc": "000205 RIVERSIDE & CONGRESS", "stop_name": "205 RIVERSIDE/CONGRESS", "location_type": null, "platform_code": null, "zone_id": null}, {"stop_lat": 30.25359, "stop_timezone": null, "wheelchair_boarding": 0, "stop_code": "5023", "direction_id": 0, "stop_lon": -97.743972, "parent_station": null, "route_id": "985", "stop_url": null, "stop_sequence": 13, "stop_id": "5023", "stop_desc": "000325 RIVERSIDE & NEWNING", "stop_name": "325 RIVERSIDE/NEWNING", "location_type": null, "platform_code": null, "zone_id": null}, {"stop_lat": 30.248592, "stop_timezone": null, "wheelchair_boarding": 0, "stop_code": "1188", "direction_id": 0, "stop_lon": -97.736886, "parent_station": null, "route_id": "985", "stop_url": null, "stop_sequence": 14, "stop_id": "1188", "stop_desc": "001099 RIVERSIDE & KENWOOD", "stop_name": "RIVERSIDE/KENWOOD", "location_type": null, "platform_code": null, "zone_id": null}]
