[{"stop_lat": 30.230471, "stop_timezone": null, "wheelchair_boarding": 0, "stop_code": "2335", "direction_id": 1, "stop_lon": -97.800924, "parent_station": null, "route_id": "311", "stop_url": null, "stop_sequence": 1, "stop_id": "2335", "stop_desc": "004608 WEST GATE & LAMAR", "stop_name": "4608 WEST GATE/LAMAR", "location_type": null, "platform_code": null, "zone_id": null}, {"stop_lat": 30.227305, "stop_timezone": null, "wheelchair_boarding": 0, "stop_code": "2337", "direction_id": 1, "stop_lon": -97.802541, "parent_station": null, "route_id": "311", "stop_url": null, "stop_sequence": 2, "stop_id": "2337", "stop_desc": "004900 WEST GATE & CHOCTAW TRAIL", "stop_name": "4900 WEST GATE/CHOCTAW TRAIL", "location_type": null, "platform_code": null, "zone_id": null}, {"stop_lat": 30.225819, "stop_timezone": null, "wheelchair_boarding": 0, "stop_code": "2338", "direction_id": 1, "stop_lon": -97.803849, "parent_station": null, "route_id": "311", "stop_url": null, "stop_sequence": 3, "stop_id": "2338", "stop_desc": "005012 WEST GATE & JONES", "stop_name": "5012 WEST GATE/JONES", "location_type": null, "platform_code": null, "zone_id": null}, {"stop_lat": 30.223145, "stop_timezone": null, "wheelchair_boarding": 0, "stop_code": "2339", "direction_id": 1, "stop_lon": -97.805582, "parent_station": null, "route_id": "311", "stop_url": null, "stop_sequence": 4, "stop_id": "2339", "stop_desc": "005306 WEST GATE & INDIO", "stop_name": "5306 WEST GATE/INDIO", "location_type": null, "platform_code": null, "zone_id": null}, {"stop_lat": 30.218687, "stop_timezone": null, "wheelchair_boarding": 0, "stop_code": "4223", "direction_id": 1, "stop_lon": -97.805931, "parent_station": null, "route_id": "311", "stop_url": null, "stop_sequence": 5, "stop_id": "4223", "stop_desc": "002500 STASSNEY & WESTGATE", "stop_name": "STASSNEY/WESTGATE", "location_type": null, "platform_code": null, "zone_id": null}, {"stop_lat": 30.21814, "stop_timezone": null, "wheelchair_boarding": 0, "stop_code": "3109", "direction_id": 1, "stop_lon": -97.80326, "parent_station": null, "route_id": "311", "stop_url": null, "stop_sequence": 6, "stop_id": "3109", "stop_desc": "002313 STASSNEY & FERNVIEW", "stop_name": "2313 STASSNEY/FERNVIEW", "location_type": null, "platform_code": null, "zone_id": null}, {"stop_lat": 30.216159, "stop_timezone": null, "wheelchair_boarding": 0, "stop_code": "3110", "direction_id": 1, "stop_lon": -97.799017, "parent_station": null, "route_id": "311", "stop_url": null, "stop_sequence": 7, "stop_id": "3110", "stop_desc": "002035 STASSNEY & LEWOOD", "stop_name": "2035 STASSNEY (CHERRY CREEK PLAZA)", "location_type": null, "platform_code": null, "zone_id": null}, {"stop_lat": 30.214594, "stop_timezone": null, "wheelchair_boarding": 0, "stop_code": "4225", "direction_id": 1, "stop_lon": -97.79633, "parent_station": null, "route_id": "311", "stop_url": null, "stop_sequence": 8, "stop_id": "4225", "stop_desc": "001821 STASSNEY & MANCHACA", "stop_name": "1821 STASSNEY/MANCHACA", "location_type": null, "platform_code": null, "zone_id": null}, {"stop_lat": 30.213644, "stop_timezone": null, "wheelchair_boarding": 0, "stop_code": "3112", "direction_id": 1, "stop_lon": -97.794264, "parent_station": null, "route_id": "311", "stop_url": null, "stop_sequence": 9, "stop_id": "3112", "stop_desc": "001701 STASSNEY & ROSE HILL", "stop_name": "1701 STASSNEY/ROSE HILL", "location_type": null, "platform_code": null, "zone_id": null}, {"stop_lat": 30.212061, "stop_timezone": null, "wheelchair_boarding": 0, "stop_code": "3113", "direction_id": 1, "stop_lon": -97.790959, "parent_station": null, "route_id": "311", "stop_url": null, "stop_sequence": 10, "stop_id": "3113", "stop_desc": "001401 STASSNEY & RADAM", "stop_name": "1401 STASSNEY/RADAM", "location_type": null, "platform_code": null, "zone_id": null}, {"stop_lat": 30.210625, "stop_timezone": null, "wheelchair_boarding": 0, "stop_code": "3114", "direction_id": 1, "stop_lon": -97.787259, "parent_station": null, "route_id": "311", "stop_url": null, "stop_sequence": 11, "stop_id": "3114", "stop_desc": "001101 STASSNEY & EMERALD FOREST", "stop_name": "1101 STASSNEY/EMERALD FOREST", "location_type": null, "platform_code": null, "zone_id": null}, {"stop_lat": 30.209059, "stop_timezone": null, "wheelchair_boarding": 0, "stop_code": "5487", "direction_id": 1, "stop_lon": -97.784284, "parent_station": null, "route_id": "311", "stop_url": null, "stop_sequence": 12, "stop_id": "5487", "stop_desc": "000727 STASSNEY & NANCY", "stop_name": "727 STASSNEY/NANCY", "location_type": null, "platform_code": null, "zone_id": null}, {"stop_lat": 30.208097, "stop_timezone": null, "wheelchair_boarding": 0, "stop_code": "4393", "direction_id": 1, "stop_lon": -97.781018, "parent_station": null, "route_id": "311", "stop_url": null, "stop_sequence": 13, "stop_id": "4393", "stop_desc": "000609 STASSNEY & 1ST", "stop_name": "609 STASSNEY/1ST", "location_type": null, "platform_code": null, "zone_id": null}, {"stop_lat": 30.207058, "stop_timezone": null, "wheelchair_boarding": 0, "stop_code": "3116", "direction_id": 1, "stop_lon": -97.778967, "parent_station": null, "route_id": "311", "stop_url": null, "stop_sequence": 14, "stop_id": "3116", "stop_desc": "000405 STASSNEY & HUMMINGBIRD", "stop_name": "405 W STASSNEY/HUMMINGBIRD", "location_type": null, "platform_code": null, "zone_id": null}, {"stop_lat": 30.205187, "stop_timezone": null, "wheelchair_boarding": 0, "stop_code": "4276", "direction_id": 1, "stop_lon": -97.775706, "parent_station": null, "route_id": "311", "stop_url": null, "stop_sequence": 15, "stop_id": "4276", "stop_desc": "000119 STASSNEY & CONGRESS", "stop_name": "119 STASSNEY/CONGRESS", "location_type": null, "platform_code": null, "zone_id": null}, {"stop_lat": 30.202767, "stop_timezone": null, "wheelchair_boarding": 0, "stop_code": "4365", "direction_id": 1, "stop_lon": -97.771769, "parent_station": null, "route_id": "311", "stop_url": null, "stop_sequence": 16, "stop_id": "4365", "stop_desc": "000407 STASSNEY & CONGRESS", "stop_name": "407 STASSNEY/CONGRESS", "location_type": null, "platform_code": null, "zone_id": null}, {"stop_lat": 30.200052, "stop_timezone": null, "wheelchair_boarding": 0, "stop_code": "4363", "direction_id": 1, "stop_lon": -97.766668, "parent_station": null, "route_id": "311", "stop_url": null, "stop_sequence": 17, "stop_id": "4363", "stop_desc": "000811 STASSNEY & MIRA", "stop_name": "811 STASSNEY/MIRA", "location_type": null, "platform_code": null, "zone_id": null}, {"stop_lat": 30.197199, "stop_timezone": null, "wheelchair_boarding": 0, "stop_code": "4331", "direction_id": 1, "stop_lon": -97.761558, "parent_station": null, "route_id": "311", "stop_url": null, "stop_sequence": 18, "stop_id": "4331", "stop_desc": "001715 STASSNEY & IH 35", "stop_name": "1715 STASSNEY/IH 35", "location_type": null, "platform_code": null, "zone_id": null}, {"stop_lat": 30.195032, "stop_timezone": null, "wheelchair_boarding": 0, "stop_code": "2497", "direction_id": 1, "stop_lon": -97.758297, "parent_station": null, "route_id": "311", "stop_url": null, "stop_sequence": 19, "stop_id": "2497", "stop_desc": "002005 STASSNEY & PONCIANA", "stop_name": "2005 STASSNEY/PONCIANA", "location_type": null, "platform_code": null, "zone_id": null}, {"stop_lat": 30.193336, "stop_timezone": null, "wheelchair_boarding": 0, "stop_code": "5713", "direction_id": 1, "stop_lon": -97.753967, "parent_station": null, "route_id": "311", "stop_url": null, "stop_sequence": 20, "stop_id": "5713", "stop_desc": "002230 STASSNEY & DOVE", "stop_name": "2230 STASSNEY/DOVE", "location_type": null, "platform_code": null, "zone_id": null}, {"stop_lat": 30.193568, "stop_timezone": null, "wheelchair_boarding": 0, "stop_code": "2499", "direction_id": 1, "stop_lon": -97.749836, "parent_station": null, "route_id": "311", "stop_url": null, "stop_sequence": 21, "stop_id": "2499", "stop_desc": "002433 STASSNEY & PALO BLANCO", "stop_name": "2433 STASSNEY/PALO BLANCO", "location_type": null, "platform_code": null, "zone_id": null}, {"stop_lat": 30.193724, "stop_timezone": null, "wheelchair_boarding": 0, "stop_code": "4335", "direction_id": 1, "stop_lon": -97.747107, "parent_station": null, "route_id": "311", "stop_url": null, "stop_sequence": 22, "stop_id": "4335", "stop_desc": "002523 STASSNEY & CHAPARRAL", "stop_name": "2523 STASSNEY/CHAPARRAL", "location_type": null, "platform_code": null, "zone_id": null}, {"stop_lat": 30.19389, "stop_timezone": null, "wheelchair_boarding": 0, "stop_code": "5826", "direction_id": 1, "stop_lon": -97.743863, "parent_station": null, "route_id": "311", "stop_url": null, "stop_sequence": 23, "stop_id": "5826", "stop_desc": "004701 STASSNEY & PLEASANT VALLEY", "stop_name": "4701 STASSNEY/PLEASANT VALLEY", "location_type": null, "platform_code": null, "zone_id": null}, {"stop_lat": 30.192738, "stop_timezone": null, "wheelchair_boarding": 0, "stop_code": "5829", "direction_id": 1, "stop_lon": -97.738231, "parent_station": null, "route_id": "311", "stop_url": null, "stop_sequence": 24, "stop_id": "5829", "stop_desc": "005301 STASSNEY & NUCKOLS", "stop_name": "5301 STASSNEY/NUCKOLS", "location_type": null, "platform_code": null, "zone_id": null}, {"stop_lat": 30.191093, "stop_timezone": null, "wheelchair_boarding": 0, "stop_code": "5832", "direction_id": 1, "stop_lon": -97.731222, "parent_station": null, "route_id": "311", "stop_url": null, "stop_sequence": 25, "stop_id": "5832", "stop_desc": "005901 STASSNEY & TERI", "stop_name": "5901 STASSNEY/TERI", "location_type": null, "platform_code": null, "zone_id": null}, {"stop_lat": 30.205063, "stop_timezone": null, "wheelchair_boarding": 0, "stop_code": "5833", "direction_id": 1, "stop_lon": -97.716751, "parent_station": null, "route_id": "311", "stop_url": null, "stop_sequence": 26, "stop_id": "5833", "stop_desc": "000000 MONTOPOLIS & BURLESON", "stop_name": "MONTOPOLIS/BURLESON", "location_type": null, "platform_code": null, "zone_id": null}, {"stop_lat": 30.210443, "stop_timezone": null, "wheelchair_boarding": 0, "stop_code": "5835", "direction_id": 1, "stop_lon": -97.71331, "parent_station": null, "route_id": "311", "stop_url": null, "stop_sequence": 27, "stop_id": "5835", "stop_desc": "003120 MONTOPOLIS & BEN WHITE", "stop_name": "3120 MONTOPOLIS/BEN WHITE", "location_type": null, "platform_code": null, "zone_id": null}, {"stop_lat": 30.215817, "stop_timezone": null, "wheelchair_boarding": 0, "stop_code": "4310", "direction_id": 1, "stop_lon": -97.70926, "parent_station": null, "route_id": "311", "stop_url": null, "stop_sequence": 28, "stop_id": "4310", "stop_desc": "002821 MONTOPOLIS & OLTORF", "stop_name": "2821 MONTOPOLIS/OLTORF", "location_type": null, "platform_code": null, "zone_id": null}, {"stop_lat": 30.22058, "stop_timezone": null, "wheelchair_boarding": 0, "stop_code": "2279", "direction_id": 1, "stop_lon": -97.70706, "parent_station": null, "route_id": "311", "stop_url": null, "stop_sequence": 29, "stop_id": "2279", "stop_desc": "002421 GROVE & MONTOPOLIS", "stop_name": "2421 GROVE/MONTOPOLIS", "location_type": null, "platform_code": null, "zone_id": null}, {"stop_lat": 30.22822, "stop_timezone": null, "wheelchair_boarding": 0, "stop_code": "2280", "direction_id": 1, "stop_lon": -97.70705, "parent_station": null, "route_id": "311", "stop_url": null, "stop_sequence": 30, "stop_id": "2280", "stop_desc": "001900 GROVE & RIVERSIDE", "stop_name": "GROVE/RIVERSIDE", "location_type": null, "platform_code": null, "zone_id": null}, {"stop_lat": 30.23039, "stop_timezone": null, "wheelchair_boarding": 0, "stop_code": "5043", "direction_id": 1, "stop_lon": -97.70616, "parent_station": null, "route_id": "311", "stop_url": null, "stop_sequence": 31, "stop_id": "5043", "stop_desc": "001515 GROVE & FAIRWAY", "stop_name": "GROVE/FAIRWAY", "location_type": null, "platform_code": null, "zone_id": null}, {"stop_lat": 30.235008, "stop_timezone": null, "wheelchair_boarding": 0, "stop_code": "953", "direction_id": 1, "stop_lon": -97.704179, "parent_station": null, "route_id": "311", "stop_url": null, "stop_sequence": 32, "stop_id": "953", "stop_desc": "001101 GROVE & ACC RIVERSIDE TURNOFF", "stop_name": "1101 GROVE (ACC RIVERSIDE)", "location_type": null, "platform_code": null, "zone_id": null}, {"stop_lat": 30.236214, "stop_timezone": null, "wheelchair_boarding": 0, "stop_code": "831", "direction_id": 1, "stop_lon": -97.704856, "parent_station": null, "route_id": "311", "stop_url": null, "stop_sequence": 33, "stop_id": "831", "stop_desc": "001020 ACC & GROVE", "stop_name": "ACC RIVERSIDE CAMPUS STOP", "location_type": null, "platform_code": null, "zone_id": null}]
