[{"stop_timezone": "", "parent_station": "", "direction_id": "1", "stop_url": "https://www.capmetro.org/stopdetail/index.php?stop=1999", "stop_sequence": "1", "stop_id": "1999", "stop_desc": "001000 38TH & MEDICAL", "location_type": "", "zone_id": "", "stop_lat": "30.305323", "wheelchair_boarding": "0", "stop_code": "1999", "stop_lon": "-97.743760", "route_id": "491", "stop_name": "38th/Medical Parkway"}, {"stop_timezone": "", "parent_station": "", "direction_id": "1", "stop_url": "https://www.capmetro.org/stopdetail/index.php?stop=822", "stop_sequence": "10", "stop_id": "822", "stop_desc": "005829 BURNET & KOENIG", "location_type": "", "zone_id": "", "stop_lat": "30.334200", "wheelchair_boarding": "0", "stop_code": "822", "stop_lon": "-97.739800", "route_id": "491", "stop_name": "Allandale Station (NB)"}, {"stop_timezone": "", "parent_station": "", "direction_id": "1", "stop_url": "https://www.capmetro.org/stopdetail/index.php?stop=830", "stop_sequence": "11", "stop_id": "830", "stop_desc": "007711 BURNET & NORTHCROSS MALL", "location_type": "", "zone_id": "", "stop_lat": "30.356147", "wheelchair_boarding": "0", "stop_code": "830", "stop_lon": "-97.733647", "route_id": "491", "stop_name": "Northcross Mall"}, {"stop_timezone": "", "parent_station": "", "direction_id": "1", "stop_url": "https://www.capmetro.org/stopdetail/index.php?stop=1904", "stop_sequence": "12", "stop_id": "1904", "stop_desc": "007921 ROCKWOOD & ANDERSON", "location_type": "", "zone_id": "", "stop_lat": "30.360840", "wheelchair_boarding": "0", "stop_code": "1904", "stop_lon": "-97.737430", "route_id": "491", "stop_name": "7921 Rockwood/Anderson"}, {"stop_timezone": "", "parent_station": "", "direction_id": "1", "stop_url": "https://www.capmetro.org/stopdetail/index.php?stop=2908", "stop_sequence": "13", "stop_id": "2908", "stop_desc": "007925 ROCKWOOD & ASHDALE", "location_type": "", "zone_id": "", "stop_lat": "30.360488", "wheelchair_boarding": "0", "stop_code": "2908", "stop_lon": "-97.735877", "route_id": "491", "stop_name": "7925 Rockwood/Ashdale"}, {"stop_timezone": "", "parent_station": "", "direction_id": "1", "stop_url": "https://www.capmetro.org/stopdetail/index.php?stop=2913", "stop_sequence": "2", "stop_id": "2913", "stop_desc": "003400 LAMAR & 34TH", "location_type": "", "zone_id": "", "stop_lat": "30.302820", "wheelchair_boarding": "0", "stop_code": "2913", "stop_lon": "-97.744768", "route_id": "491", "stop_name": "3400 Lamar/34th"}, {"stop_timezone": "", "parent_station": "", "direction_id": "1", "stop_url": "https://www.capmetro.org/stopdetail/index.php?stop=1866", "stop_sequence": "3", "stop_id": "1866", "stop_desc": "003800 BULL CREEK & 39TH", "location_type": "", "zone_id": "", "stop_lat": "30.311658", "wheelchair_boarding": "0", "stop_code": "1866", "stop_lon": "-97.752215", "route_id": "491", "stop_name": "Bull Creek/39th"}, {"stop_timezone": "", "parent_station": "", "direction_id": "1", "stop_url": "https://www.capmetro.org/stopdetail/index.php?stop=4497", "stop_sequence": "4", "stop_id": "4497", "stop_desc": "004219 BULL CREEK & JACKSON", "location_type": "", "zone_id": "", "stop_lat": "30.316743", "wheelchair_boarding": "0", "stop_code": "4497", "stop_lon": "-97.754711", "route_id": "491", "stop_name": "4219 Bull Creek/Jackson"}, {"stop_timezone": "", "parent_station": "", "direction_id": "1", "stop_url": "https://www.capmetro.org/stopdetail/index.php?stop=1871", "stop_sequence": "5", "stop_id": "1871", "stop_desc": "004419 BULL CREEK & 45TH", "location_type": "", "zone_id": "", "stop_lat": "30.320398", "wheelchair_boarding": "0", "stop_code": "1871", "stop_lon": "-97.753471", "route_id": "491", "stop_name": "4419 Bull Creek/45th"}, {"stop_timezone": "", "parent_station": "", "direction_id": "1", "stop_url": "https://www.capmetro.org/stopdetail/index.php?stop=5002", "stop_sequence": "6", "stop_id": "5002", "stop_desc": "002233 NORTH LOOP & WOODVIEW", "location_type": "", "zone_id": "", "stop_lat": "30.325374", "wheelchair_boarding": "0", "stop_code": "5002", "stop_lon": "-97.742201", "route_id": "491", "stop_name": "North Loop/Woodview"}, {"stop_timezone": "", "parent_station": "", "direction_id": "1", "stop_url": "https://www.capmetro.org/stopdetail/index.php?stop=819", "stop_sequence": "7", "stop_id": "819", "stop_desc": "005411 BURNET & HOUSTON", "location_type": "", "zone_id": "", "stop_lat": "30.328766", "wheelchair_boarding": "0", "stop_code": "819", "stop_lon": "-97.739742", "route_id": "491", "stop_name": "Burnet/Houston"}, {"stop_timezone": "", "parent_station": "", "direction_id": "1", "stop_url": "https://www.capmetro.org/stopdetail/index.php?stop=820", "stop_sequence": "8", "stop_id": "820", "stop_desc": "005500 BURNET & ADAMS", "location_type": "", "zone_id": "", "stop_lat": "30.330446", "wheelchair_boarding": "0", "stop_code": "820", "stop_lon": "-97.739876", "route_id": "491", "stop_name": "Burnet/Adams"}, {"stop_timezone": "", "parent_station": "", "direction_id": "1", "stop_url": "https://www.capmetro.org/stopdetail/index.php?stop=5160", "stop_sequence": "9", "stop_id": "5160", "stop_desc": "005700 BURNET & ALLANDALE", "location_type": "", "zone_id": "", "stop_lat": "30.334400", "wheelchair_boarding": "0", "stop_code": "5160", "stop_lon": "-97.740705", "route_id": "491", "stop_name": "Burnet/Allandale (HEB)"}]
