[{"stop_lat": 30.285125, "stop_timezone": null, "wheelchair_boarding": 0, "stop_code": "5039", "direction_id": 0, "stop_lon": -97.733073, "parent_station": null, "route_id": "670", "stop_url": null, "stop_sequence": 1, "stop_id": "5039", "stop_desc": "000400 23RD & TRINITY", "stop_name": "23RD/TRINITY SW CORNER", "location_type": null, "platform_code": null, "zone_id": null}, {"stop_lat": 30.283303, "stop_timezone": null, "wheelchair_boarding": 0, "stop_code": "4593", "direction_id": 0, "stop_lon": -97.728685, "parent_station": null, "route_id": "670", "stop_url": null, "stop_sequence": 2, "stop_id": "4593", "stop_desc": "000801 CLYDE LITTLEFIELD & RED RIVER", "stop_name": "801 CLYDE LITTLEFIELD/RED RIVER", "location_type": null, "platform_code": null, "zone_id": null}, {"stop_lat": 30.278688, "stop_timezone": null, "wheelchair_boarding": 0, "stop_code": "5624", "direction_id": 0, "stop_lon": -97.731471, "parent_station": null, "route_id": "670", "stop_url": null, "stop_sequence": 3, "stop_id": "5624", "stop_desc": "000000 MARTIN LUTHER KING & RED RIVER", "stop_name": "MARTIN LUTHER KING/RED RIVER", "location_type": null, "platform_code": null, "zone_id": null}, {"stop_lat": 30.232153, "stop_timezone": null, "wheelchair_boarding": 0, "stop_code": "4300", "direction_id": 0, "stop_lon": -97.717055, "parent_station": null, "route_id": "670", "stop_url": null, "stop_sequence": 4, "stop_id": "4300", "stop_desc": "001901 CROSSING PLACE & RIVERSIDE", "stop_name": "1901 CROSSING PLACE/RIVERSIDE", "location_type": null, "platform_code": null, "zone_id": null}, {"stop_lat": 30.23502, "stop_timezone": null, "wheelchair_boarding": 0, "stop_code": "4301", "direction_id": 0, "stop_lon": -97.71465, "parent_station": null, "route_id": "670", "stop_url": null, "stop_sequence": 5, "stop_id": "4301", "stop_desc": "001501 CROSSING PLACE & FARO", "stop_name": "1501 CROSSING PLACE/FARO", "location_type": null, "platform_code": null, "zone_id": null}, {"stop_lat": 30.237369, "stop_timezone": null, "wheelchair_boarding": 0, "stop_code": "3852", "direction_id": 0, "stop_lon": -97.7135, "parent_station": null, "route_id": "670", "stop_url": null, "stop_sequence": 6, "stop_id": "3852", "stop_desc": "001300 CROSSING PLACE & ELMONT", "stop_name": "MELROSE PLACE APT", "location_type": null, "platform_code": null, "zone_id": null}]
