[{"stop_timezone": "", "parent_station": "", "direction_id": "0", "stop_url": "https://www.capmetro.org/stopdetail/index.php?stop=5387", "stop_sequence": "1", "stop_id": "5387", "stop_desc": "000000 US 183 & EVANS", "location_type": "", "zone_id": "", "stop_lat": "30.586407", "wheelchair_boarding": "0", "stop_code": "5387", "stop_lon": "-97.855296", "route_id": "985", "stop_name": "Leander Station Bay D"}, {"stop_timezone": "", "parent_station": "", "direction_id": "0", "stop_url": "https://www.capmetro.org/stopdetail/index.php?stop=1253", "stop_sequence": "10", "stop_id": "1253", "stop_desc": "002031 SAN JACINTO & 21ST", "location_type": "", "zone_id": "", "stop_lat": "30.283104", "wheelchair_boarding": "0", "stop_code": "1253", "stop_lon": "-97.733910", "route_id": "985", "stop_name": "2031 San Jacinto/21st"}, {"stop_timezone": "", "parent_station": "", "direction_id": "0", "stop_url": "https://www.capmetro.org/stopdetail/index.php?stop=3491", "stop_sequence": "11", "stop_id": "3491", "stop_desc": "002301 SAN JACINTO & 23RD", "location_type": "", "zone_id": "", "stop_lat": "30.285550", "wheelchair_boarding": "0", "stop_code": "3491", "stop_lon": "-97.733531", "route_id": "985", "stop_name": "2301 San Jacinto/23rd"}, {"stop_timezone": "", "parent_station": "", "direction_id": "0", "stop_url": "https://www.capmetro.org/stopdetail/index.php?stop=1256", "stop_sequence": "12", "stop_id": "1256", "stop_desc": "002525 SAN JACINTO & DEAN KEETON", "location_type": "", "zone_id": "", "stop_lat": "30.288776", "wheelchair_boarding": "0", "stop_code": "1256", "stop_lon": "-97.734397", "route_id": "985", "stop_name": "2525 San Jacinto/Dean Keeton"}, {"stop_timezone": "", "parent_station": "", "direction_id": "0", "stop_url": "https://www.capmetro.org/stopdetail/index.php?stop=5230", "stop_sequence": "2", "stop_id": "5230", "stop_desc": "10900G LYNDHURST & LAKELINE", "location_type": "", "zone_id": "", "stop_lat": "30.480719", "wheelchair_boarding": "0", "stop_code": "5230", "stop_lon": "-97.786775", "route_id": "985", "stop_name": "Lakeline Station Bay G"}, {"stop_timezone": "", "parent_station": "", "direction_id": "0", "stop_url": "https://www.capmetro.org/stopdetail/index.php?stop=2107", "stop_sequence": "3", "stop_id": "2107", "stop_desc": "000800 5TH & BOWIE", "location_type": "", "zone_id": "", "stop_lat": "30.269522", "wheelchair_boarding": "0", "stop_code": "2107", "stop_lon": "-97.752626", "route_id": "985", "stop_name": "5th/Bowie"}, {"stop_timezone": "", "parent_station": "", "direction_id": "0", "stop_url": "https://www.capmetro.org/stopdetail/index.php?stop=6096", "stop_sequence": "3", "stop_id": "6096", "stop_desc": "000900 5TH & BOWIE", "location_type": "", "zone_id": "", "stop_lat": "30.269740", "wheelchair_boarding": "0", "stop_code": "6096", "stop_lon": "-97.753402", "route_id": "985", "stop_name": "900 5th/Bowie"}, {"stop_timezone": "", "parent_station": "", "direction_id": "0", "stop_url": "https://www.capmetro.org/stopdetail/index.php?stop=2111", "stop_sequence": "4", "stop_id": "2111", "stop_desc": "000500 5TH & SAN ANTONIO", "location_type": "", "zone_id": "", "stop_lat": "30.268350", "wheelchair_boarding": "0", "stop_code": "2111", "stop_lon": "-97.747920", "route_id": "985", "stop_name": "5th/San Antonio"}, {"stop_timezone": "", "parent_station": "", "direction_id": "0", "stop_url": "https://www.capmetro.org/stopdetail/index.php?stop=2605", "stop_sequence": "5", "stop_id": "2605", "stop_desc": "000517 LAVACA & 6TH", "location_type": "", "zone_id": "", "stop_lat": "30.268613", "wheelchair_boarding": "0", "stop_code": "2605", "stop_lon": "-97.745114", "route_id": "985", "stop_name": "517 Lavaca/6th"}, {"stop_timezone": "", "parent_station": "", "direction_id": "0", "stop_url": "https://www.capmetro.org/stopdetail/index.php?stop=4007", "stop_sequence": "6", "stop_id": "4007", "stop_desc": "000800 LAVACA & 9TH", "location_type": "", "zone_id": "", "stop_lat": "30.271378", "wheelchair_boarding": "0", "stop_code": "4007", "stop_lon": "-97.744115", "route_id": "985", "stop_name": "Lavaca/9th"}, {"stop_timezone": "", "parent_station": "", "direction_id": "0", "stop_url": "https://www.capmetro.org/stopdetail/index.php?stop=590", "stop_sequence": "7", "stop_id": "590", "stop_desc": "001100 LAVACA & 12TH", "location_type": "", "zone_id": "", "stop_lat": "30.274408", "wheelchair_boarding": "0", "stop_code": "590", "stop_lon": "-97.742995", "route_id": "985", "stop_name": "Lavaca/12th"}, {"stop_timezone": "", "parent_station": "", "direction_id": "0", "stop_url": "https://www.capmetro.org/stopdetail/index.php?stop=593", "stop_sequence": "8", "stop_id": "593", "stop_desc": "001415 LAVACA & 15TH", "location_type": "", "zone_id": "", "stop_lat": "30.277383", "wheelchair_boarding": "0", "stop_code": "593", "stop_lon": "-97.741894", "route_id": "985", "stop_name": "Lavaca/15th"}, {"stop_timezone": "", "parent_station": "", "direction_id": "0", "stop_url": "https://www.capmetro.org/stopdetail/index.php?stop=866", "stop_sequence": "9", "stop_id": "866", "stop_desc": "001700 TRINITY & 18TH", "location_type": "", "zone_id": "", "stop_lat": "30.278435", "wheelchair_boarding": "0", "stop_code": "866", "stop_lon": "-97.734985", "route_id": "985", "stop_name": "Trinity/18th"}]
