[{"stop_lat": 30.313865, "stop_timezone": null, "wheelchair_boarding": 0, "stop_code": "1619", "direction_id": 1, "stop_lon": -97.664697, "parent_station": null, "route_id": "237", "stop_url": null, "stop_sequence": 1, "stop_id": "1619", "stop_desc": "007000 MANOR & SUSQUEHANNA", "stop_name": "7000 MANOR/SUSQUEHANNA", "location_type": null, "platform_code": null, "zone_id": null}, {"stop_lat": 30.309468, "stop_timezone": null, "wheelchair_boarding": 0, "stop_code": "4611", "direction_id": 1, "stop_lon": -97.666739, "parent_station": null, "route_id": "237", "stop_url": null, "stop_sequence": 2, "stop_id": "4611", "stop_desc": "004701 LOYOLA & MANOR", "stop_name": "4701 LOYOLA/MANOR", "location_type": null, "platform_code": null, "zone_id": null}, {"stop_lat": 30.30653, "stop_timezone": null, "wheelchair_boarding": 0, "stop_code": "2406", "direction_id": 1, "stop_lon": -97.66544, "parent_station": null, "route_id": "237", "stop_url": null, "stop_sequence": 3, "stop_id": "2406", "stop_desc": "005007 LOYOLA & GREENSBORO", "stop_name": "5007 LOYOLA/GREENSBORO", "location_type": null, "platform_code": null, "zone_id": null}, {"stop_lat": 30.304699, "stop_timezone": null, "wheelchair_boarding": 0, "stop_code": "2407", "direction_id": 1, "stop_lon": -97.664109, "parent_station": null, "route_id": "237", "stop_url": null, "stop_sequence": 4, "stop_id": "2407", "stop_desc": "005213 LOYOLA & BRIDGEWATER", "stop_name": "5213 LOYOLA/BRIDGEWATER", "location_type": null, "platform_code": null, "zone_id": null}, {"stop_lat": 30.302822, "stop_timezone": null, "wheelchair_boarding": 0, "stop_code": "4612", "direction_id": 1, "stop_lon": -97.657453, "parent_station": null, "route_id": "237", "stop_url": null, "stop_sequence": 5, "stop_id": "4612", "stop_desc": "005627 LOYOLA & MILLRACE", "stop_name": "5627 LOYOLA/MILLRACE", "location_type": null, "platform_code": null, "zone_id": null}, {"stop_lat": 30.302554, "stop_timezone": null, "wheelchair_boarding": 0, "stop_code": "4613", "direction_id": 1, "stop_lon": -97.653518, "parent_station": null, "route_id": "237", "stop_url": null, "stop_sequence": 6, "stop_id": "4613", "stop_desc": "005911 LOYOLA & CRYSTALBROOK", "stop_name": "5911 LOYOLA/CRYSTALBROOK", "location_type": null, "platform_code": null, "zone_id": null}, {"stop_lat": 30.299874, "stop_timezone": null, "wheelchair_boarding": 0, "stop_code": "4614", "direction_id": 1, "stop_lon": -97.647843, "parent_station": null, "route_id": "237", "stop_url": null, "stop_sequence": 7, "stop_id": "4614", "stop_desc": "006507 LOYOLA & JOHNNY MORRIS", "stop_name": "LOYOLA/JOHNNY MORRIS SE CORNER", "location_type": null, "platform_code": null, "zone_id": null}, {"stop_lat": 30.29865, "stop_timezone": null, "wheelchair_boarding": 0, "stop_code": "2410", "direction_id": 1, "stop_lon": -97.64518, "parent_station": null, "route_id": "237", "stop_url": null, "stop_sequence": 8, "stop_id": "2410", "stop_desc": "006725 LOYOLA & SANDSHOF", "stop_name": "6725 LOYOLA/SANDSHOF", "location_type": null, "platform_code": null, "zone_id": null}, {"stop_lat": 30.29784, "stop_timezone": null, "wheelchair_boarding": 0, "stop_code": "2416", "direction_id": 1, "stop_lon": -97.64275, "parent_station": null, "route_id": "237", "stop_url": null, "stop_sequence": 9, "stop_id": "2416", "stop_desc": "007100 LOYOLA & CIELO VISTA", "stop_name": "LOYOLA/CIELO VISTA", "location_type": null, "platform_code": null, "zone_id": null}, {"stop_lat": 30.292743, "stop_timezone": null, "wheelchair_boarding": 0, "stop_code": "5982", "direction_id": 1, "stop_lon": -97.631318, "parent_station": null, "route_id": "237", "stop_url": null, "stop_sequence": 10, "stop_id": "5982", "stop_desc": "000000 LOYOLA & WENTWORTH", "stop_name": "8309 LOYOLA/WENTWORTH", "location_type": null, "platform_code": null, "zone_id": null}, {"stop_lat": 30.283558, "stop_timezone": null, "wheelchair_boarding": 0, "stop_code": "5983", "direction_id": 1, "stop_lon": -97.628367, "parent_station": null, "route_id": "237", "stop_url": null, "stop_sequence": 11, "stop_id": "5983", "stop_desc": "000000 INDIGO SKY & NELSON OAKS", "stop_name": "HOG EYE/NELSON OAKS", "location_type": null, "platform_code": null, "zone_id": null}, {"stop_lat": 30.282478, "stop_timezone": null, "wheelchair_boarding": 0, "stop_code": "5984", "direction_id": 1, "stop_lon": -97.6232, "parent_station": null, "route_id": "237", "stop_url": null, "stop_sequence": 12, "stop_id": "5984", "stop_desc": "009301 HOG EYE & IMPERIAL", "stop_name": "9301 HOG EYE - COMMUNITY FIRST", "location_type": null, "platform_code": null, "zone_id": null}]
