[{"stop_lat": 30.418199, "stop_timezone": null, "wheelchair_boarding": 0, "stop_code": "5304", "direction_id": 1, "stop_lon": -97.668243, "parent_station": null, "route_id": "801", "stop_url": "http://www.capmetro.org/gismaps/stops/5304.html", "stop_sequence": 1, "stop_id": "5304", "stop_desc": "Northwest corner of CENTER RIDGE and CENTER LINE - Mid-Block", "stop_name": "TECH RIDGE BAY I", "location_type": null, "platform_code": null, "zone_id": null}, {"stop_lat": 30.380328, "stop_timezone": null, "wheelchair_boarding": 0, "stop_code": "5857", "direction_id": 1, "stop_lon": -97.687413, "parent_station": null, "route_id": "801", "stop_url": "http://www.capmetro.org/gismaps/stops/5857.html", "stop_sequence": 2, "stop_id": "5857", "stop_desc": "Northwest corner of LAMAR and KRAMER - Mid-Block", "stop_name": "CHINATOWN STATION (SB)", "location_type": null, "platform_code": null, "zone_id": null}, {"stop_lat": 30.370907, "stop_timezone": null, "wheelchair_boarding": 0, "stop_code": "5858", "direction_id": 1, "stop_lon": -97.692755, "parent_station": null, "route_id": "801", "stop_url": "http://www.capmetro.org/gismaps/stops/5858.html", "stop_sequence": 3, "stop_id": "5858", "stop_desc": "Southwest corner of LAMAR and MASTERSON - Farside", "stop_name": "MASTERSON STATION (SB)", "location_type": null, "platform_code": null, "zone_id": null}, {"stop_lat": 30.363643, "stop_timezone": null, "wheelchair_boarding": 0, "stop_code": "4540", "direction_id": 1, "stop_lon": -97.696839, "parent_station": null, "route_id": "801", "stop_url": "http://www.capmetro.org/gismaps/stops/4540.html", "stop_sequence": 4, "stop_id": "4540", "stop_desc": "Northwest corner of LAMAR and RUNDBERG - Nearside", "stop_name": "RUNDBERG STATION (SB)", "location_type": null, "platform_code": null, "zone_id": null}, {"stop_lat": 30.349326, "stop_timezone": null, "wheelchair_boarding": 0, "stop_code": "5859", "direction_id": 1, "stop_lon": -97.711685, "parent_station": null, "route_id": "801", "stop_url": "http://www.capmetro.org/gismaps/stops/5859.html", "stop_sequence": 5, "stop_id": "5859", "stop_desc": "Northwest corner of LAMAR and RESEARCH - Nearside", "stop_name": "NORTH LAMAR STATION", "location_type": null, "platform_code": null, "zone_id": null}, {"stop_lat": 30.337829, "stop_timezone": null, "wheelchair_boarding": 0, "stop_code": "5606", "direction_id": 1, "stop_lon": -97.719023, "parent_station": null, "route_id": "801", "stop_url": "http://www.capmetro.org/gismaps/stops/5606.html", "stop_sequence": 6, "stop_id": "5606", "stop_desc": "Northwest corner of LAMAR and AIRPORT - Nearside", "stop_name": "CRESTVIEW STATION (SB)", "location_type": null, "platform_code": null, "zone_id": null}, {"stop_lat": 30.326746, "stop_timezone": null, "wheelchair_boarding": 0, "stop_code": "5861", "direction_id": 1, "stop_lon": -97.72593, "parent_station": null, "route_id": "801", "stop_url": "http://www.capmetro.org/gismaps/stops/5861.html", "stop_sequence": 7, "stop_id": "5861", "stop_desc": "Northwest corner of LAMAR and KOENIG - Nearside", "stop_name": "KOENIG STATION (SB)", "location_type": null, "platform_code": null, "zone_id": null}, {"stop_lat": 30.314729, "stop_timezone": null, "wheelchair_boarding": 0, "stop_code": "484", "direction_id": 1, "stop_lon": -97.732523, "parent_station": null, "route_id": "801", "stop_url": "http://www.capmetro.org/gismaps/stops/484.html", "stop_sequence": 8, "stop_id": "484", "stop_desc": "Southwest corner of GUADALUPE and LAMAR - Mid-Block", "stop_name": "TRIANGLE STATION (SB)", "location_type": null, "platform_code": null, "zone_id": null}, {"stop_lat": 30.303643, "stop_timezone": null, "wheelchair_boarding": 1, "stop_code": "5405", "direction_id": 1, "stop_lon": -97.737705, "parent_station": null, "route_id": "801", "stop_url": "http://www.capmetro.org/gismaps/stops/5405.html", "stop_sequence": 9, "stop_id": "5405", "stop_desc": "Northwest corner of GUADALUPE and 38TH HALF - Nearside", "stop_name": "HYDE PARK STATION (SB)", "location_type": null, "platform_code": null, "zone_id": null}, {"stop_lat": 30.291145, "stop_timezone": null, "wheelchair_boarding": 0, "stop_code": "5863", "direction_id": 1, "stop_lon": -97.741349, "parent_station": null, "route_id": "801", "stop_url": "http://www.capmetro.org/gismaps/stops/5863.html", "stop_sequence": 10, "stop_id": "5863", "stop_desc": "Northwest corner of GUADALUPE and 26TH - Mid-Block", "stop_name": "UT DEAN KEETON STATION (SB)", "location_type": null, "platform_code": null, "zone_id": null}, {"stop_lat": 30.286064, "stop_timezone": null, "wheelchair_boarding": 0, "stop_code": "497", "direction_id": 1, "stop_lon": -97.741815, "parent_station": null, "route_id": "801", "stop_url": "http://www.capmetro.org/gismaps/stops/497.html", "stop_sequence": 11, "stop_id": "497", "stop_desc": "Southwest corner of GUADALUPE and 23RD - Mid-Block", "stop_name": "UT WEST MALL STATION (SB)", "location_type": null, "platform_code": null, "zone_id": null}, {"stop_lat": 30.279366, "stop_timezone": null, "wheelchair_boarding": 0, "stop_code": "5866", "direction_id": 1, "stop_lon": -97.742545, "parent_station": null, "route_id": "801", "stop_url": "http://www.capmetro.org/gismaps/stops/5866.html", "stop_sequence": 12, "stop_id": "5866", "stop_desc": "Southwest corner of GUADALUPE and 17TH - Farside", "stop_name": "MUSEUM STATION (SB)", "location_type": null, "platform_code": null, "zone_id": null}, {"stop_lat": 30.275022, "stop_timezone": null, "wheelchair_boarding": 0, "stop_code": "2738", "direction_id": 1, "stop_lon": -97.744169, "parent_station": null, "route_id": "801", "stop_url": "http://www.capmetro.org/gismaps/stops/2738.html", "stop_sequence": 13, "stop_id": "2738", "stop_desc": "Northwest corner of GUADALUPE and 12TH - Nearside", "stop_name": "CAPITOL STATION (SB)", "location_type": null, "platform_code": null, "zone_id": null}, {"stop_lat": 30.271057, "stop_timezone": null, "wheelchair_boarding": 0, "stop_code": "2611", "direction_id": 1, "stop_lon": -97.745655, "parent_station": null, "route_id": "801", "stop_url": "http://www.capmetro.org/gismaps/stops/2611.html", "stop_sequence": 14, "stop_id": "2611", "stop_desc": "Northwest corner of GUADALUPE and 8TH - Nearside", "stop_name": "WOOLDRIDGE SQUARE STATION (SB)", "location_type": null, "platform_code": null, "zone_id": null}, {"stop_lat": 30.267751, "stop_timezone": null, "wheelchair_boarding": 0, "stop_code": "5867", "direction_id": 1, "stop_lon": -97.746857, "parent_station": null, "route_id": "801", "stop_url": "http://www.capmetro.org/gismaps/stops/5867.html", "stop_sequence": 15, "stop_id": "5867", "stop_desc": "Northwest corner of GUADALUPE and 4TH - Mid-Block", "stop_name": "REPUBLIC SQUARE STATION (SB)", "location_type": null, "platform_code": null, "zone_id": null}, {"stop_lat": 30.258765, "stop_timezone": null, "wheelchair_boarding": 0, "stop_code": "2763", "direction_id": 1, "stop_lon": -97.748699, "parent_station": null, "route_id": "801", "stop_url": "http://www.capmetro.org/gismaps/stops/2763.html", "stop_sequence": 16, "stop_id": "2763", "stop_desc": "Northwest corner of RIVERSIDE and BARTON SPRINGS - Nearside", "stop_name": "AUDITORIUM SHORES STATION (SB)", "location_type": null, "platform_code": null, "zone_id": null}, {"stop_lat": 30.248071, "stop_timezone": null, "wheelchair_boarding": 0, "stop_code": "4029", "direction_id": 1, "stop_lon": -97.750404, "parent_station": null, "route_id": "801", "stop_url": "http://www.capmetro.org/gismaps/stops/4029.html", "stop_sequence": 17, "stop_id": "4029", "stop_desc": "Northwest corner of CONGRESS and MONROE - Nearside", "stop_name": "SOCO STATION (SB)", "location_type": null, "platform_code": null, "zone_id": null}, {"stop_lat": 30.238013, "stop_timezone": null, "wheelchair_boarding": 1, "stop_code": "4046", "direction_id": 1, "stop_lon": -97.754383, "parent_station": null, "route_id": "801", "stop_url": "http://www.capmetro.org/gismaps/stops/4046.html", "stop_sequence": 18, "stop_id": "4046", "stop_desc": "Southwest corner of CONGRESS and OLTORF - Mid-Block", "stop_name": "OLTORF STATION (SB)", "location_type": null, "platform_code": null, "zone_id": null}, {"stop_lat": 30.228813, "stop_timezone": null, "wheelchair_boarding": 0, "stop_code": "5870", "direction_id": 1, "stop_lon": -97.760902, "parent_station": null, "route_id": "801", "stop_url": "http://www.capmetro.org/gismaps/stops/5870.html", "stop_sequence": 19, "stop_id": "5870", "stop_desc": "Southwest corner of CONGRESS and LIGHTSEY - Farside", "stop_name": "ST EDWARDS STATION (SB)", "location_type": null, "platform_code": null, "zone_id": null}, {"stop_lat": 30.222718, "stop_timezone": null, "wheelchair_boarding": 0, "stop_code": "5553", "direction_id": 1, "stop_lon": -97.766459, "parent_station": null, "route_id": "801", "stop_url": "http://www.capmetro.org/gismaps/stops/5553.html", "stop_sequence": 20, "stop_id": "5553", "stop_desc": "Northwest corner of BEN WHITE and CONGRESS - Mid-Block", "stop_name": "SOUTH CONGRESS STATION BAY K", "location_type": null, "platform_code": null, "zone_id": null}, {"stop_lat": 30.203436, "stop_timezone": null, "wheelchair_boarding": 0, "stop_code": "5871", "direction_id": 1, "stop_lon": -97.775417, "parent_station": null, "route_id": "801", "stop_url": "http://www.capmetro.org/gismaps/stops/5871.html", "stop_sequence": 21, "stop_id": "5871", "stop_desc": "Northwest corner of CONGRESS and AINSWORTH - Nearside", "stop_name": "LITTLE TEXAS STATION (SB)", "location_type": null, "platform_code": null, "zone_id": null}, {"stop_lat": 30.192391, "stop_timezone": null, "wheelchair_boarding": 0, "stop_code": "5872", "direction_id": 1, "stop_lon": -97.779203, "parent_station": null, "route_id": "801", "stop_url": "http://www.capmetro.org/gismaps/stops/5872.html", "stop_sequence": 22, "stop_id": "5872", "stop_desc": "Southwest corner of CONGRESS and WILLIAM CANNON - Farside", "stop_name": "PLEASANT HILL STATION (SB)", "location_type": null, "platform_code": null, "zone_id": null}, {"stop_lat": 30.162951, "stop_timezone": null, "wheelchair_boarding": 0, "stop_code": "5873", "direction_id": 1, "stop_lon": -97.790488, "parent_station": null, "route_id": "801", "stop_url": "http://www.capmetro.org/gismaps/stops/5873.html", "stop_sequence": 23, "stop_id": "5873", "stop_desc": "Northeast corner of TURK and CULLEN - Mid-Block", "stop_name": "SOUTHPARK MEADOWS STATION", "location_type": null, "platform_code": null, "zone_id": null}]
