[{"stop_timezone": "", "parent_station": "", "direction_id": "1", "stop_url": "https://www.capmetro.org/stopdetail/index.php?stop=1619", "stop_sequence": "1", "stop_id": "1619", "stop_desc": "007000 MANOR & SUSQUEHANNA", "location_type": "", "zone_id": "", "stop_lat": "30.313865", "wheelchair_boarding": "0", "stop_code": "1619", "stop_lon": "-97.664697", "route_id": "237", "stop_name": "7000 Manor/Susquehanna"}, {"stop_timezone": "", "parent_station": "", "direction_id": "1", "stop_url": "https://www.capmetro.org/stopdetail/index.php?stop=5007", "stop_sequence": "1", "stop_id": "5007", "stop_desc": "004700 TANNEHILL & WEBBERVILLE", "location_type": "", "zone_id": "", "stop_lat": "30.283973", "wheelchair_boarding": "0", "stop_code": "5007", "stop_lon": "-97.671344", "route_id": "237", "stop_name": "Tannehill/Webberville"}, {"stop_timezone": "", "parent_station": "", "direction_id": "1", "stop_url": "https://www.capmetro.org/stopdetail/index.php?stop=5982", "stop_sequence": "10", "stop_id": "5982", "stop_desc": "000000 LOYOLA & WENTWORTH", "location_type": "", "zone_id": "", "stop_lat": "30.292743", "wheelchair_boarding": "0", "stop_code": "5982", "stop_lon": "-97.631318", "route_id": "237", "stop_name": "8309 Loyola/Wentworth"}, {"stop_timezone": "", "parent_station": "", "direction_id": "1", "stop_url": "https://www.capmetro.org/stopdetail/index.php?stop=5983", "stop_sequence": "10", "stop_id": "5983", "stop_desc": "006036 ELFEN & HOG EYE", "location_type": "", "zone_id": "", "stop_lat": "30.284038", "wheelchair_boarding": "0", "stop_code": "5983", "stop_lon": "-97.626837", "route_id": "237", "stop_name": "6036 Elfen/Hog Eye"}, {"stop_timezone": "", "parent_station": "", "direction_id": "1", "stop_url": "https://www.capmetro.org/stopdetail/index.php?stop=5983", "stop_sequence": "11", "stop_id": "5983", "stop_desc": "006036 ELFEN & HOG EYE", "location_type": "", "zone_id": "", "stop_lat": "30.284038", "wheelchair_boarding": "0", "stop_code": "5983", "stop_lon": "-97.626837", "route_id": "237", "stop_name": "6036 Elfen/Hog Eye"}, {"stop_timezone": "", "parent_station": "", "direction_id": "1", "stop_url": "https://www.capmetro.org/stopdetail/index.php?stop=5984", "stop_sequence": "11", "stop_id": "5984", "stop_desc": "009301 HOG EYE & IMPERIAL", "location_type": "", "zone_id": "", "stop_lat": "30.282478", "wheelchair_boarding": "0", "stop_code": "5984", "stop_lon": "-97.623200", "route_id": "237", "stop_name": "9301 Hog Eye - Community First"}, {"stop_timezone": "", "parent_station": "", "direction_id": "1", "stop_url": "https://www.capmetro.org/stopdetail/index.php?stop=5984", "stop_sequence": "12", "stop_id": "5984", "stop_desc": "009301 HOG EYE & IMPERIAL", "location_type": "", "zone_id": "", "stop_lat": "30.282478", "wheelchair_boarding": "0", "stop_code": "5984", "stop_lon": "-97.623200", "route_id": "237", "stop_name": "9301 Hog Eye - Community First"}, {"stop_timezone": "", "parent_station": "", "direction_id": "1", "stop_url": "https://www.capmetro.org/stopdetail/index.php?stop=4611", "stop_sequence": "2", "stop_id": "4611", "stop_desc": "004701 LOYOLA & MANOR", "location_type": "", "zone_id": "", "stop_lat": "30.309468", "wheelchair_boarding": "0", "stop_code": "4611", "stop_lon": "-97.666739", "route_id": "237", "stop_name": "4701 Loyola/Manor"}, {"stop_timezone": "", "parent_station": "", "direction_id": "1", "stop_url": "https://www.capmetro.org/stopdetail/index.php?stop=5643", "stop_sequence": "2", "stop_id": "5643", "stop_desc": "000000 TANNEHILL & MARTIN LUTHER KING", "location_type": "", "zone_id": "", "stop_lat": "30.286011", "wheelchair_boarding": "0", "stop_code": "5643", "stop_lon": "-97.669518", "route_id": "237", "stop_name": "Tannehill/Martin Luther King"}, {"stop_timezone": "", "parent_station": "", "direction_id": "1", "stop_url": "https://www.capmetro.org/stopdetail/index.php?stop=2406", "stop_sequence": "3", "stop_id": "2406", "stop_desc": "005007 LOYOLA & GREENSBORO", "location_type": "", "zone_id": "", "stop_lat": "30.306534", "wheelchair_boarding": "0", "stop_code": "2406", "stop_lon": "-97.665444", "route_id": "237", "stop_name": "5007 Loyola/Greensboro"}, {"stop_timezone": "", "parent_station": "", "direction_id": "1", "stop_url": "https://www.capmetro.org/stopdetail/index.php?stop=5914", "stop_sequence": "3", "stop_id": "5914", "stop_desc": "006401 FM 969 & CRAIGWOOD", "location_type": "", "zone_id": "", "stop_lat": "30.284631", "wheelchair_boarding": "0", "stop_code": "5914", "stop_lon": "-97.660034", "route_id": "237", "stop_name": "6401 FM 969/Craigwood"}, {"stop_timezone": "", "parent_station": "", "direction_id": "1", "stop_url": "https://www.capmetro.org/stopdetail/index.php?stop=2407", "stop_sequence": "4", "stop_id": "2407", "stop_desc": "005213 LOYOLA & BRIDGEWATER", "location_type": "", "zone_id": "", "stop_lat": "30.304699", "wheelchair_boarding": "0", "stop_code": "2407", "stop_lon": "-97.664109", "route_id": "237", "stop_name": "5213 Loyola/Bridgewater"}, {"stop_timezone": "", "parent_station": "", "direction_id": "1", "stop_url": "https://www.capmetro.org/stopdetail/index.php?stop=4937", "stop_sequence": "4", "stop_id": "4937", "stop_desc": "005701 JOHNNY MORRIS & FM 969 (WEBBERVILLE )", "location_type": "", "zone_id": "", "stop_lat": "30.292629", "wheelchair_boarding": "0", "stop_code": "4937", "stop_lon": "-97.653013", "route_id": "237", "stop_name": "5701 Johnny Morris/FM 969"}, {"stop_timezone": "", "parent_station": "", "direction_id": "1", "stop_url": "https://www.capmetro.org/stopdetail/index.php?stop=4612", "stop_sequence": "5", "stop_id": "4612", "stop_desc": "005627 LOYOLA & MILLRACE", "location_type": "", "zone_id": "", "stop_lat": "30.302822", "wheelchair_boarding": "0", "stop_code": "4612", "stop_lon": "-97.657453", "route_id": "237", "stop_name": "5627 Loyola/Millrace"}, {"stop_timezone": "", "parent_station": "", "direction_id": "1", "stop_url": "https://www.capmetro.org/stopdetail/index.php?stop=4938", "stop_sequence": "5", "stop_id": "4938", "stop_desc": "006403 JOHNNY MORRIS & FM 969 (WEBBERVILLE )", "location_type": "", "zone_id": "", "stop_lat": "30.297443", "wheelchair_boarding": "0", "stop_code": "4938", "stop_lon": "-97.649934", "route_id": "237", "stop_name": "6403 Johnny Morris/FM 969"}, {"stop_timezone": "", "parent_station": "", "direction_id": "1", "stop_url": "https://www.capmetro.org/stopdetail/index.php?stop=4613", "stop_sequence": "6", "stop_id": "4613", "stop_desc": "005911 LOYOLA & CRYSTALBROOK", "location_type": "", "zone_id": "", "stop_lat": "30.302554", "wheelchair_boarding": "0", "stop_code": "4613", "stop_lon": "-97.653518", "route_id": "237", "stop_name": "5911 Loyola/Crystalbrook"}, {"stop_timezone": "", "parent_station": "", "direction_id": "1", "stop_url": "https://www.capmetro.org/stopdetail/index.php?stop=4614", "stop_sequence": "6", "stop_id": "4614", "stop_desc": "006507 LOYOLA & JOHNNY MORRIS", "location_type": "", "zone_id": "", "stop_lat": "30.299874", "wheelchair_boarding": "0", "stop_code": "4614", "stop_lon": "-97.647843", "route_id": "237", "stop_name": "Loyola/Johnny Morris SE Corner"}, {"stop_timezone": "", "parent_station": "", "direction_id": "1", "stop_url": "https://www.capmetro.org/stopdetail/index.php?stop=2410", "stop_sequence": "7", "stop_id": "2410", "stop_desc": "006725 LOYOLA & SANDSHOF", "location_type": "", "zone_id": "", "stop_lat": "30.298647", "wheelchair_boarding": "0", "stop_code": "2410", "stop_lon": "-97.645181", "route_id": "237", "stop_name": "6725 Loyola/Sandshof"}, {"stop_timezone": "", "parent_station": "", "direction_id": "1", "stop_url": "https://www.capmetro.org/stopdetail/index.php?stop=4614", "stop_sequence": "7", "stop_id": "4614", "stop_desc": "006507 LOYOLA & JOHNNY MORRIS", "location_type": "", "zone_id": "", "stop_lat": "30.299874", "wheelchair_boarding": "0", "stop_code": "4614", "stop_lon": "-97.647843", "route_id": "237", "stop_name": "Loyola/Johnny Morris SE Corner"}, {"stop_timezone": "", "parent_station": "", "direction_id": "1", "stop_url": "https://www.capmetro.org/stopdetail/index.php?stop=2410", "stop_sequence": "8", "stop_id": "2410", "stop_desc": "006725 LOYOLA & SANDSHOF", "location_type": "", "zone_id": "", "stop_lat": "30.298647", "wheelchair_boarding": "0", "stop_code": "2410", "stop_lon": "-97.645181", "route_id": "237", "stop_name": "6725 Loyola/Sandshof"}, {"stop_timezone": "", "parent_station": "", "direction_id": "1", "stop_url": "https://www.capmetro.org/stopdetail/index.php?stop=2416", "stop_sequence": "8", "stop_id": "2416", "stop_desc": "007100 LOYOLA & CIELO VISTA", "location_type": "", "zone_id": "", "stop_lat": "30.297837", "wheelchair_boarding": "0", "stop_code": "2416", "stop_lon": "-97.642748", "route_id": "237", "stop_name": "Loyola/Cielo Vista"}, {"stop_timezone": "", "parent_station": "", "direction_id": "1", "stop_url": "https://www.capmetro.org/stopdetail/index.php?stop=2416", "stop_sequence": "9", "stop_id": "2416", "stop_desc": "007100 LOYOLA & CIELO VISTA", "location_type": "", "zone_id": "", "stop_lat": "30.297837", "wheelchair_boarding": "0", "stop_code": "2416", "stop_lon": "-97.642748", "route_id": "237", "stop_name": "Loyola/Cielo Vista"}, {"stop_timezone": "", "parent_station": "", "direction_id": "1", "stop_url": "https://www.capmetro.org/stopdetail/index.php?stop=5982", "stop_sequence": "9", "stop_id": "5982", "stop_desc": "000000 LOYOLA & WENTWORTH", "location_type": "", "zone_id": "", "stop_lat": "30.292743", "wheelchair_boarding": "0", "stop_code": "5982", "stop_lon": "-97.631318", "route_id": "237", "stop_name": "8309 Loyola/Wentworth"}]
