[{"stop_lat": 30.283973, "stop_timezone": null, "wheelchair_boarding": 0, "stop_code": "5007", "direction_id": 0, "stop_lon": -97.671344, "parent_station": null, "route_id": "323", "stop_url": null, "stop_sequence": 1, "stop_id": "5007", "stop_desc": "004700 TANNEHILL & WEBBERVILLE", "stop_name": "TANNEHILL/WEBBERVILLE", "location_type": null, "platform_code": null, "zone_id": null}, {"stop_lat": 30.286011, "stop_timezone": null, "wheelchair_boarding": 0, "stop_code": "5643", "direction_id": 0, "stop_lon": -97.669518, "parent_station": null, "route_id": "323", "stop_url": null, "stop_sequence": 2, "stop_id": "5643", "stop_desc": "000000 TANNEHILL & MARTIN LUTHER KING", "stop_name": "TANNEHILL/MARTIN LUTHER KING", "location_type": null, "platform_code": null, "zone_id": null}, {"stop_lat": 30.28495, "stop_timezone": null, "wheelchair_boarding": 0, "stop_code": "4931", "direction_id": 0, "stop_lon": -97.66167, "parent_station": null, "route_id": "323", "stop_url": null, "stop_sequence": 3, "stop_id": "4931", "stop_desc": "006311 FM 969 & REGENCY", "stop_name": "6311 FM 969/REGENCY", "location_type": null, "platform_code": null, "zone_id": null}, {"stop_lat": 30.284631, "stop_timezone": null, "wheelchair_boarding": 0, "stop_code": "5914", "direction_id": 0, "stop_lon": -97.660034, "parent_station": null, "route_id": "323", "stop_url": null, "stop_sequence": 4, "stop_id": "5914", "stop_desc": "006401 FM 969 & CRAIGWOOD", "stop_name": "6401 FM 969/CRAIGWOOD", "location_type": null, "platform_code": null, "zone_id": null}, {"stop_lat": 30.284284, "stop_timezone": null, "wheelchair_boarding": 0, "stop_code": "4932", "direction_id": 0, "stop_lon": -97.659972, "parent_station": null, "route_id": "323", "stop_url": null, "stop_sequence": 5, "stop_id": "4932", "stop_desc": "004924 CRAIGWOOD & FM 969", "stop_name": "4924 CRAIGWOOD/FM 969", "location_type": null, "platform_code": null, "zone_id": null}, {"stop_lat": 30.282093, "stop_timezone": null, "wheelchair_boarding": 0, "stop_code": "4933", "direction_id": 0, "stop_lon": -97.660457, "parent_station": null, "route_id": "323", "stop_url": null, "stop_sequence": 6, "stop_id": "4933", "stop_desc": "004700 CRAIGWOOD & LITTLE HILL CIRCLE", "stop_name": "CRAIGWOOD/LITTLE HILL CIRCLE", "location_type": null, "platform_code": null, "zone_id": null}, {"stop_lat": 30.280509, "stop_timezone": null, "wheelchair_boarding": 0, "stop_code": "4935", "direction_id": 0, "stop_lon": -97.660926, "parent_station": null, "route_id": "323", "stop_url": null, "stop_sequence": 7, "stop_id": "4935", "stop_desc": "004501 LITTLE HILL & CRAIGWOOD", "stop_name": "4501 LITTLE HILL/CRAIGWOOD", "location_type": null, "platform_code": null, "zone_id": null}, {"stop_lat": 30.282824, "stop_timezone": null, "wheelchair_boarding": 0, "stop_code": "4936", "direction_id": 0, "stop_lon": -97.660147, "parent_station": null, "route_id": "323", "stop_url": null, "stop_sequence": 8, "stop_id": "4936", "stop_desc": "004801 CRAIGWOOD & HUNTLEIGH", "stop_name": "4801 CRAIGWOOD/HUNTLEIGH", "location_type": null, "platform_code": null, "zone_id": null}, {"stop_lat": 30.284171, "stop_timezone": null, "wheelchair_boarding": 0, "stop_code": "66", "direction_id": 0, "stop_lon": -97.659854, "parent_station": null, "route_id": "323", "stop_url": null, "stop_sequence": 9, "stop_id": "66", "stop_desc": "004925 CRAIGWOOD & FM 969", "stop_name": "4925 CRAIGWOOD/FM 969", "location_type": null, "platform_code": null, "zone_id": null}, {"stop_lat": 30.292629, "stop_timezone": null, "wheelchair_boarding": 0, "stop_code": "4937", "direction_id": 0, "stop_lon": -97.653013, "parent_station": null, "route_id": "323", "stop_url": null, "stop_sequence": 10, "stop_id": "4937", "stop_desc": "005701 JOHNNY MORRIS & FM 969 (WEBBERVILLE", "stop_name": "5701 JOHNNY MORRIS/FM 969", "location_type": null, "platform_code": null, "zone_id": null}, {"stop_lat": 30.297443, "stop_timezone": null, "wheelchair_boarding": 0, "stop_code": "4938", "direction_id": 0, "stop_lon": -97.649934, "parent_station": null, "route_id": "323", "stop_url": null, "stop_sequence": 11, "stop_id": "4938", "stop_desc": "006403 JOHNNY MORRIS & FM 969 (WEBBERVILLE", "stop_name": "6403 JOHNNY MORRIS/FM 969", "location_type": null, "platform_code": null, "zone_id": null}, {"stop_lat": 30.300569, "stop_timezone": null, "wheelchair_boarding": 0, "stop_code": "5644", "direction_id": 0, "stop_lon": -97.648626, "parent_station": null, "route_id": "323", "stop_url": null, "stop_sequence": 12, "stop_id": "5644", "stop_desc": "006500 LOYOLA & JOHNNY MORRIS", "stop_name": "6500 LOYOLA/JOHNNY MORRIS", "location_type": null, "platform_code": null, "zone_id": null}, {"stop_lat": 30.30163, "stop_timezone": null, "wheelchair_boarding": 0, "stop_code": "5558", "direction_id": 0, "stop_lon": -97.650907, "parent_station": null, "route_id": "323", "stop_url": null, "stop_sequence": 13, "stop_id": "5558", "stop_desc": "000000 LOYOLA & JOHNNY MORRIS", "stop_name": "LOYOLA/JOHNNY MORRIS NW CORNER", "location_type": null, "platform_code": null, "zone_id": null}, {"stop_lat": 30.303281, "stop_timezone": null, "wheelchair_boarding": 0, "stop_code": "2290", "direction_id": 0, "stop_lon": -97.654591, "parent_station": null, "route_id": "323", "stop_url": null, "stop_sequence": 14, "stop_id": "2290", "stop_desc": "005900 LOYOLA & CRYSTALBROOK", "stop_name": "5900 LOYOLA/CRYSTALBROOK", "location_type": null, "platform_code": null, "zone_id": null}, {"stop_lat": 30.303051, "stop_timezone": null, "wheelchair_boarding": 0, "stop_code": "2291", "direction_id": 0, "stop_lon": -97.657759, "parent_station": null, "route_id": "323", "stop_url": null, "stop_sequence": 15, "stop_id": "2291", "stop_desc": "005600 LOYOLA & MILLRACE", "stop_name": "5600 LOYOLA/MILLRACE", "location_type": null, "platform_code": null, "zone_id": null}, {"stop_lat": 30.303092, "stop_timezone": null, "wheelchair_boarding": 0, "stop_code": "5425", "direction_id": 0, "stop_lon": -97.66195, "parent_station": null, "route_id": "323", "stop_url": null, "stop_sequence": 16, "stop_id": "5425", "stop_desc": "000000 LOYOLA & ED BLUESTEIN", "stop_name": "LOYOLA/ED BLUESTEIN", "location_type": null, "platform_code": null, "zone_id": null}, {"stop_lat": 30.304837, "stop_timezone": null, "wheelchair_boarding": 0, "stop_code": "2292", "direction_id": 0, "stop_lon": -97.664061, "parent_station": null, "route_id": "323", "stop_url": null, "stop_sequence": 17, "stop_id": "2292", "stop_desc": "005200 LOYOLA & BRIDGEWATER", "stop_name": "5200 LOYOLA/BRIDGEWATER", "location_type": null, "platform_code": null, "zone_id": null}, {"stop_lat": 30.30664, "stop_timezone": null, "wheelchair_boarding": 0, "stop_code": "2293", "direction_id": 0, "stop_lon": -97.6653, "parent_station": null, "route_id": "323", "stop_url": null, "stop_sequence": 18, "stop_id": "2293", "stop_desc": "005007 LOYOLA & GREENSBORO", "stop_name": "5007 LOYOLA/GREENSBORO", "location_type": null, "platform_code": null, "zone_id": null}, {"stop_lat": 30.30994, "stop_timezone": null, "wheelchair_boarding": 0, "stop_code": "2294", "direction_id": 0, "stop_lon": -97.66695, "parent_station": null, "route_id": "323", "stop_url": null, "stop_sequence": 19, "stop_id": "2294", "stop_desc": "004600 LOYOLA & MANOR", "stop_name": "4600 LOYOLA/MANOR", "location_type": null, "platform_code": null, "zone_id": null}, {"stop_lat": 30.310484, "stop_timezone": null, "wheelchair_boarding": 0, "stop_code": "5848", "direction_id": 0, "stop_lon": -97.666576, "parent_station": null, "route_id": "323", "stop_url": null, "stop_sequence": 20, "stop_id": "5848", "stop_desc": "006713 MANOR & LOYOLA", "stop_name": "6713 MANOR/LOYOLA", "location_type": null, "platform_code": null, "zone_id": null}, {"stop_lat": 30.312849, "stop_timezone": null, "wheelchair_boarding": 0, "stop_code": "1601", "direction_id": 0, "stop_lon": -97.665031, "parent_station": null, "route_id": "323", "stop_url": null, "stop_sequence": 21, "stop_id": "1601", "stop_desc": "007033 MANOR & SUSQUEHANNA", "stop_name": "7033 MANOR/SUSQUEHANNA", "location_type": null, "platform_code": null, "zone_id": null}, {"stop_lat": 30.319038, "stop_timezone": null, "wheelchair_boarding": 0, "stop_code": "5808", "direction_id": 0, "stop_lon": -97.660988, "parent_station": null, "route_id": "323", "stop_url": null, "stop_sequence": 22, "stop_id": "5808", "stop_desc": "007500 MANOR & PECAN BROOK", "stop_name": "7500 MANOR/PECAN BROOK", "location_type": null, "platform_code": null, "zone_id": null}, {"stop_lat": 30.328995, "stop_timezone": null, "wheelchair_boarding": 0, "stop_code": "5945", "direction_id": 0, "stop_lon": -97.656302, "parent_station": null, "route_id": "323", "stop_url": null, "stop_sequence": 23, "stop_id": "5945", "stop_desc": "009100 US 290 & SPRINGDALE", "stop_name": "9100 US 290/SPRINGDALE", "location_type": null, "platform_code": null, "zone_id": null}, {"stop_lat": 30.330722, "stop_timezone": null, "wheelchair_boarding": 0, "stop_code": "5810", "direction_id": 0, "stop_lon": -97.659482, "parent_station": null, "route_id": "323", "stop_url": null, "stop_sequence": 24, "stop_id": "5810", "stop_desc": "008408 TUSCANY & US 290", "stop_name": "8408 TUSCANY/US 290", "location_type": null, "platform_code": null, "zone_id": null}, {"stop_lat": 30.337487, "stop_timezone": null, "wheelchair_boarding": 0, "stop_code": "5813", "direction_id": 0, "stop_lon": -97.662196, "parent_station": null, "route_id": "323", "stop_url": null, "stop_sequence": 25, "stop_id": "5813", "stop_desc": "008009 EXCHANGE & TUSCANY", "stop_name": "8009 EXCHANGE/TUSCANY", "location_type": null, "platform_code": null, "zone_id": null}, {"stop_lat": 30.330305, "stop_timezone": null, "wheelchair_boarding": 0, "stop_code": "5815", "direction_id": 0, "stop_lon": -97.666971, "parent_station": null, "route_id": "323", "stop_url": null, "stop_sequence": 26, "stop_id": "5815", "stop_desc": "008073 EXCHANGE & CROSS PARK", "stop_name": "8073 EXCHANGE/CROSS PARK", "location_type": null, "platform_code": null, "zone_id": null}, {"stop_lat": 30.330492, "stop_timezone": null, "wheelchair_boarding": 0, "stop_code": "5816", "direction_id": 0, "stop_lon": -97.671781, "parent_station": null, "route_id": "323", "stop_url": null, "stop_sequence": 27, "stop_id": "5816", "stop_desc": "008124 EXCHANGE & INTERPARKE", "stop_name": "8124 EXCHANGE/INTERPARKE", "location_type": null, "platform_code": null, "zone_id": null}, {"stop_lat": 30.335191, "stop_timezone": null, "wheelchair_boarding": 0, "stop_code": "5818", "direction_id": 0, "stop_lon": -97.673447, "parent_station": null, "route_id": "323", "stop_url": null, "stop_sequence": 28, "stop_id": "5818", "stop_desc": "002202 FORBES & CROSS PARK", "stop_name": "2202 FORBES/CROSS PARK", "location_type": null, "platform_code": null, "zone_id": null}, {"stop_lat": 30.33623, "stop_timezone": null, "wheelchair_boarding": 0, "stop_code": "2451", "direction_id": 0, "stop_lon": -97.67771, "parent_station": null, "route_id": "323", "stop_url": null, "stop_sequence": 29, "stop_id": "2451", "stop_desc": "001706 CENTRE CREEK & CROSS PARK", "stop_name": "1706 CENTRE CREEK/CROSS PARK", "location_type": null, "platform_code": null, "zone_id": null}, {"stop_lat": 30.335382, "stop_timezone": null, "wheelchair_boarding": 0, "stop_code": "4703", "direction_id": 0, "stop_lon": -97.68026, "parent_station": null, "route_id": "323", "stop_url": null, "stop_sequence": 30, "stop_id": "4703", "stop_desc": "001600 CENTRE CREEK & RUTHERFORD", "stop_name": "1600 CENTRE CREEK/RUTHERFORD", "location_type": null, "platform_code": null, "zone_id": null}, {"stop_lat": 30.33692, "stop_timezone": null, "wheelchair_boarding": 0, "stop_code": "4706", "direction_id": 0, "stop_lon": -97.68223, "parent_station": null, "route_id": "323", "stop_url": null, "stop_sequence": 31, "stop_id": "4706", "stop_desc": "001514 RUTHERFORD & CAMERON", "stop_name": "FISHER-ROSEMOUNT SYSTEMS", "location_type": null, "platform_code": null, "zone_id": null}, {"stop_lat": 30.33794, "stop_timezone": null, "wheelchair_boarding": 0, "stop_code": "2439", "direction_id": 0, "stop_lon": -97.68431, "parent_station": null, "route_id": "323", "stop_url": null, "stop_sequence": 32, "stop_id": "2439", "stop_desc": "001476 RUTHERFORD & CAMERON", "stop_name": "1476 RUTHERFORD/CAMERON", "location_type": null, "platform_code": null, "zone_id": null}, {"stop_lat": 30.34058, "stop_timezone": null, "wheelchair_boarding": 0, "stop_code": "5447", "direction_id": 0, "stop_lon": -97.68994, "parent_station": null, "route_id": "323", "stop_url": null, "stop_sequence": 33, "stop_id": "5447", "stop_desc": "001112 RUTHERFORD & FURNESS", "stop_name": "1112 RUTHERFORD/FURNESS", "location_type": null, "platform_code": null, "zone_id": null}, {"stop_lat": 30.340281, "stop_timezone": null, "wheelchair_boarding": 0, "stop_code": "3931", "direction_id": 0, "stop_lon": -97.691161, "parent_station": null, "route_id": "323", "stop_url": null, "stop_sequence": 34, "stop_id": "3931", "stop_desc": "001030 WALMART NORWOOD TURNOFF & RUTHERFORD", "stop_name": "WALMART NORWOOD", "location_type": null, "platform_code": null, "zone_id": null}, {"stop_lat": 30.33884, "stop_timezone": null, "wheelchair_boarding": 0, "stop_code": "5193", "direction_id": 0, "stop_lon": -97.69403, "parent_station": null, "route_id": "323", "stop_url": null, "stop_sequence": 35, "stop_id": "5193", "stop_desc": "001000 NORWOOD PARK & BRETTONWOODS", "stop_name": "NORWOOD PARK/BRETTONWOODS", "location_type": null, "platform_code": null, "zone_id": null}, {"stop_lat": 30.344432, "stop_timezone": null, "wheelchair_boarding": 0, "stop_code": "5646", "direction_id": 0, "stop_lon": -97.705583, "parent_station": null, "route_id": "323", "stop_url": null, "stop_sequence": 36, "stop_id": "5646", "stop_desc": "000000 RESEARCH & GEORGIAN", "stop_name": "RESEARCH/GEORGIAN", "location_type": null, "platform_code": null, "zone_id": null}, {"stop_lat": 30.350066, "stop_timezone": null, "wheelchair_boarding": 0, "stop_code": "5227", "direction_id": 0, "stop_lon": -97.712111, "parent_station": null, "route_id": "323", "stop_url": null, "stop_sequence": 37, "stop_id": "5227", "stop_desc": "07900A RESEARCH & LAMAR", "stop_name": "NORTH LAMAR BAY 3", "location_type": null, "platform_code": null, "zone_id": null}, {"stop_lat": 30.349206, "stop_timezone": null, "wheelchair_boarding": 0, "stop_code": "3278", "direction_id": 0, "stop_lon": -97.716025, "parent_station": null, "route_id": "323", "stop_url": null, "stop_sequence": 38, "stop_id": "3278", "stop_desc": "001011 ANDERSON & WATSON", "stop_name": "ANDERSON/WATSON", "location_type": null, "platform_code": null, "zone_id": null}, {"stop_lat": 30.350302, "stop_timezone": null, "wheelchair_boarding": 0, "stop_code": "4580", "direction_id": 0, "stop_lon": -97.718359, "parent_station": null, "route_id": "323", "stop_url": null, "stop_sequence": 39, "stop_id": "4580", "stop_desc": "001220 ANDERSON & GAULT", "stop_name": "ANDERSON/GAULT", "location_type": null, "platform_code": null, "zone_id": null}, {"stop_lat": 30.351463, "stop_timezone": null, "wheelchair_boarding": 0, "stop_code": "3279", "direction_id": 0, "stop_lon": -97.720782, "parent_station": null, "route_id": "323", "stop_url": null, "stop_sequence": 40, "stop_id": "3279", "stop_desc": "001500 ANDERSON & LAZY", "stop_name": "ANDERSON/LAZY", "location_type": null, "platform_code": null, "zone_id": null}, {"stop_lat": 30.35279, "stop_timezone": null, "wheelchair_boarding": 0, "stop_code": "1078", "direction_id": 0, "stop_lon": -97.72362, "parent_station": null, "route_id": "323", "stop_url": null, "stop_sequence": 41, "stop_id": "1078", "stop_desc": "001700 ANDERSON & WOOTEN PARK", "stop_name": "1700 ANDERSON/WOOTEN PARK", "location_type": null, "platform_code": null, "zone_id": null}, {"stop_lat": 30.35401, "stop_timezone": null, "wheelchair_boarding": 0, "stop_code": "1080", "direction_id": 0, "stop_lon": -97.72622, "parent_station": null, "route_id": "323", "stop_url": null, "stop_sequence": 42, "stop_id": "1080", "stop_desc": "1900 ANDERSON & MULLEN", "stop_name": "ANDERSON/MULLEN", "location_type": null, "platform_code": null, "zone_id": null}, {"stop_lat": 30.354997, "stop_timezone": null, "wheelchair_boarding": 0, "stop_code": "3281", "direction_id": 0, "stop_lon": -97.728269, "parent_station": null, "route_id": "323", "stop_url": null, "stop_sequence": 43, "stop_id": "3281", "stop_desc": "002114 ANDERSON & HARDY", "stop_name": "2114 ANDERSON/HARDY", "location_type": null, "platform_code": null, "zone_id": null}, {"stop_lat": 30.354217, "stop_timezone": null, "wheelchair_boarding": 0, "stop_code": "5849", "direction_id": 0, "stop_lon": -97.732117, "parent_station": null, "route_id": "323", "stop_url": null, "stop_sequence": 44, "stop_id": "5849", "stop_desc": "007800 BURNET & ANDERSON", "stop_name": "NORTHCROSS STATION (SB)", "location_type": null, "platform_code": null, "zone_id": null}, {"stop_lat": 30.354986, "stop_timezone": null, "wheelchair_boarding": 0, "stop_code": "5851", "direction_id": 0, "stop_lon": -97.73617, "parent_station": null, "route_id": "323", "stop_url": null, "stop_sequence": 45, "stop_id": "5851", "stop_desc": "007719 NORTHCROSS & FOSTER", "stop_name": "7719 NORTHCROSS/FOSTER", "location_type": null, "platform_code": null, "zone_id": null}, {"stop_lat": 30.357183, "stop_timezone": null, "wheelchair_boarding": 0, "stop_code": "5854", "direction_id": 0, "stop_lon": -97.733456, "parent_station": null, "route_id": "323", "stop_url": null, "stop_sequence": 46, "stop_id": "5854", "stop_desc": "002535 ANDERSON & FOSTER", "stop_name": "2535 ANDERSON/FOSTER", "location_type": null, "platform_code": null, "zone_id": null}]
