[{"stop_timezone": "", "parent_station": "", "direction_id": "1", "stop_url": "https://www.capmetro.org/stopdetail/index.php?stop=5607", "stop_sequence": "1", "stop_id": "5607", "stop_desc": "000000 HOWARD & MOPAC", "location_type": "", "zone_id": "", "stop_lat": "30.439972", "wheelchair_boarding": "0", "stop_code": "5607", "stop_lon": "-97.701240", "route_id": "243", "stop_name": "Howard Station Bus Stop"}, {"stop_timezone": "", "parent_station": "", "direction_id": "1", "stop_url": "https://www.capmetro.org/stopdetail/index.php?stop=4815", "stop_sequence": "10", "stop_id": "4815", "stop_desc": "002301 WELLS BRANCH & MERRILLTOWN", "location_type": "", "zone_id": "", "stop_lat": "30.438537", "wheelchair_boarding": "0", "stop_code": "4815", "stop_lon": "-97.685392", "route_id": "243", "stop_name": "2301 Wells Branch/Merrilltown"}, {"stop_timezone": "", "parent_station": "", "direction_id": "1", "stop_url": "https://www.capmetro.org/stopdetail/index.php?stop=5767", "stop_sequence": "10", "stop_id": "5767", "stop_desc": "001113 WELLS BRANCH & DRUSILLAS", "location_type": "", "zone_id": "", "stop_lat": "30.437941", "wheelchair_boarding": "0", "stop_code": "5767", "stop_lon": "-97.658872", "route_id": "243", "stop_name": "1113 Wells Branch/Drusillas"}, {"stop_timezone": "", "parent_station": "", "direction_id": "1", "stop_url": "https://www.capmetro.org/stopdetail/index.php?stop=4817", "stop_sequence": "11", "stop_id": "4817", "stop_desc": "002107 WELLS BRANCH & RENAISSANCE", "location_type": "", "zone_id": "", "stop_lat": "30.436412", "wheelchair_boarding": "0", "stop_code": "4817", "stop_lon": "-97.683828", "route_id": "243", "stop_name": "2107 Wells Branch/Renaissance"}, {"stop_timezone": "", "parent_station": "", "direction_id": "1", "stop_url": "https://www.capmetro.org/stopdetail/index.php?stop=5768", "stop_sequence": "11", "stop_id": "5768", "stop_desc": "001600 HEATHERWILDE & WELLS BRANCH", "location_type": "", "zone_id": "", "stop_lat": "30.432288", "wheelchair_boarding": "0", "stop_code": "5768", "stop_lon": "-97.654196", "route_id": "243", "stop_name": "1600 Heatherwilde/Wells Branch"}, {"stop_timezone": "", "parent_station": "", "direction_id": "1", "stop_url": "https://www.capmetro.org/stopdetail/index.php?stop=5342", "stop_sequence": "12", "stop_id": "5342", "stop_desc": "001831 WELLS BRANCH & THERMAL", "location_type": "", "zone_id": "", "stop_lat": "30.434587", "wheelchair_boarding": "0", "stop_code": "5342", "stop_lon": "-97.678139", "route_id": "243", "stop_name": "1831 Wells Branch/Thermal"}, {"stop_timezone": "", "parent_station": "", "direction_id": "1", "stop_url": "https://www.capmetro.org/stopdetail/index.php?stop=5771", "stop_sequence": "12", "stop_id": "5771", "stop_desc": "002600 HEATHERWILDE & WILD SENNA", "location_type": "", "zone_id": "", "stop_lat": "30.422266", "wheelchair_boarding": "0", "stop_code": "5771", "stop_lon": "-97.659205", "route_id": "243", "stop_name": "2600 Heatherwilde/Wild Senna"}, {"stop_timezone": "", "parent_station": "", "direction_id": "1", "stop_url": "https://www.capmetro.org/stopdetail/index.php?stop=5301", "stop_sequence": "13", "stop_id": "5301", "stop_desc": "00900E CENTER RIDGE & CENTER LINE", "location_type": "", "zone_id": "", "stop_lat": "30.418565", "wheelchair_boarding": "0", "stop_code": "5301", "stop_lon": "-97.669112", "route_id": "243", "stop_name": "Tech Ridge Bay E"}, {"stop_timezone": "", "parent_station": "", "direction_id": "1", "stop_url": "https://www.capmetro.org/stopdetail/index.php?stop=5761", "stop_sequence": "13", "stop_id": "5761", "stop_desc": "001779 WELLS BRANCH & WELLS PORT", "location_type": "", "zone_id": "", "stop_lat": "30.435736", "wheelchair_boarding": "0", "stop_code": "5761", "stop_lon": "-97.675020", "route_id": "243", "stop_name": "1779 Wells Branch/Wells Port"}, {"stop_timezone": "", "parent_station": "", "direction_id": "1", "stop_url": "https://www.capmetro.org/stopdetail/index.php?stop=5795", "stop_sequence": "13", "stop_id": "5795", "stop_desc": "000000 MCCALLEN & HOWARD", "location_type": "", "zone_id": "", "stop_lat": "30.417569", "wheelchair_boarding": "0", "stop_code": "5795", "stop_lon": "-97.662282", "route_id": "243", "stop_name": "McCallen/Howard"}, {"stop_timezone": "", "parent_station": "", "direction_id": "1", "stop_url": "https://www.capmetro.org/stopdetail/index.php?stop=5301", "stop_sequence": "14", "stop_id": "5301", "stop_desc": "00900E CENTER RIDGE & CENTER LINE", "location_type": "", "zone_id": "", "stop_lat": "30.418565", "wheelchair_boarding": "0", "stop_code": "5301", "stop_lon": "-97.669112", "route_id": "243", "stop_name": "Tech Ridge Bay E"}, {"stop_timezone": "", "parent_station": "", "direction_id": "1", "stop_url": "https://www.capmetro.org/stopdetail/index.php?stop=5765", "stop_sequence": "14", "stop_id": "5765", "stop_desc": "001425 WELLS BRANCH & FM 1825", "location_type": "", "zone_id": "", "stop_lat": "30.441022", "wheelchair_boarding": "0", "stop_code": "5765", "stop_lon": "-97.664663", "route_id": "243", "stop_name": "1425 Wells Branch/FM 1825"}, {"stop_timezone": "", "parent_station": "", "direction_id": "1", "stop_url": "https://www.capmetro.org/stopdetail/index.php?stop=5767", "stop_sequence": "15", "stop_id": "5767", "stop_desc": "001113 WELLS BRANCH & DRUSILLAS", "location_type": "", "zone_id": "", "stop_lat": "30.437941", "wheelchair_boarding": "0", "stop_code": "5767", "stop_lon": "-97.658872", "route_id": "243", "stop_name": "1113 Wells Branch/Drusillas"}, {"stop_timezone": "", "parent_station": "", "direction_id": "1", "stop_url": "https://www.capmetro.org/stopdetail/index.php?stop=5768", "stop_sequence": "16", "stop_id": "5768", "stop_desc": "001600 HEATHERWILDE & WELLS BRANCH", "location_type": "", "zone_id": "", "stop_lat": "30.432288", "wheelchair_boarding": "0", "stop_code": "5768", "stop_lon": "-97.654196", "route_id": "243", "stop_name": "1600 Heatherwilde/Wells Branch"}, {"stop_timezone": "", "parent_station": "", "direction_id": "1", "stop_url": "https://www.capmetro.org/stopdetail/index.php?stop=5771", "stop_sequence": "17", "stop_id": "5771", "stop_desc": "002600 HEATHERWILDE & WILD SENNA", "location_type": "", "zone_id": "", "stop_lat": "30.422266", "wheelchair_boarding": "0", "stop_code": "5771", "stop_lon": "-97.659205", "route_id": "243", "stop_name": "2600 Heatherwilde/Wild Senna"}, {"stop_timezone": "", "parent_station": "", "direction_id": "1", "stop_url": "https://www.capmetro.org/stopdetail/index.php?stop=5795", "stop_sequence": "18", "stop_id": "5795", "stop_desc": "000000 MCCALLEN & HOWARD", "location_type": "", "zone_id": "", "stop_lat": "30.417569", "wheelchair_boarding": "0", "stop_code": "5795", "stop_lon": "-97.662282", "route_id": "243", "stop_name": "McCallen/Howard"}, {"stop_timezone": "", "parent_station": "", "direction_id": "1", "stop_url": "https://www.capmetro.org/stopdetail/index.php?stop=5301", "stop_sequence": "19", "stop_id": "5301", "stop_desc": "00900E CENTER RIDGE & CENTER LINE", "location_type": "", "zone_id": "", "stop_lat": "30.418565", "wheelchair_boarding": "0", "stop_code": "5301", "stop_lon": "-97.669112", "route_id": "243", "stop_name": "Tech Ridge Bay E"}, {"stop_timezone": "", "parent_station": "", "direction_id": "1", "stop_url": "https://www.capmetro.org/stopdetail/index.php?stop=5305", "stop_sequence": "2", "stop_id": "5305", "stop_desc": "003301 WELLS BRANCH & HOWARD", "location_type": "", "zone_id": "", "stop_lat": "30.440104", "wheelchair_boarding": "0", "stop_code": "5305", "stop_lon": "-97.695268", "route_id": "243", "stop_name": "3301 Wells Branch/Howard"}, {"stop_timezone": "", "parent_station": "", "direction_id": "1", "stop_url": "https://www.capmetro.org/stopdetail/index.php?stop=5278", "stop_sequence": "3", "stop_id": "5278", "stop_desc": "003001 WELLS BRANCH & SUMMIT", "location_type": "", "zone_id": "", "stop_lat": "30.441210", "wheelchair_boarding": "0", "stop_code": "5278", "stop_lon": "-97.692441", "route_id": "243", "stop_name": "3001 Wells Branch/Summit"}, {"stop_timezone": "", "parent_station": "", "direction_id": "1", "stop_url": "https://www.capmetro.org/stopdetail/index.php?stop=4813", "stop_sequence": "4", "stop_id": "4813", "stop_desc": "002801 WELLS BRANCH & DOUBLE FILE", "location_type": "", "zone_id": "", "stop_lat": "30.441506", "wheelchair_boarding": "0", "stop_code": "4813", "stop_lon": "-97.689979", "route_id": "243", "stop_name": "2801 Wells Branch/Double File"}, {"stop_timezone": "", "parent_station": "", "direction_id": "1", "stop_url": "https://www.capmetro.org/stopdetail/index.php?stop=4815", "stop_sequence": "5", "stop_id": "4815", "stop_desc": "002301 WELLS BRANCH & MERRILLTOWN", "location_type": "", "zone_id": "", "stop_lat": "30.438537", "wheelchair_boarding": "0", "stop_code": "4815", "stop_lon": "-97.685392", "route_id": "243", "stop_name": "2301 Wells Branch/Merrilltown"}, {"stop_timezone": "", "parent_station": "", "direction_id": "1", "stop_url": "https://www.capmetro.org/stopdetail/index.php?stop=5296", "stop_sequence": "5", "stop_id": "5296", "stop_desc": "014745 MERRILLTOWN & YORA", "location_type": "", "zone_id": "", "stop_lat": "30.448977", "wheelchair_boarding": "0", "stop_code": "5296", "stop_lon": "-97.692829", "route_id": "243", "stop_name": "Merrilltown/Yora"}, {"stop_timezone": "", "parent_station": "", "direction_id": "1", "stop_url": "https://www.capmetro.org/stopdetail/index.php?stop=4817", "stop_sequence": "6", "stop_id": "4817", "stop_desc": "002107 WELLS BRANCH & RENAISSANCE", "location_type": "", "zone_id": "", "stop_lat": "30.436412", "wheelchair_boarding": "0", "stop_code": "4817", "stop_lon": "-97.683828", "route_id": "243", "stop_name": "2107 Wells Branch/Renaissance"}, {"stop_timezone": "", "parent_station": "", "direction_id": "1", "stop_url": "https://www.capmetro.org/stopdetail/index.php?stop=5607", "stop_sequence": "6", "stop_id": "5607", "stop_desc": "000000 HOWARD & MOPAC", "location_type": "", "zone_id": "", "stop_lat": "30.439972", "wheelchair_boarding": "0", "stop_code": "5607", "stop_lon": "-97.701240", "route_id": "243", "stop_name": "Howard Station Bus Stop"}, {"stop_timezone": "", "parent_station": "", "direction_id": "1", "stop_url": "https://www.capmetro.org/stopdetail/index.php?stop=5305", "stop_sequence": "7", "stop_id": "5305", "stop_desc": "003301 WELLS BRANCH & HOWARD", "location_type": "", "zone_id": "", "stop_lat": "30.440104", "wheelchair_boarding": "0", "stop_code": "5305", "stop_lon": "-97.695268", "route_id": "243", "stop_name": "3301 Wells Branch/Howard"}, {"stop_timezone": "", "parent_station": "", "direction_id": "1", "stop_url": "https://www.capmetro.org/stopdetail/index.php?stop=5342", "stop_sequence": "7", "stop_id": "5342", "stop_desc": "001831 WELLS BRANCH & THERMAL", "location_type": "", "zone_id": "", "stop_lat": "30.434587", "wheelchair_boarding": "0", "stop_code": "5342", "stop_lon": "-97.678139", "route_id": "243", "stop_name": "1831 Wells Branch/Thermal"}, {"stop_timezone": "", "parent_station": "", "direction_id": "1", "stop_url": "https://www.capmetro.org/stopdetail/index.php?stop=5278", "stop_sequence": "8", "stop_id": "5278", "stop_desc": "003001 WELLS BRANCH & SUMMIT", "location_type": "", "zone_id": "", "stop_lat": "30.441210", "wheelchair_boarding": "0", "stop_code": "5278", "stop_lon": "-97.692441", "route_id": "243", "stop_name": "3001 Wells Branch/Summit"}, {"stop_timezone": "", "parent_station": "", "direction_id": "1", "stop_url": "https://www.capmetro.org/stopdetail/index.php?stop=5761", "stop_sequence": "8", "stop_id": "5761", "stop_desc": "001779 WELLS BRANCH & WELLS PORT", "location_type": "", "zone_id": "", "stop_lat": "30.435736", "wheelchair_boarding": "0", "stop_code": "5761", "stop_lon": "-97.675020", "route_id": "243", "stop_name": "1779 Wells Branch/Wells Port"}, {"stop_timezone": "", "parent_station": "", "direction_id": "1", "stop_url": "https://www.capmetro.org/stopdetail/index.php?stop=4813", "stop_sequence": "9", "stop_id": "4813", "stop_desc": "002801 WELLS BRANCH & DOUBLE FILE", "location_type": "", "zone_id": "", "stop_lat": "30.441506", "wheelchair_boarding": "0", "stop_code": "4813", "stop_lon": "-97.689979", "route_id": "243", "stop_name": "2801 Wells Branch/Double File"}, {"stop_timezone": "", "parent_station": "", "direction_id": "1", "stop_url": "https://www.capmetro.org/stopdetail/index.php?stop=5765", "stop_sequence": "9", "stop_id": "5765", "stop_desc": "001425 WELLS BRANCH & FM 1825", "location_type": "", "zone_id": "", "stop_lat": "30.441022", "wheelchair_boarding": "0", "stop_code": "5765", "stop_lon": "-97.664663", "route_id": "243", "stop_name": "1425 Wells Branch/FM 1825"}]
