[{"stop_timezone": "", "parent_station": "", "direction_id": "0", "stop_url": "https://www.capmetro.org/stopdetail/index.php?stop=632", "stop_sequence": "1", "stop_id": "632", "stop_desc": "003810 OAK SPRINGS & SPRINGDALE", "location_type": "", "zone_id": "", "stop_lat": "30.273662", "wheelchair_boarding": "0", "stop_code": "632", "stop_lon": "-97.690850", "route_id": "2", "stop_name": "3810 Oak Springs/Springdale"}, {"stop_timezone": "", "parent_station": "", "direction_id": "0", "stop_url": "https://www.capmetro.org/stopdetail/index.php?stop=669", "stop_sequence": "1", "stop_id": "669", "stop_desc": "003800 OAK SPRINGS & SPRINGDALE", "location_type": "", "zone_id": "", "stop_lat": "30.273534", "wheelchair_boarding": "0", "stop_code": "669", "stop_lon": "-97.691296", "route_id": "2", "stop_name": "Oak Springs/Springdale"}, {"stop_timezone": "", "parent_station": "", "direction_id": "0", "stop_url": "https://www.capmetro.org/stopdetail/index.php?stop=3726", "stop_sequence": "10", "stop_id": "3726", "stop_desc": "005000 SARA & BERGER", "location_type": "", "zone_id": "", "stop_lat": "30.269099", "wheelchair_boarding": "0", "stop_code": "3726", "stop_lon": "-97.688482", "route_id": "2", "stop_name": "Sara/Berger"}, {"stop_timezone": "", "parent_station": "", "direction_id": "0", "stop_url": "https://www.capmetro.org/stopdetail/index.php?stop=3728", "stop_sequence": "10", "stop_id": "3728", "stop_desc": "002300 ROSEWOOD & CHESTNUT", "location_type": "", "zone_id": "", "stop_lat": "30.270419", "wheelchair_boarding": "0", "stop_code": "3728", "stop_lon": "-97.715000", "route_id": "2", "stop_name": "Rosewood/Chestnut"}, {"stop_timezone": "", "parent_station": "", "direction_id": "0", "stop_url": "https://www.capmetro.org/stopdetail/index.php?stop=638", "stop_sequence": "10", "stop_id": "638", "stop_desc": "002370 ROSEWOOD & HARGRAVE", "location_type": "", "zone_id": "", "stop_lat": "30.271236", "wheelchair_boarding": "0", "stop_code": "638", "stop_lon": "-97.710649", "route_id": "2", "stop_name": "2370 Rosewood/Hargrave"}, {"stop_timezone": "", "parent_station": "", "direction_id": "0", "stop_url": "https://www.capmetro.org/stopdetail/index.php?stop=3727", "stop_sequence": "11", "stop_id": "3727", "stop_desc": "004600 SARA & MAP", "location_type": "", "zone_id": "", "stop_lat": "30.271938", "wheelchair_boarding": "0", "stop_code": "3727", "stop_lon": "-97.691014", "route_id": "2", "stop_name": "4600 Sara/Map"}, {"stop_timezone": "", "parent_station": "", "direction_id": "0", "stop_url": "https://www.capmetro.org/stopdetail/index.php?stop=3728", "stop_sequence": "11", "stop_id": "3728", "stop_desc": "002300 ROSEWOOD & CHESTNUT", "location_type": "", "zone_id": "", "stop_lat": "30.270419", "wheelchair_boarding": "0", "stop_code": "3728", "stop_lon": "-97.715000", "route_id": "2", "stop_name": "Rosewood/Chestnut"}, {"stop_timezone": "", "parent_station": "", "direction_id": "0", "stop_url": "https://www.capmetro.org/stopdetail/index.php?stop=3729", "stop_sequence": "11", "stop_id": "3729", "stop_desc": "002100 ROSEWOOD & ALAMO", "location_type": "", "zone_id": "", "stop_lat": "30.270096", "wheelchair_boarding": "0", "stop_code": "3729", "stop_lon": "-97.717001", "route_id": "2", "stop_name": "Rosewood/Alamo"}, {"stop_timezone": "", "parent_station": "", "direction_id": "0", "stop_url": "https://www.capmetro.org/stopdetail/index.php?stop=3729", "stop_sequence": "12", "stop_id": "3729", "stop_desc": "002100 ROSEWOOD & ALAMO", "location_type": "", "zone_id": "", "stop_lat": "30.270096", "wheelchair_boarding": "0", "stop_code": "3729", "stop_lon": "-97.717001", "route_id": "2", "stop_name": "Rosewood/Alamo"}, {"stop_timezone": "", "parent_station": "", "direction_id": "0", "stop_url": "https://www.capmetro.org/stopdetail/index.php?stop=4172", "stop_sequence": "12", "stop_id": "4172", "stop_desc": "001800 ROSEWOOD & CHICON", "location_type": "", "zone_id": "", "stop_lat": "30.269698", "wheelchair_boarding": "0", "stop_code": "4172", "stop_lon": "-97.719604", "route_id": "2", "stop_name": "Rosewood/Chicon"}, {"stop_timezone": "", "parent_station": "", "direction_id": "0", "stop_url": "https://www.capmetro.org/stopdetail/index.php?stop=632", "stop_sequence": "12", "stop_id": "632", "stop_desc": "003810 OAK SPRINGS & SPRINGDALE", "location_type": "", "zone_id": "", "stop_lat": "30.273662", "wheelchair_boarding": "0", "stop_code": "632", "stop_lon": "-97.690850", "route_id": "2", "stop_name": "3810 Oak Springs/Springdale"}, {"stop_timezone": "", "parent_station": "", "direction_id": "0", "stop_url": "https://www.capmetro.org/stopdetail/index.php?stop=4170", "stop_sequence": "13", "stop_id": "4170", "stop_desc": "001600 ROSEWOOD & LEONA", "location_type": "", "zone_id": "", "stop_lat": "30.269427", "wheelchair_boarding": "0", "stop_code": "4170", "stop_lon": "-97.721250", "route_id": "2", "stop_name": "Rosewood/Leona"}, {"stop_timezone": "", "parent_station": "", "direction_id": "0", "stop_url": "https://www.capmetro.org/stopdetail/index.php?stop=4172", "stop_sequence": "13", "stop_id": "4172", "stop_desc": "001800 ROSEWOOD & CHICON", "location_type": "", "zone_id": "", "stop_lat": "30.269698", "wheelchair_boarding": "0", "stop_code": "4172", "stop_lon": "-97.719604", "route_id": "2", "stop_name": "Rosewood/Chicon"}, {"stop_timezone": "", "parent_station": "", "direction_id": "0", "stop_url": "https://www.capmetro.org/stopdetail/index.php?stop=633", "stop_sequence": "13", "stop_id": "633", "stop_desc": "003700 OAK SPRINGS & SPRINGDALE", "location_type": "", "zone_id": "", "stop_lat": "30.273773", "wheelchair_boarding": "0", "stop_code": "633", "stop_lon": "-97.692771", "route_id": "2", "stop_name": "3700 Oak Springs/Springdale"}, {"stop_timezone": "", "parent_station": "", "direction_id": "0", "stop_url": "https://www.capmetro.org/stopdetail/index.php?stop=3730", "stop_sequence": "14", "stop_id": "3730", "stop_desc": "001422 ROSEWOOD & ANGELINA", "location_type": "", "zone_id": "", "stop_lat": "30.268978", "wheelchair_boarding": "0", "stop_code": "3730", "stop_lon": "-97.724138", "route_id": "2", "stop_name": "1422 Rosewood/Angelina"}, {"stop_timezone": "", "parent_station": "", "direction_id": "0", "stop_url": "https://www.capmetro.org/stopdetail/index.php?stop=4170", "stop_sequence": "14", "stop_id": "4170", "stop_desc": "001600 ROSEWOOD & LEONA", "location_type": "", "zone_id": "", "stop_lat": "30.269427", "wheelchair_boarding": "0", "stop_code": "4170", "stop_lon": "-97.721250", "route_id": "2", "stop_name": "Rosewood/Leona"}, {"stop_timezone": "", "parent_station": "", "direction_id": "0", "stop_url": "https://www.capmetro.org/stopdetail/index.php?stop=5618", "stop_sequence": "14", "stop_id": "5618", "stop_desc": "003508 OAK SPRINGS & GUNTER", "location_type": "", "zone_id": "", "stop_lat": "30.273894", "wheelchair_boarding": "0", "stop_code": "5618", "stop_lon": "-97.695063", "route_id": "2", "stop_name": "3508 Oak Springs/Gunter"}, {"stop_timezone": "", "parent_station": "", "direction_id": "0", "stop_url": "https://www.capmetro.org/stopdetail/index.php?stop=3730", "stop_sequence": "15", "stop_id": "3730", "stop_desc": "001422 ROSEWOOD & ANGELINA", "location_type": "", "zone_id": "", "stop_lat": "30.268978", "wheelchair_boarding": "0", "stop_code": "3730", "stop_lon": "-97.724138", "route_id": "2", "stop_name": "1422 Rosewood/Angelina"}, {"stop_timezone": "", "parent_station": "", "direction_id": "0", "stop_url": "https://www.capmetro.org/stopdetail/index.php?stop=634", "stop_sequence": "15", "stop_id": "634", "stop_desc": "003200 OAK SPRINGS & AIRPORT", "location_type": "", "zone_id": "", "stop_lat": "30.273610", "wheelchair_boarding": "0", "stop_code": "634", "stop_lon": "-97.698350", "route_id": "2", "stop_name": "3200 Oak Springs/Airport"}, {"stop_timezone": "", "parent_station": "", "direction_id": "0", "stop_url": "https://www.capmetro.org/stopdetail/index.php?stop=642", "stop_sequence": "15", "stop_id": "642", "stop_desc": "001300 ROSEWOOD & SAN BERNARD", "location_type": "", "zone_id": "", "stop_lat": "30.268756", "wheelchair_boarding": "0", "stop_code": "642", "stop_lon": "-97.725507", "route_id": "2", "stop_name": "Rosewood/San Bernard"}, {"stop_timezone": "", "parent_station": "", "direction_id": "0", "stop_url": "https://www.capmetro.org/stopdetail/index.php?stop=3731", "stop_sequence": "16", "stop_id": "3731", "stop_desc": "001200 11TH & LYDIA", "location_type": "", "zone_id": "", "stop_lat": "30.268704", "wheelchair_boarding": "0", "stop_code": "3731", "stop_lon": "-97.727634", "route_id": "2", "stop_name": "1200 11th/Lydia"}, {"stop_timezone": "", "parent_station": "", "direction_id": "0", "stop_url": "https://www.capmetro.org/stopdetail/index.php?stop=5464", "stop_sequence": "16", "stop_id": "5464", "stop_desc": "002810 OAK SPRINGS & WEBBERVILLE", "location_type": "", "zone_id": "", "stop_lat": "30.272939", "wheelchair_boarding": "0", "stop_code": "5464", "stop_lon": "-97.702250", "route_id": "2", "stop_name": "2810 Oak Springs/Webberville"}, {"stop_timezone": "", "parent_station": "", "direction_id": "0", "stop_url": "https://www.capmetro.org/stopdetail/index.php?stop=642", "stop_sequence": "16", "stop_id": "642", "stop_desc": "001300 ROSEWOOD & SAN BERNARD", "location_type": "", "zone_id": "", "stop_lat": "30.268756", "wheelchair_boarding": "0", "stop_code": "642", "stop_lon": "-97.725507", "route_id": "2", "stop_name": "Rosewood/San Bernard"}, {"stop_timezone": "", "parent_station": "", "direction_id": "0", "stop_url": "https://www.capmetro.org/stopdetail/index.php?stop=3731", "stop_sequence": "17", "stop_id": "3731", "stop_desc": "001200 11TH & LYDIA", "location_type": "", "zone_id": "", "stop_lat": "30.268704", "wheelchair_boarding": "0", "stop_code": "3731", "stop_lon": "-97.727634", "route_id": "2", "stop_name": "1200 11th/Lydia"}, {"stop_timezone": "", "parent_station": "", "direction_id": "0", "stop_url": "https://www.capmetro.org/stopdetail/index.php?stop=5496", "stop_sequence": "17", "stop_id": "5496", "stop_desc": "000904 11TH & BRANCH", "location_type": "", "zone_id": "", "stop_lat": "30.269995", "wheelchair_boarding": "0", "stop_code": "5496", "stop_lon": "-97.731193", "route_id": "2", "stop_name": "904 11th/Branch"}, {"stop_timezone": "", "parent_station": "", "direction_id": "0", "stop_url": "https://www.capmetro.org/stopdetail/index.php?stop=635", "stop_sequence": "17", "stop_id": "635", "stop_desc": "002700 OAK SPRINGS & RIDGEWAY", "location_type": "", "zone_id": "", "stop_lat": "30.272556", "wheelchair_boarding": "0", "stop_code": "635", "stop_lon": "-97.704568", "route_id": "2", "stop_name": "Oak Springs/Ridgeway"}, {"stop_timezone": "", "parent_station": "", "direction_id": "0", "stop_url": "https://www.capmetro.org/stopdetail/index.php?stop=5496", "stop_sequence": "18", "stop_id": "5496", "stop_desc": "000904 11TH & BRANCH", "location_type": "", "zone_id": "", "stop_lat": "30.269995", "wheelchair_boarding": "0", "stop_code": "5496", "stop_lon": "-97.731193", "route_id": "2", "stop_name": "904 11th/Branch"}, {"stop_timezone": "", "parent_station": "", "direction_id": "0", "stop_url": "https://www.capmetro.org/stopdetail/index.php?stop=636", "stop_sequence": "18", "stop_id": "636", "stop_desc": "002600 ROSEWOOD & RIDGEWAY", "location_type": "", "zone_id": "", "stop_lat": "30.272509", "wheelchair_boarding": "0", "stop_code": "636", "stop_lon": "-97.706241", "route_id": "2", "stop_name": "2600 Rosewood/Ridgeway"}, {"stop_timezone": "", "parent_station": "", "direction_id": "0", "stop_url": "https://www.capmetro.org/stopdetail/index.php?stop=645", "stop_sequence": "18", "stop_id": "645", "stop_desc": "000700 11TH & SABINE", "location_type": "", "zone_id": "", "stop_lat": "30.270893", "wheelchair_boarding": "0", "stop_code": "645", "stop_lon": "-97.734212", "route_id": "2", "stop_name": "E. 11th/Sabine"}, {"stop_timezone": "", "parent_station": "", "direction_id": "0", "stop_url": "https://www.capmetro.org/stopdetail/index.php?stop=5804", "stop_sequence": "19", "stop_id": "5804", "stop_desc": "000219 11TH & SAN JACINTO", "location_type": "", "zone_id": "", "stop_lat": "30.272292", "wheelchair_boarding": "0", "stop_code": "5804", "stop_lon": "-97.739054", "route_id": "2", "stop_name": "219 11th/San Jacinto"}, {"stop_timezone": "", "parent_station": "", "direction_id": "0", "stop_url": "https://www.capmetro.org/stopdetail/index.php?stop=637", "stop_sequence": "19", "stop_id": "637", "stop_desc": "002420 ROSEWOOD & BEDFORD", "location_type": "", "zone_id": "", "stop_lat": "30.272319", "wheelchair_boarding": "0", "stop_code": "637", "stop_lon": "-97.708296", "route_id": "2", "stop_name": "2420 Rosewood/Bedford"}, {"stop_timezone": "", "parent_station": "", "direction_id": "0", "stop_url": "https://www.capmetro.org/stopdetail/index.php?stop=645", "stop_sequence": "19", "stop_id": "645", "stop_desc": "000700 11TH & SABINE", "location_type": "", "zone_id": "", "stop_lat": "30.270893", "wheelchair_boarding": "0", "stop_code": "645", "stop_lon": "-97.734212", "route_id": "2", "stop_name": "E. 11th/Sabine"}, {"stop_timezone": "", "parent_station": "", "direction_id": "0", "stop_url": "https://www.capmetro.org/stopdetail/index.php?stop=1338", "stop_sequence": "2", "stop_id": "1338", "stop_desc": "001050 SPRINGDALE & PROCK", "location_type": "", "zone_id": "", "stop_lat": "30.270901", "wheelchair_boarding": "0", "stop_code": "1338", "stop_lon": "-97.692225", "route_id": "2", "stop_name": "1050 Springdale/Prock"}, {"stop_timezone": "", "parent_station": "", "direction_id": "0", "stop_url": "https://www.capmetro.org/stopdetail/index.php?stop=633", "stop_sequence": "2", "stop_id": "633", "stop_desc": "003700 OAK SPRINGS & SPRINGDALE", "location_type": "", "zone_id": "", "stop_lat": "30.273773", "wheelchair_boarding": "0", "stop_code": "633", "stop_lon": "-97.692771", "route_id": "2", "stop_name": "3700 Oak Springs/Springdale"}, {"stop_timezone": "", "parent_station": "", "direction_id": "0", "stop_url": "https://www.capmetro.org/stopdetail/index.php?stop=670", "stop_sequence": "2", "stop_id": "670", "stop_desc": "004606 LEDESMA & SPRINGDALE", "location_type": "", "zone_id": "", "stop_lat": "30.273803", "wheelchair_boarding": "0", "stop_code": "670", "stop_lon": "-97.689827", "route_id": "2", "stop_name": "Ledesma/Springdale"}, {"stop_timezone": "", "parent_station": "", "direction_id": "0", "stop_url": "https://www.capmetro.org/stopdetail/index.php?stop=5937", "stop_sequence": "20", "stop_id": "5937", "stop_desc": "000104 8TH & CONGRESS", "location_type": "", "zone_id": "", "stop_lat": "30.269914", "wheelchair_boarding": "0", "stop_code": "5937", "stop_lon": "-97.741869", "route_id": "2", "stop_name": "104 8th/Congress"}, {"stop_timezone": "", "parent_station": "", "direction_id": "0", "stop_url": "https://www.capmetro.org/stopdetail/index.php?stop=638", "stop_sequence": "20", "stop_id": "638", "stop_desc": "002370 ROSEWOOD & HARGRAVE", "location_type": "", "zone_id": "", "stop_lat": "30.271236", "wheelchair_boarding": "0", "stop_code": "638", "stop_lon": "-97.710649", "route_id": "2", "stop_name": "2370 Rosewood/Hargrave"}, {"stop_timezone": "", "parent_station": "", "direction_id": "0", "stop_url": "https://www.capmetro.org/stopdetail/index.php?stop=3728", "stop_sequence": "21", "stop_id": "3728", "stop_desc": "002300 ROSEWOOD & CHESTNUT", "location_type": "", "zone_id": "", "stop_lat": "30.270419", "wheelchair_boarding": "0", "stop_code": "3728", "stop_lon": "-97.715000", "route_id": "2", "stop_name": "Rosewood/Chestnut"}, {"stop_timezone": "", "parent_station": "", "direction_id": "0", "stop_url": "https://www.capmetro.org/stopdetail/index.php?stop=5938", "stop_sequence": "21", "stop_id": "5938", "stop_desc": "000216 8TH & LAVACA", "location_type": "", "zone_id": "", "stop_lat": "30.270613", "wheelchair_boarding": "0", "stop_code": "5938", "stop_lon": "-97.744215", "route_id": "2", "stop_name": "216 8th/Lavaca"}, {"stop_timezone": "", "parent_station": "", "direction_id": "0", "stop_url": "https://www.capmetro.org/stopdetail/index.php?stop=2613", "stop_sequence": "22", "stop_id": "2613", "stop_desc": "000400 GUADALUPE & 4TH", "location_type": "", "zone_id": "", "stop_lat": "30.267331", "wheelchair_boarding": "0", "stop_code": "2613", "stop_lon": "-97.747037", "route_id": "2", "stop_name": "Guadalupe/4th"}, {"stop_timezone": "", "parent_station": "", "direction_id": "0", "stop_url": "https://www.capmetro.org/stopdetail/index.php?stop=3729", "stop_sequence": "22", "stop_id": "3729", "stop_desc": "002100 ROSEWOOD & ALAMO", "location_type": "", "zone_id": "", "stop_lat": "30.270096", "wheelchair_boarding": "0", "stop_code": "3729", "stop_lon": "-97.717001", "route_id": "2", "stop_name": "Rosewood/Alamo"}, {"stop_timezone": "", "parent_station": "", "direction_id": "0", "stop_url": "https://www.capmetro.org/stopdetail/index.php?stop=4172", "stop_sequence": "23", "stop_id": "4172", "stop_desc": "001800 ROSEWOOD & CHICON", "location_type": "", "zone_id": "", "stop_lat": "30.269698", "wheelchair_boarding": "0", "stop_code": "4172", "stop_lon": "-97.719604", "route_id": "2", "stop_name": "Rosewood/Chicon"}, {"stop_timezone": "", "parent_station": "", "direction_id": "0", "stop_url": "https://www.capmetro.org/stopdetail/index.php?stop=6345", "stop_sequence": "23", "stop_id": "6345", "stop_desc": "000309 San Antonio & 4Th", "location_type": "", "zone_id": "", "stop_lat": "30.267071", "wheelchair_boarding": "0", "stop_code": "6345", "stop_lon": "-97.748099", "route_id": "2", "stop_name": "309 San Antonio/4th"}, {"stop_timezone": "", "parent_station": "", "direction_id": "0", "stop_url": "https://www.capmetro.org/stopdetail/index.php?stop=4170", "stop_sequence": "24", "stop_id": "4170", "stop_desc": "001600 ROSEWOOD & LEONA", "location_type": "", "zone_id": "", "stop_lat": "30.269427", "wheelchair_boarding": "0", "stop_code": "4170", "stop_lon": "-97.721250", "route_id": "2", "stop_name": "Rosewood/Leona"}, {"stop_timezone": "", "parent_station": "", "direction_id": "0", "stop_url": "https://www.capmetro.org/stopdetail/index.php?stop=3730", "stop_sequence": "25", "stop_id": "3730", "stop_desc": "001422 ROSEWOOD & ANGELINA", "location_type": "", "zone_id": "", "stop_lat": "30.268978", "wheelchair_boarding": "0", "stop_code": "3730", "stop_lon": "-97.724138", "route_id": "2", "stop_name": "1422 Rosewood/Angelina"}, {"stop_timezone": "", "parent_station": "", "direction_id": "0", "stop_url": "https://www.capmetro.org/stopdetail/index.php?stop=642", "stop_sequence": "26", "stop_id": "642", "stop_desc": "001300 ROSEWOOD & SAN BERNARD", "location_type": "", "zone_id": "", "stop_lat": "30.268756", "wheelchair_boarding": "0", "stop_code": "642", "stop_lon": "-97.725507", "route_id": "2", "stop_name": "Rosewood/San Bernard"}, {"stop_timezone": "", "parent_station": "", "direction_id": "0", "stop_url": "https://www.capmetro.org/stopdetail/index.php?stop=3731", "stop_sequence": "27", "stop_id": "3731", "stop_desc": "001200 11TH & LYDIA", "location_type": "", "zone_id": "", "stop_lat": "30.268704", "wheelchair_boarding": "0", "stop_code": "3731", "stop_lon": "-97.727634", "route_id": "2", "stop_name": "1200 11th/Lydia"}, {"stop_timezone": "", "parent_station": "", "direction_id": "0", "stop_url": "https://www.capmetro.org/stopdetail/index.php?stop=5496", "stop_sequence": "28", "stop_id": "5496", "stop_desc": "000904 11TH & BRANCH", "location_type": "", "zone_id": "", "stop_lat": "30.269995", "wheelchair_boarding": "0", "stop_code": "5496", "stop_lon": "-97.731193", "route_id": "2", "stop_name": "904 11th/Branch"}, {"stop_timezone": "", "parent_station": "", "direction_id": "0", "stop_url": "https://www.capmetro.org/stopdetail/index.php?stop=645", "stop_sequence": "29", "stop_id": "645", "stop_desc": "000700 11TH & SABINE", "location_type": "", "zone_id": "", "stop_lat": "30.270893", "wheelchair_boarding": "0", "stop_code": "645", "stop_lon": "-97.734212", "route_id": "2", "stop_name": "E. 11th/Sabine"}, {"stop_timezone": "", "parent_station": "", "direction_id": "0", "stop_url": "https://www.capmetro.org/stopdetail/index.php?stop=1339", "stop_sequence": "3", "stop_id": "1339", "stop_desc": "001018 SPRINGDALE & GOODWIN", "location_type": "", "zone_id": "", "stop_lat": "30.267579", "wheelchair_boarding": "0", "stop_code": "1339", "stop_lon": "-97.694349", "route_id": "2", "stop_name": "1018 Springdale/Goodwin"}, {"stop_timezone": "", "parent_station": "", "direction_id": "0", "stop_url": "https://www.capmetro.org/stopdetail/index.php?stop=5618", "stop_sequence": "3", "stop_id": "5618", "stop_desc": "003508 OAK SPRINGS & GUNTER", "location_type": "", "zone_id": "", "stop_lat": "30.273894", "wheelchair_boarding": "0", "stop_code": "5618", "stop_lon": "-97.695063", "route_id": "2", "stop_name": "3508 Oak Springs/Gunter"}, {"stop_timezone": "", "parent_station": "", "direction_id": "0", "stop_url": "https://www.capmetro.org/stopdetail/index.php?stop=671", "stop_sequence": "3", "stop_id": "671", "stop_desc": "004903 LEDESMA & MENDOZA", "location_type": "", "zone_id": "", "stop_lat": "30.272699", "wheelchair_boarding": "0", "stop_code": "671", "stop_lon": "-97.687491", "route_id": "2", "stop_name": "4903 Ledesma/Mendoza"}, {"stop_timezone": "", "parent_station": "", "direction_id": "0", "stop_url": "https://www.capmetro.org/stopdetail/index.php?stop=5804", "stop_sequence": "30", "stop_id": "5804", "stop_desc": "000219 11TH & SAN JACINTO", "location_type": "", "zone_id": "", "stop_lat": "30.272292", "wheelchair_boarding": "0", "stop_code": "5804", "stop_lon": "-97.739054", "route_id": "2", "stop_name": "219 11th/San Jacinto"}, {"stop_timezone": "", "parent_station": "", "direction_id": "0", "stop_url": "https://www.capmetro.org/stopdetail/index.php?stop=3261", "stop_sequence": "4", "stop_id": "3261", "stop_desc": "001135 AIRPORT & GOODWIN", "location_type": "", "zone_id": "", "stop_lat": "30.268480", "wheelchair_boarding": "0", "stop_code": "3261", "stop_lon": "-97.696260", "route_id": "2", "stop_name": "1135 Airport/Goodwin"}, {"stop_timezone": "", "parent_station": "", "direction_id": "0", "stop_url": "https://www.capmetro.org/stopdetail/index.php?stop=634", "stop_sequence": "4", "stop_id": "634", "stop_desc": "003200 OAK SPRINGS & AIRPORT", "location_type": "", "zone_id": "", "stop_lat": "30.273610", "wheelchair_boarding": "0", "stop_code": "634", "stop_lon": "-97.698350", "route_id": "2", "stop_name": "3200 Oak Springs/Airport"}, {"stop_timezone": "", "parent_station": "", "direction_id": "0", "stop_url": "https://www.capmetro.org/stopdetail/index.php?stop=672", "stop_sequence": "4", "stop_id": "672", "stop_desc": "005100 LEDESMA & RICHARDINE", "location_type": "", "zone_id": "", "stop_lat": "30.271907", "wheelchair_boarding": "0", "stop_code": "672", "stop_lon": "-97.685679", "route_id": "2", "stop_name": "Ledesma/Richardine"}, {"stop_timezone": "", "parent_station": "", "direction_id": "0", "stop_url": "https://www.capmetro.org/stopdetail/index.php?stop=5464", "stop_sequence": "5", "stop_id": "5464", "stop_desc": "002810 OAK SPRINGS & WEBBERVILLE", "location_type": "", "zone_id": "", "stop_lat": "30.272939", "wheelchair_boarding": "0", "stop_code": "5464", "stop_lon": "-97.702250", "route_id": "2", "stop_name": "2810 Oak Springs/Webberville"}, {"stop_timezone": "", "parent_station": "", "direction_id": "0", "stop_url": "https://www.capmetro.org/stopdetail/index.php?stop=634", "stop_sequence": "5", "stop_id": "634", "stop_desc": "003200 OAK SPRINGS & AIRPORT", "location_type": "", "zone_id": "", "stop_lat": "30.273610", "wheelchair_boarding": "0", "stop_code": "634", "stop_lon": "-97.698350", "route_id": "2", "stop_name": "3200 Oak Springs/Airport"}, {"stop_timezone": "", "parent_station": "", "direction_id": "0", "stop_url": "https://www.capmetro.org/stopdetail/index.php?stop=673", "stop_sequence": "5", "stop_id": "673", "stop_desc": "005211 LEDESMA & CESSAL", "location_type": "", "zone_id": "", "stop_lat": "30.271221", "wheelchair_boarding": "0", "stop_code": "673", "stop_lon": "-97.684066", "route_id": "2", "stop_name": "Ledesma/Cessal"}, {"stop_timezone": "", "parent_station": "", "direction_id": "0", "stop_url": "https://www.capmetro.org/stopdetail/index.php?stop=5463", "stop_sequence": "6", "stop_id": "5463", "stop_desc": "005309 LEDESMA & LOTT", "location_type": "", "zone_id": "", "stop_lat": "30.270358", "wheelchair_boarding": "0", "stop_code": "5463", "stop_lon": "-97.682095", "route_id": "2", "stop_name": "Ledesma/Lott"}, {"stop_timezone": "", "parent_station": "", "direction_id": "0", "stop_url": "https://www.capmetro.org/stopdetail/index.php?stop=5464", "stop_sequence": "6", "stop_id": "5464", "stop_desc": "002810 OAK SPRINGS & WEBBERVILLE", "location_type": "", "zone_id": "", "stop_lat": "30.272939", "wheelchair_boarding": "0", "stop_code": "5464", "stop_lon": "-97.702250", "route_id": "2", "stop_name": "2810 Oak Springs/Webberville"}, {"stop_timezone": "", "parent_station": "", "direction_id": "0", "stop_url": "https://www.capmetro.org/stopdetail/index.php?stop=635", "stop_sequence": "6", "stop_id": "635", "stop_desc": "002700 OAK SPRINGS & RIDGEWAY", "location_type": "", "zone_id": "", "stop_lat": "30.272556", "wheelchair_boarding": "0", "stop_code": "635", "stop_lon": "-97.704568", "route_id": "2", "stop_name": "Oak Springs/Ridgeway"}, {"stop_timezone": "", "parent_station": "", "direction_id": "0", "stop_url": "https://www.capmetro.org/stopdetail/index.php?stop=631", "stop_sequence": "7", "stop_id": "631", "stop_desc": "001020 LOTT & CHICO", "location_type": "", "zone_id": "", "stop_lat": "30.268820", "wheelchair_boarding": "0", "stop_code": "631", "stop_lon": "-97.683060", "route_id": "2", "stop_name": "Lott/Chico"}, {"stop_timezone": "", "parent_station": "", "direction_id": "0", "stop_url": "https://www.capmetro.org/stopdetail/index.php?stop=635", "stop_sequence": "7", "stop_id": "635", "stop_desc": "002700 OAK SPRINGS & RIDGEWAY", "location_type": "", "zone_id": "", "stop_lat": "30.272556", "wheelchair_boarding": "0", "stop_code": "635", "stop_lon": "-97.704568", "route_id": "2", "stop_name": "Oak Springs/Ridgeway"}, {"stop_timezone": "", "parent_station": "", "direction_id": "0", "stop_url": "https://www.capmetro.org/stopdetail/index.php?stop=636", "stop_sequence": "7", "stop_id": "636", "stop_desc": "002600 ROSEWOOD & RIDGEWAY", "location_type": "", "zone_id": "", "stop_lat": "30.272509", "wheelchair_boarding": "0", "stop_code": "636", "stop_lon": "-97.706241", "route_id": "2", "stop_name": "2600 Rosewood/Ridgeway"}, {"stop_timezone": "", "parent_station": "", "direction_id": "0", "stop_url": "https://www.capmetro.org/stopdetail/index.php?stop=3724", "stop_sequence": "8", "stop_id": "3724", "stop_desc": "001000 LOTT & PROCK", "location_type": "", "zone_id": "", "stop_lat": "30.267656", "wheelchair_boarding": "0", "stop_code": "3724", "stop_lon": "-97.683815", "route_id": "2", "stop_name": "Lott/Prock"}, {"stop_timezone": "", "parent_station": "", "direction_id": "0", "stop_url": "https://www.capmetro.org/stopdetail/index.php?stop=636", "stop_sequence": "8", "stop_id": "636", "stop_desc": "002600 ROSEWOOD & RIDGEWAY", "location_type": "", "zone_id": "", "stop_lat": "30.272509", "wheelchair_boarding": "0", "stop_code": "636", "stop_lon": "-97.706241", "route_id": "2", "stop_name": "2600 Rosewood/Ridgeway"}, {"stop_timezone": "", "parent_station": "", "direction_id": "0", "stop_url": "https://www.capmetro.org/stopdetail/index.php?stop=637", "stop_sequence": "8", "stop_id": "637", "stop_desc": "002420 ROSEWOOD & BEDFORD", "location_type": "", "zone_id": "", "stop_lat": "30.272319", "wheelchair_boarding": "0", "stop_code": "637", "stop_lon": "-97.708296", "route_id": "2", "stop_name": "2420 Rosewood/Bedford"}, {"stop_timezone": "", "parent_station": "", "direction_id": "0", "stop_url": "https://www.capmetro.org/stopdetail/index.php?stop=3725", "stop_sequence": "9", "stop_id": "3725", "stop_desc": "005200 PROCK & RICHARDINE", "location_type": "", "zone_id": "", "stop_lat": "30.267520", "wheelchair_boarding": "0", "stop_code": "3725", "stop_lon": "-97.685930", "route_id": "2", "stop_name": "Prock/Richardine"}, {"stop_timezone": "", "parent_station": "", "direction_id": "0", "stop_url": "https://www.capmetro.org/stopdetail/index.php?stop=637", "stop_sequence": "9", "stop_id": "637", "stop_desc": "002420 ROSEWOOD & BEDFORD", "location_type": "", "zone_id": "", "stop_lat": "30.272319", "wheelchair_boarding": "0", "stop_code": "637", "stop_lon": "-97.708296", "route_id": "2", "stop_name": "2420 Rosewood/Bedford"}, {"stop_timezone": "", "parent_station": "", "direction_id": "0", "stop_url": "https://www.capmetro.org/stopdetail/index.php?stop=638", "stop_sequence": "9", "stop_id": "638", "stop_desc": "002370 ROSEWOOD & HARGRAVE", "location_type": "", "zone_id": "", "stop_lat": "30.271236", "wheelchair_boarding": "0", "stop_code": "638", "stop_lon": "-97.710649", "route_id": "2", "stop_name": "2370 Rosewood/Hargrave"}]
