[{"stop_timezone": "", "parent_station": "", "direction_id": "0", "stop_url": "https://www.capmetro.org/stopdetail/index.php?stop=5039", "stop_sequence": "1", "stop_id": "5039", "stop_desc": "000400 23RD & TRINITY", "location_type": "", "zone_id": "", "stop_lat": "30.285100", "wheelchair_boarding": "0", "stop_code": "5039", "stop_lon": "-97.733074", "route_id": "670", "stop_name": "23rd/Trinity SW Corner"}, {"stop_timezone": "", "parent_station": "", "direction_id": "0", "stop_url": "https://www.capmetro.org/stopdetail/index.php?stop=4593", "stop_sequence": "2", "stop_id": "4593", "stop_desc": "000801 CLYDE LITTLEFIELD & RED RIVER", "location_type": "", "zone_id": "", "stop_lat": "30.283302", "wheelchair_boarding": "0", "stop_code": "4593", "stop_lon": "-97.728684", "route_id": "670", "stop_name": "801 Clyde Littlefield/Red River"}, {"stop_timezone": "", "parent_station": "", "direction_id": "0", "stop_url": "https://www.capmetro.org/stopdetail/index.php?stop=1710", "stop_sequence": "3", "stop_id": "1710", "stop_desc": "001800 RED RIVER & 18TH", "location_type": "", "zone_id": "", "stop_lat": "30.278197", "wheelchair_boarding": "0", "stop_code": "1710", "stop_lon": "-97.732943", "route_id": "670", "stop_name": "1800 Red River/18th"}, {"stop_timezone": "", "parent_station": "", "direction_id": "0", "stop_url": "https://www.capmetro.org/stopdetail/index.php?stop=5600", "stop_sequence": "4", "stop_id": "5600", "stop_desc": "000619 15TH & BRACKENRIDGE", "location_type": "", "zone_id": "", "stop_lat": "30.275055", "wheelchair_boarding": "0", "stop_code": "5600", "stop_lon": "-97.733247", "route_id": "670", "stop_name": "619 15th/Brackenridge"}, {"stop_timezone": "", "parent_station": "", "direction_id": "0", "stop_url": "https://www.capmetro.org/stopdetail/index.php?stop=4300", "stop_sequence": "5", "stop_id": "4300", "stop_desc": "001901 CROSSING PLACE & RIVERSIDE", "location_type": "", "zone_id": "", "stop_lat": "30.232153", "wheelchair_boarding": "0", "stop_code": "4300", "stop_lon": "-97.717055", "route_id": "670", "stop_name": "1901 Crossing Place/Riverside"}, {"stop_timezone": "", "parent_station": "", "direction_id": "0", "stop_url": "https://www.capmetro.org/stopdetail/index.php?stop=4301", "stop_sequence": "6", "stop_id": "4301", "stop_desc": "001501 CROSSING PLACE & FARO", "location_type": "", "zone_id": "", "stop_lat": "30.235016", "wheelchair_boarding": "0", "stop_code": "4301", "stop_lon": "-97.714646", "route_id": "670", "stop_name": "1501 Crossing Place/Faro"}, {"stop_timezone": "", "parent_station": "", "direction_id": "0", "stop_url": "https://www.capmetro.org/stopdetail/index.php?stop=3852", "stop_sequence": "7", "stop_id": "3852", "stop_desc": "001300 CROSSING PLACE & ELMONT", "location_type": "", "zone_id": "", "stop_lat": "30.237369", "wheelchair_boarding": "0", "stop_code": "3852", "stop_lon": "-97.713500", "route_id": "670", "stop_name": "Melrose Place Apt"}]
