[{"stop_lat": 30.360488, "stop_timezone": null, "wheelchair_boarding": 0, "stop_code": "2908", "direction_id": 0, "stop_lon": -97.735877, "parent_station": null, "route_id": "491", "stop_url": "http://www.capmetro.org/gismaps/stops/2908.html", "stop_sequence": 1, "stop_id": "2908", "stop_desc": "Southeast corner of ROCKWOOD and ASHDALE - Farside", "stop_name": "7925 ROCKWOOD/ASHDALE", "location_type": null, "platform_code": null, "zone_id": null}, {"stop_lat": 30.360677, "stop_timezone": null, "wheelchair_boarding": 0, "stop_code": "1902", "direction_id": 0, "stop_lon": -97.737737, "parent_station": null, "route_id": "491", "stop_url": "http://www.capmetro.org/gismaps/stops/1902.html", "stop_sequence": 2, "stop_id": "1902", "stop_desc": "Southwest corner of ROCKWOOD and ASHDALE - Mid-Block", "stop_name": "7920 ROCKWOOD/ASHDALE", "location_type": null, "platform_code": null, "zone_id": null}, {"stop_lat": 30.35361, "stop_timezone": null, "wheelchair_boarding": 0, "stop_code": "674", "direction_id": 0, "stop_lon": -97.73592, "parent_station": null, "route_id": "491", "stop_url": "http://www.capmetro.org/gismaps/stops/674.html", "stop_sequence": 3, "stop_id": "674", "stop_desc": "Southwest corner of NORTHCROSS and FOSTER - Mid-Block", "stop_name": "NORTHCROSS TRANSFER CENTER", "location_type": null, "platform_code": null, "zone_id": null}, {"stop_lat": 30.3344, "stop_timezone": null, "wheelchair_boarding": 0, "stop_code": "5160", "direction_id": 0, "stop_lon": -97.740705, "parent_station": null, "route_id": "491", "stop_url": "http://www.capmetro.org/gismaps/stops/5160.html", "stop_sequence": 4, "stop_id": "5160", "stop_desc": "Southwest corner of BURNET and ALLANDALE - Farside", "stop_name": "BURNET/ALLANDALE (HEB)", "location_type": null, "platform_code": null, "zone_id": null}, {"stop_lat": 30.3344, "stop_timezone": null, "wheelchair_boarding": 0, "stop_code": "5160", "direction_id": 0, "stop_lon": -97.740705, "parent_station": null, "route_id": "491", "stop_url": "http://www.capmetro.org/gismaps/stops/5160.html", "stop_sequence": 5, "stop_id": "5160", "stop_desc": "Southwest corner of BURNET and ALLANDALE - Farside", "stop_name": "BURNET/ALLANDALE (HEB)", "location_type": null, "platform_code": null, "zone_id": null}, {"stop_lat": 30.327517, "stop_timezone": null, "wheelchair_boarding": 0, "stop_code": "5964", "direction_id": 0, "stop_lon": -97.739833, "parent_station": null, "route_id": "491", "stop_url": "http://www.capmetro.org/gismaps/stops/5964.html", "stop_sequence": 5, "stop_id": "5964", "stop_desc": "Southwest corner of BURNET and LAWNMONT - Mid-Block", "stop_name": "5350 BURNET/LAWNMONT", "location_type": null, "platform_code": null, "zone_id": null}, {"stop_lat": 30.325594, "stop_timezone": null, "wheelchair_boarding": 1, "stop_code": "5006", "direction_id": 0, "stop_lon": -97.742036, "parent_station": null, "route_id": "491", "stop_url": "http://www.capmetro.org/gismaps/stops/5006.html", "stop_sequence": 6, "stop_id": "5006", "stop_desc": "Northwest corner of NORTH LOOP and BURNET - Mid-Block", "stop_name": "NORTH LOOP/BURNET", "location_type": null, "platform_code": null, "zone_id": null}, {"stop_lat": 30.327517, "stop_timezone": null, "wheelchair_boarding": 0, "stop_code": "5964", "direction_id": 0, "stop_lon": -97.739833, "parent_station": null, "route_id": "491", "stop_url": "http://www.capmetro.org/gismaps/stops/5964.html", "stop_sequence": 6, "stop_id": "5964", "stop_desc": "Southwest corner of BURNET and LAWNMONT - Mid-Block", "stop_name": "5350 BURNET/LAWNMONT", "location_type": null, "platform_code": null, "zone_id": null}, {"stop_lat": 30.318162, "stop_timezone": null, "wheelchair_boarding": 0, "stop_code": "1935", "direction_id": 0, "stop_lon": -97.755038, "parent_station": null, "route_id": "491", "stop_url": "http://www.capmetro.org/gismaps/stops/1935.html", "stop_sequence": 7, "stop_id": "1935", "stop_desc": "Southwest corner of BULL CREEK and 44TH - Mid-Block", "stop_name": "4318 BULL CREEK/44TH", "location_type": null, "platform_code": null, "zone_id": null}, {"stop_lat": 30.325594, "stop_timezone": null, "wheelchair_boarding": 1, "stop_code": "5006", "direction_id": 0, "stop_lon": -97.742036, "parent_station": null, "route_id": "491", "stop_url": "http://www.capmetro.org/gismaps/stops/5006.html", "stop_sequence": 7, "stop_id": "5006", "stop_desc": "Northwest corner of NORTH LOOP and BURNET - Mid-Block", "stop_name": "NORTH LOOP/BURNET", "location_type": null, "platform_code": null, "zone_id": null}, {"stop_lat": 30.318162, "stop_timezone": null, "wheelchair_boarding": 0, "stop_code": "1935", "direction_id": 0, "stop_lon": -97.755038, "parent_station": null, "route_id": "491", "stop_url": "http://www.capmetro.org/gismaps/stops/1935.html", "stop_sequence": 8, "stop_id": "1935", "stop_desc": "Southwest corner of BULL CREEK and 44TH - Mid-Block", "stop_name": "4318 BULL CREEK/44TH", "location_type": null, "platform_code": null, "zone_id": null}, {"stop_lat": 30.316658, "stop_timezone": null, "wheelchair_boarding": 1, "stop_code": "1936", "direction_id": 0, "stop_lon": -97.754834, "parent_station": null, "route_id": "491", "stop_url": "http://www.capmetro.org/gismaps/stops/1936.html", "stop_sequence": 8, "stop_id": "1936", "stop_desc": "Northwest corner of BULL CREEK and JACKSON - Nearside", "stop_name": "4220 BULL CREEK/JACKSON", "location_type": null, "platform_code": null, "zone_id": null}, {"stop_lat": 30.316658, "stop_timezone": null, "wheelchair_boarding": 1, "stop_code": "1936", "direction_id": 0, "stop_lon": -97.754834, "parent_station": null, "route_id": "491", "stop_url": "http://www.capmetro.org/gismaps/stops/1936.html", "stop_sequence": 9, "stop_id": "1936", "stop_desc": "Northwest corner of BULL CREEK and JACKSON - Nearside", "stop_name": "4220 BULL CREEK/JACKSON", "location_type": null, "platform_code": null, "zone_id": null}, {"stop_lat": 30.311138, "stop_timezone": null, "wheelchair_boarding": 0, "stop_code": "1938", "direction_id": 0, "stop_lon": -97.752058, "parent_station": null, "route_id": "491", "stop_url": "http://www.capmetro.org/gismaps/stops/1938.html", "stop_sequence": 9, "stop_id": "1938", "stop_desc": "Northwest corner of BULL CREEK and 38TH - Nearside", "stop_name": "BULL CREEK/38TH", "location_type": null, "platform_code": null, "zone_id": null}, {"stop_lat": 30.311138, "stop_timezone": null, "wheelchair_boarding": 0, "stop_code": "1938", "direction_id": 0, "stop_lon": -97.752058, "parent_station": null, "route_id": "491", "stop_url": "http://www.capmetro.org/gismaps/stops/1938.html", "stop_sequence": 10, "stop_id": "1938", "stop_desc": "Northwest corner of BULL CREEK and 38TH - Nearside", "stop_name": "BULL CREEK/38TH", "location_type": null, "platform_code": null, "zone_id": null}, {"stop_lat": 30.30713, "stop_timezone": null, "wheelchair_boarding": 0, "stop_code": "1997", "direction_id": 0, "stop_lon": -97.74927, "parent_station": null, "route_id": "491", "stop_url": "http://www.capmetro.org/gismaps/stops/1997.html", "stop_sequence": 10, "stop_id": "1997", "stop_desc": "Southeast corner of 35TH and CRAWFORD - Farside", "stop_name": "35TH/CRAWFORD", "location_type": null, "platform_code": null, "zone_id": null}, {"stop_lat": 30.30713, "stop_timezone": null, "wheelchair_boarding": 0, "stop_code": "1997", "direction_id": 0, "stop_lon": -97.74927, "parent_station": null, "route_id": "491", "stop_url": "http://www.capmetro.org/gismaps/stops/1997.html", "stop_sequence": 11, "stop_id": "1997", "stop_desc": "Southeast corner of 35TH and CRAWFORD - Farside", "stop_name": "35TH/CRAWFORD", "location_type": null, "platform_code": null, "zone_id": null}, {"stop_lat": 30.305323, "stop_timezone": null, "wheelchair_boarding": 0, "stop_code": "1999", "direction_id": 0, "stop_lon": -97.74376, "parent_station": null, "route_id": "491", "stop_url": "http://www.capmetro.org/gismaps/stops/1999.html", "stop_sequence": 11, "stop_id": "1999", "stop_desc": "Southeast corner of 38TH and MEDICAL - Mid-Block", "stop_name": "38TH/MEDICAL PARKWAY", "location_type": null, "platform_code": null, "zone_id": null}, {"stop_lat": 30.305323, "stop_timezone": null, "wheelchair_boarding": 0, "stop_code": "1999", "direction_id": 0, "stop_lon": -97.74376, "parent_station": null, "route_id": "491", "stop_url": "http://www.capmetro.org/gismaps/stops/1999.html", "stop_sequence": 12, "stop_id": "1999", "stop_desc": "Southeast corner of 38TH and MEDICAL - Mid-Block", "stop_name": "38TH/MEDICAL PARKWAY", "location_type": null, "platform_code": null, "zone_id": null}]
