[{"stop_lat": 30.418199, "stop_timezone": null, "wheelchair_boarding": 0, "stop_code": "5304", "direction_id": 1, "stop_lon": -97.668243, "parent_station": null, "route_id": "801", "stop_url": null, "stop_sequence": 1, "stop_id": "5304", "stop_desc": "00900I CENTER RIDGE & CENTER LINE", "stop_name": "TECH RIDGE BAY I", "location_type": null, "platform_code": null, "zone_id": null}, {"stop_lat": 30.380367, "stop_timezone": null, "wheelchair_boarding": 0, "stop_code": "5857", "direction_id": 1, "stop_lon": -97.687401, "parent_station": null, "route_id": "801", "stop_url": null, "stop_sequence": 2, "stop_id": "5857", "stop_desc": "011104 LAMAR & KRAMER", "stop_name": "CHINATOWN STATION (SB)", "location_type": null, "platform_code": null, "zone_id": null}, {"stop_lat": 30.370933, "stop_timezone": null, "wheelchair_boarding": 0, "stop_code": "5858", "direction_id": 1, "stop_lon": -97.692733, "parent_station": null, "route_id": "801", "stop_url": null, "stop_sequence": 3, "stop_id": "5858", "stop_desc": "010104 LAMAR & MASTERSON", "stop_name": "MASTERSON STATION (SB)", "location_type": null, "platform_code": null, "zone_id": null}, {"stop_lat": 30.363669, "stop_timezone": null, "wheelchair_boarding": 0, "stop_code": "4540", "direction_id": 1, "stop_lon": -97.69684, "parent_station": null, "route_id": "801", "stop_url": null, "stop_sequence": 4, "stop_id": "4540", "stop_desc": "009414 LAMAR & RUNDBERG", "stop_name": "RUNDBERG STATION (SB)", "location_type": null, "platform_code": null, "zone_id": null}, {"stop_lat": 30.349326, "stop_timezone": null, "wheelchair_boarding": 0, "stop_code": "5859", "direction_id": 1, "stop_lon": -97.711685, "parent_station": null, "route_id": "801", "stop_url": null, "stop_sequence": 5, "stop_id": "5859", "stop_desc": "008020 LAMAR & RESEARCH", "stop_name": "NORTH LAMAR STATION", "location_type": null, "platform_code": null, "zone_id": null}, {"stop_lat": 30.337841, "stop_timezone": null, "wheelchair_boarding": 0, "stop_code": "5606", "direction_id": 1, "stop_lon": -97.719048, "parent_station": null, "route_id": "801", "stop_url": null, "stop_sequence": 6, "stop_id": "5606", "stop_desc": "007000 LAMAR & AIRPORT", "stop_name": "CRESTVIEW STATION (SB)", "location_type": null, "platform_code": null, "zone_id": null}, {"stop_lat": 30.326842, "stop_timezone": null, "wheelchair_boarding": 0, "stop_code": "5861", "direction_id": 1, "stop_lon": -97.725899, "parent_station": null, "route_id": "801", "stop_url": null, "stop_sequence": 7, "stop_id": "5861", "stop_desc": "005806 LAMAR & KOENIG", "stop_name": "BRENTWOOD STATION (SB)", "location_type": null, "platform_code": null, "zone_id": null}, {"stop_lat": 30.314631, "stop_timezone": null, "wheelchair_boarding": 0, "stop_code": "484", "direction_id": 1, "stop_lon": -97.732524, "parent_station": null, "route_id": "801", "stop_url": null, "stop_sequence": 8, "stop_id": "484", "stop_desc": "004600 GUADALUPE & LAMAR", "stop_name": "TRIANGLE STATION (SB)", "location_type": null, "platform_code": null, "zone_id": null}, {"stop_lat": 30.303574, "stop_timezone": null, "wheelchair_boarding": 0, "stop_code": "5405", "direction_id": 1, "stop_lon": -97.737748, "parent_station": null, "route_id": "801", "stop_url": null, "stop_sequence": 9, "stop_id": "5405", "stop_desc": "003820 GUADALUPE & 38TH HALF", "stop_name": "HYDE PARK STATION (SB)", "location_type": null, "platform_code": null, "zone_id": null}, {"stop_lat": 30.291145, "stop_timezone": null, "wheelchair_boarding": 0, "stop_code": "5863", "direction_id": 1, "stop_lon": -97.741349, "parent_station": null, "route_id": "801", "stop_url": null, "stop_sequence": 10, "stop_id": "5863", "stop_desc": "002614 GUADALUPE & 26TH", "stop_name": "UT DEAN KEETON STATION (SB)", "location_type": null, "platform_code": null, "zone_id": null}, {"stop_lat": 30.286064, "stop_timezone": null, "wheelchair_boarding": 0, "stop_code": "497", "direction_id": 1, "stop_lon": -97.741815, "parent_station": null, "route_id": "801", "stop_url": null, "stop_sequence": 11, "stop_id": "497", "stop_desc": "002246 GUADALUPE & 23RD", "stop_name": "UT WEST MALL STATION (SB)", "location_type": null, "platform_code": null, "zone_id": null}, {"stop_lat": 30.279366, "stop_timezone": null, "wheelchair_boarding": 0, "stop_code": "5866", "direction_id": 1, "stop_lon": -97.742545, "parent_station": null, "route_id": "801", "stop_url": null, "stop_sequence": 12, "stop_id": "5866", "stop_desc": "001616 GUADALUPE & 17TH", "stop_name": "MUSEUM STATION (SB)", "location_type": null, "platform_code": null, "zone_id": null}, {"stop_lat": 30.275022, "stop_timezone": null, "wheelchair_boarding": 0, "stop_code": "2738", "direction_id": 1, "stop_lon": -97.744169, "parent_station": null, "route_id": "801", "stop_url": null, "stop_sequence": 13, "stop_id": "2738", "stop_desc": "001200 GUADALUPE & 12TH", "stop_name": "CAPITOL STATION (SB)", "location_type": null, "platform_code": null, "zone_id": null}, {"stop_lat": 30.271057, "stop_timezone": null, "wheelchair_boarding": 0, "stop_code": "2611", "direction_id": 1, "stop_lon": -97.745655, "parent_station": null, "route_id": "801", "stop_url": null, "stop_sequence": 14, "stop_id": "2611", "stop_desc": "000800 GUADALUPE & 8TH", "stop_name": "AUSTIN HISTORY CENTER STATION (SB)", "location_type": null, "platform_code": null, "zone_id": null}, {"stop_lat": 30.267751, "stop_timezone": null, "wheelchair_boarding": 0, "stop_code": "5867", "direction_id": 1, "stop_lon": -97.746857, "parent_station": null, "route_id": "801", "stop_url": null, "stop_sequence": 15, "stop_id": "5867", "stop_desc": "000422 GUADALUPE & 4TH", "stop_name": "REPUBLIC SQUARE STATION (SB)", "location_type": null, "platform_code": null, "zone_id": null}, {"stop_lat": 30.258767, "stop_timezone": null, "wheelchair_boarding": 0, "stop_code": "2763", "direction_id": 1, "stop_lon": -97.7487, "parent_station": null, "route_id": "801", "stop_url": null, "stop_sequence": 16, "stop_id": "2763", "stop_desc": "000425 RIVERSIDE & BARTON SPRINGS", "stop_name": "AUDITORIUM SHORES STATION (SB)", "location_type": null, "platform_code": null, "zone_id": null}, {"stop_lat": 30.248134, "stop_timezone": null, "wheelchair_boarding": 0, "stop_code": "4029", "direction_id": 1, "stop_lon": -97.750367, "parent_station": null, "route_id": "801", "stop_url": null, "stop_sequence": 17, "stop_id": "4029", "stop_desc": "001522 CONGRESS & MONROE", "stop_name": "SOCO STATION (SB)", "location_type": null, "platform_code": null, "zone_id": null}, {"stop_lat": 30.238013, "stop_timezone": null, "wheelchair_boarding": 0, "stop_code": "4046", "direction_id": 1, "stop_lon": -97.754383, "parent_station": null, "route_id": "801", "stop_url": null, "stop_sequence": 18, "stop_id": "4046", "stop_desc": "002412 CONGRESS & OLTORF", "stop_name": "OLTORF STATION (SB)", "location_type": null, "platform_code": null, "zone_id": null}, {"stop_lat": 30.228933, "stop_timezone": null, "wheelchair_boarding": 0, "stop_code": "5870", "direction_id": 1, "stop_lon": -97.760817, "parent_station": null, "route_id": "801", "stop_url": null, "stop_sequence": 19, "stop_id": "5870", "stop_desc": "003500 CONGRESS & LIGHTSEY", "stop_name": "ST EDWARDS STATION (SB)", "location_type": null, "platform_code": null, "zone_id": null}, {"stop_lat": 30.222718, "stop_timezone": null, "wheelchair_boarding": 0, "stop_code": "5553", "direction_id": 1, "stop_lon": -97.766459, "parent_station": null, "route_id": "801", "stop_url": null, "stop_sequence": 20, "stop_id": "5553", "stop_desc": "000301 BEN WHITE & CONGRESS", "stop_name": "SOUTH CONGRESS STATION BAY K", "location_type": null, "platform_code": null, "zone_id": null}, {"stop_lat": 30.203384, "stop_timezone": null, "wheelchair_boarding": 0, "stop_code": "5871", "direction_id": 1, "stop_lon": -97.775434, "parent_station": null, "route_id": "801", "stop_url": null, "stop_sequence": 21, "stop_id": "5871", "stop_desc": "005708 CONGRESS & AINSWORTH", "stop_name": "LITTLE TEXAS STATION (SB)", "location_type": null, "platform_code": null, "zone_id": null}, {"stop_lat": 30.194216, "stop_timezone": null, "wheelchair_boarding": 0, "stop_code": "4381", "direction_id": 1, "stop_lon": -97.778453, "parent_station": null, "route_id": "801", "stop_url": null, "stop_sequence": 22, "stop_id": "4381", "stop_desc": "006610 CONGRESS & EBERHART", "stop_name": "6610 CONGRESS/EBERHART", "location_type": null, "platform_code": null, "zone_id": null}, {"stop_lat": 30.162883, "stop_timezone": null, "wheelchair_boarding": 0, "stop_code": "5873", "direction_id": 1, "stop_lon": -97.790317, "parent_station": null, "route_id": "801", "stop_url": null, "stop_sequence": 23, "stop_id": "5873", "stop_desc": "000212 TURK & CULLEN", "stop_name": "SOUTHPARK MEADOWS STATION", "location_type": null, "platform_code": null, "zone_id": null}]
