[{"stop_timezone": "", "parent_station": "", "direction_id": "1", "stop_url": "https://www.capmetro.org/stopdetail/index.php?stop=2335", "stop_sequence": "1", "stop_id": "2335", "stop_desc": "004608 WEST GATE & LAMAR", "location_type": "", "zone_id": "", "stop_lat": "30.230471", "wheelchair_boarding": "0", "stop_code": "2335", "stop_lon": "-97.800924", "route_id": "311", "stop_name": "4608 West Gate/Lamar"}, {"stop_timezone": "", "parent_station": "", "direction_id": "1", "stop_url": "https://www.capmetro.org/stopdetail/index.php?stop=4219", "stop_sequence": "1", "stop_id": "4219", "stop_desc": "002700 WESTERN TRAILS & SAGEBRUSH", "location_type": "", "zone_id": "", "stop_lat": "30.229104", "wheelchair_boarding": "0", "stop_code": "4219", "stop_lon": "-97.800500", "route_id": "311", "stop_name": "2700 Western Trails/Sagebrush"}, {"stop_timezone": "", "parent_station": "", "direction_id": "1", "stop_url": "https://www.capmetro.org/stopdetail/index.php?stop=3113", "stop_sequence": "10", "stop_id": "3113", "stop_desc": "001401 STASSNEY & RADAM", "location_type": "", "zone_id": "", "stop_lat": "30.212061", "wheelchair_boarding": "0", "stop_code": "3113", "stop_lon": "-97.790959", "route_id": "311", "stop_name": "1401 Stassney/Radam"}, {"stop_timezone": "", "parent_station": "", "direction_id": "1", "stop_url": "https://www.capmetro.org/stopdetail/index.php?stop=3114", "stop_sequence": "11", "stop_id": "3114", "stop_desc": "001101 STASSNEY & EMERALD FOREST", "location_type": "", "zone_id": "", "stop_lat": "30.210625", "wheelchair_boarding": "0", "stop_code": "3114", "stop_lon": "-97.787259", "route_id": "311", "stop_name": "1101 Stassney/Emerald Forest"}, {"stop_timezone": "", "parent_station": "", "direction_id": "1", "stop_url": "https://www.capmetro.org/stopdetail/index.php?stop=5487", "stop_sequence": "12", "stop_id": "5487", "stop_desc": "000727 STASSNEY & NANCY", "location_type": "", "zone_id": "", "stop_lat": "30.209059", "wheelchair_boarding": "0", "stop_code": "5487", "stop_lon": "-97.784284", "route_id": "311", "stop_name": "727 Stassney/Nancy"}, {"stop_timezone": "", "parent_station": "", "direction_id": "1", "stop_url": "https://www.capmetro.org/stopdetail/index.php?stop=4393", "stop_sequence": "13", "stop_id": "4393", "stop_desc": "000609 STASSNEY & 1ST", "location_type": "", "zone_id": "", "stop_lat": "30.208097", "wheelchair_boarding": "0", "stop_code": "4393", "stop_lon": "-97.781018", "route_id": "311", "stop_name": "609 Stassney/1st"}, {"stop_timezone": "", "parent_station": "", "direction_id": "1", "stop_url": "https://www.capmetro.org/stopdetail/index.php?stop=3116", "stop_sequence": "14", "stop_id": "3116", "stop_desc": "000405 STASSNEY & HUMMINGBIRD", "location_type": "", "zone_id": "", "stop_lat": "30.207058", "wheelchair_boarding": "0", "stop_code": "3116", "stop_lon": "-97.778967", "route_id": "311", "stop_name": "405 W Stassney/Hummingbird"}, {"stop_timezone": "", "parent_station": "", "direction_id": "1", "stop_url": "https://www.capmetro.org/stopdetail/index.php?stop=4276", "stop_sequence": "15", "stop_id": "4276", "stop_desc": "000119 STASSNEY & CONGRESS", "location_type": "", "zone_id": "", "stop_lat": "30.205187", "wheelchair_boarding": "0", "stop_code": "4276", "stop_lon": "-97.775706", "route_id": "311", "stop_name": "119 Stassney/Congress"}, {"stop_timezone": "", "parent_station": "", "direction_id": "1", "stop_url": "https://www.capmetro.org/stopdetail/index.php?stop=4365", "stop_sequence": "16", "stop_id": "4365", "stop_desc": "000407 STASSNEY & CONGRESS", "location_type": "", "zone_id": "", "stop_lat": "30.202767", "wheelchair_boarding": "0", "stop_code": "4365", "stop_lon": "-97.771769", "route_id": "311", "stop_name": "407 Stassney/Congress"}, {"stop_timezone": "", "parent_station": "", "direction_id": "1", "stop_url": "https://www.capmetro.org/stopdetail/index.php?stop=4363", "stop_sequence": "17", "stop_id": "4363", "stop_desc": "000811 STASSNEY & MIRA", "location_type": "", "zone_id": "", "stop_lat": "30.200052", "wheelchair_boarding": "0", "stop_code": "4363", "stop_lon": "-97.766668", "route_id": "311", "stop_name": "811 Stassney/Mira"}, {"stop_timezone": "", "parent_station": "", "direction_id": "1", "stop_url": "https://www.capmetro.org/stopdetail/index.php?stop=4331", "stop_sequence": "18", "stop_id": "4331", "stop_desc": "001715 STASSNEY & IH 35", "location_type": "", "zone_id": "", "stop_lat": "30.197199", "wheelchair_boarding": "0", "stop_code": "4331", "stop_lon": "-97.761558", "route_id": "311", "stop_name": "1715 Stassney/IH 35"}, {"stop_timezone": "", "parent_station": "", "direction_id": "1", "stop_url": "https://www.capmetro.org/stopdetail/index.php?stop=2497", "stop_sequence": "19", "stop_id": "2497", "stop_desc": "002005 STASSNEY & PONCIANA", "location_type": "", "zone_id": "", "stop_lat": "30.195032", "wheelchair_boarding": "0", "stop_code": "2497", "stop_lon": "-97.758297", "route_id": "311", "stop_name": "2005 Stassney/Ponciana"}, {"stop_timezone": "", "parent_station": "", "direction_id": "1", "stop_url": "https://www.capmetro.org/stopdetail/index.php?stop=2337", "stop_sequence": "2", "stop_id": "2337", "stop_desc": "004900 WEST GATE & CHOCTAW TRAIL", "location_type": "", "zone_id": "", "stop_lat": "30.227305", "wheelchair_boarding": "0", "stop_code": "2337", "stop_lon": "-97.802541", "route_id": "311", "stop_name": "4900 West Gate/Choctaw Trail"}, {"stop_timezone": "", "parent_station": "", "direction_id": "1", "stop_url": "https://www.capmetro.org/stopdetail/index.php?stop=5713", "stop_sequence": "20", "stop_id": "5713", "stop_desc": "002230 STASSNEY & DOVE", "location_type": "", "zone_id": "", "stop_lat": "30.193336", "wheelchair_boarding": "0", "stop_code": "5713", "stop_lon": "-97.753967", "route_id": "311", "stop_name": "2230 Stassney/Dove"}, {"stop_timezone": "", "parent_station": "", "direction_id": "1", "stop_url": "https://www.capmetro.org/stopdetail/index.php?stop=2499", "stop_sequence": "21", "stop_id": "2499", "stop_desc": "002433 STASSNEY & PALO BLANCO", "location_type": "", "zone_id": "", "stop_lat": "30.193568", "wheelchair_boarding": "0", "stop_code": "2499", "stop_lon": "-97.749836", "route_id": "311", "stop_name": "2433 Stassney/Palo Blanco"}, {"stop_timezone": "", "parent_station": "", "direction_id": "1", "stop_url": "https://www.capmetro.org/stopdetail/index.php?stop=4335", "stop_sequence": "22", "stop_id": "4335", "stop_desc": "002523 STASSNEY & CHAPARRAL", "location_type": "", "zone_id": "", "stop_lat": "30.193724", "wheelchair_boarding": "0", "stop_code": "4335", "stop_lon": "-97.747107", "route_id": "311", "stop_name": "2523 Stassney/Chaparral"}, {"stop_timezone": "", "parent_station": "", "direction_id": "1", "stop_url": "https://www.capmetro.org/stopdetail/index.php?stop=5826", "stop_sequence": "23", "stop_id": "5826", "stop_desc": "004701 STASSNEY & PLEASANT VALLEY", "location_type": "", "zone_id": "", "stop_lat": "30.193890", "wheelchair_boarding": "0", "stop_code": "5826", "stop_lon": "-97.743863", "route_id": "311", "stop_name": "4701 Stassney/Pleasant Valley"}, {"stop_timezone": "", "parent_station": "", "direction_id": "1", "stop_url": "https://www.capmetro.org/stopdetail/index.php?stop=5829", "stop_sequence": "24", "stop_id": "5829", "stop_desc": "005301 STASSNEY & NUCKOLS", "location_type": "", "zone_id": "", "stop_lat": "30.192738", "wheelchair_boarding": "0", "stop_code": "5829", "stop_lon": "-97.738231", "route_id": "311", "stop_name": "5301 Stassney/Nuckols"}, {"stop_timezone": "", "parent_station": "", "direction_id": "1", "stop_url": "https://www.capmetro.org/stopdetail/index.php?stop=5832", "stop_sequence": "25", "stop_id": "5832", "stop_desc": "005901 STASSNEY & TERI", "location_type": "", "zone_id": "", "stop_lat": "30.191093", "wheelchair_boarding": "0", "stop_code": "5832", "stop_lon": "-97.731222", "route_id": "311", "stop_name": "5901 Stassney/Teri"}, {"stop_timezone": "", "parent_station": "", "direction_id": "1", "stop_url": "https://www.capmetro.org/stopdetail/index.php?stop=5833", "stop_sequence": "26", "stop_id": "5833", "stop_desc": "000000 MONTOPOLIS & BURLESON", "location_type": "", "zone_id": "", "stop_lat": "30.205063", "wheelchair_boarding": "0", "stop_code": "5833", "stop_lon": "-97.716751", "route_id": "311", "stop_name": "Montopolis/Burleson"}, {"stop_timezone": "", "parent_station": "", "direction_id": "1", "stop_url": "https://www.capmetro.org/stopdetail/index.php?stop=5835", "stop_sequence": "27", "stop_id": "5835", "stop_desc": "003120 MONTOPOLIS & BEN WHITE", "location_type": "", "zone_id": "", "stop_lat": "30.210443", "wheelchair_boarding": "0", "stop_code": "5835", "stop_lon": "-97.713310", "route_id": "311", "stop_name": "3120 Montopolis/Ben White"}, {"stop_timezone": "", "parent_station": "", "direction_id": "1", "stop_url": "https://www.capmetro.org/stopdetail/index.php?stop=4310", "stop_sequence": "28", "stop_id": "4310", "stop_desc": "002821 MONTOPOLIS & OLTORF", "location_type": "", "zone_id": "", "stop_lat": "30.215817", "wheelchair_boarding": "0", "stop_code": "4310", "stop_lon": "-97.709260", "route_id": "311", "stop_name": "2821 Montopolis/Oltorf"}, {"stop_timezone": "", "parent_station": "", "direction_id": "1", "stop_url": "https://www.capmetro.org/stopdetail/index.php?stop=2279", "stop_sequence": "29", "stop_id": "2279", "stop_desc": "002421 GROVE & MONTOPOLIS", "location_type": "", "zone_id": "", "stop_lat": "30.220579", "wheelchair_boarding": "0", "stop_code": "2279", "stop_lon": "-97.707057", "route_id": "311", "stop_name": "2421 Grove/Montopolis"}, {"stop_timezone": "", "parent_station": "", "direction_id": "1", "stop_url": "https://www.capmetro.org/stopdetail/index.php?stop=2338", "stop_sequence": "3", "stop_id": "2338", "stop_desc": "005012 WEST GATE & JONES", "location_type": "", "zone_id": "", "stop_lat": "30.225819", "wheelchair_boarding": "0", "stop_code": "2338", "stop_lon": "-97.803849", "route_id": "311", "stop_name": "5012 West Gate/Jones"}, {"stop_timezone": "", "parent_station": "", "direction_id": "1", "stop_url": "https://www.capmetro.org/stopdetail/index.php?stop=2280", "stop_sequence": "30", "stop_id": "2280", "stop_desc": "001900 GROVE & RIVERSIDE", "location_type": "", "zone_id": "", "stop_lat": "30.228217", "wheelchair_boarding": "0", "stop_code": "2280", "stop_lon": "-97.707046", "route_id": "311", "stop_name": "Grove/Riverside"}, {"stop_timezone": "", "parent_station": "", "direction_id": "1", "stop_url": "https://www.capmetro.org/stopdetail/index.php?stop=5043", "stop_sequence": "31", "stop_id": "5043", "stop_desc": "001515 GROVE & FAIRWAY", "location_type": "", "zone_id": "", "stop_lat": "30.230394", "wheelchair_boarding": "0", "stop_code": "5043", "stop_lon": "-97.706160", "route_id": "311", "stop_name": "Grove/Fairway"}, {"stop_timezone": "", "parent_station": "", "direction_id": "1", "stop_url": "https://www.capmetro.org/stopdetail/index.php?stop=953", "stop_sequence": "32", "stop_id": "953", "stop_desc": "001101 GROVE & ACC RIVERSIDE TURNOFF", "location_type": "", "zone_id": "", "stop_lat": "30.235008", "wheelchair_boarding": "0", "stop_code": "953", "stop_lon": "-97.704179", "route_id": "311", "stop_name": "1101 Grove (ACC Riverside)"}, {"stop_timezone": "", "parent_station": "", "direction_id": "1", "stop_url": "https://www.capmetro.org/stopdetail/index.php?stop=831", "stop_sequence": "33", "stop_id": "831", "stop_desc": "001020 ACC & GROVE", "location_type": "", "zone_id": "", "stop_lat": "30.236214", "wheelchair_boarding": "0", "stop_code": "831", "stop_lon": "-97.704856", "route_id": "311", "stop_name": "ACC Riverside Campus Stop"}, {"stop_timezone": "", "parent_station": "", "direction_id": "1", "stop_url": "https://www.capmetro.org/stopdetail/index.php?stop=2339", "stop_sequence": "4", "stop_id": "2339", "stop_desc": "005306 WEST GATE & INDIO", "location_type": "", "zone_id": "", "stop_lat": "30.223145", "wheelchair_boarding": "0", "stop_code": "2339", "stop_lon": "-97.805582", "route_id": "311", "stop_name": "5306 West Gate/Indio"}, {"stop_timezone": "", "parent_station": "", "direction_id": "1", "stop_url": "https://www.capmetro.org/stopdetail/index.php?stop=4223", "stop_sequence": "5", "stop_id": "4223", "stop_desc": "002500 STASSNEY & WESTGATE", "location_type": "", "zone_id": "", "stop_lat": "30.218687", "wheelchair_boarding": "0", "stop_code": "4223", "stop_lon": "-97.805931", "route_id": "311", "stop_name": "Stassney/Westgate"}, {"stop_timezone": "", "parent_station": "", "direction_id": "1", "stop_url": "https://www.capmetro.org/stopdetail/index.php?stop=3109", "stop_sequence": "6", "stop_id": "3109", "stop_desc": "002313 STASSNEY & FERNVIEW", "location_type": "", "zone_id": "", "stop_lat": "30.218140", "wheelchair_boarding": "0", "stop_code": "3109", "stop_lon": "-97.803260", "route_id": "311", "stop_name": "2313 Stassney/Fernview"}, {"stop_timezone": "", "parent_station": "", "direction_id": "1", "stop_url": "https://www.capmetro.org/stopdetail/index.php?stop=3110", "stop_sequence": "7", "stop_id": "3110", "stop_desc": "002035 STASSNEY & LEWOOD", "location_type": "", "zone_id": "", "stop_lat": "30.216159", "wheelchair_boarding": "0", "stop_code": "3110", "stop_lon": "-97.799017", "route_id": "311", "stop_name": "2035 Stassney (Cherry Creek Plaza)"}, {"stop_timezone": "", "parent_station": "", "direction_id": "1", "stop_url": "https://www.capmetro.org/stopdetail/index.php?stop=4225", "stop_sequence": "8", "stop_id": "4225", "stop_desc": "001821 STASSNEY & MANCHACA", "location_type": "", "zone_id": "", "stop_lat": "30.214594", "wheelchair_boarding": "0", "stop_code": "4225", "stop_lon": "-97.796330", "route_id": "311", "stop_name": "1821 Stassney/Manchaca"}, {"stop_timezone": "", "parent_station": "", "direction_id": "1", "stop_url": "https://www.capmetro.org/stopdetail/index.php?stop=3112", "stop_sequence": "9", "stop_id": "3112", "stop_desc": "001701 STASSNEY & ROSE HILL", "location_type": "", "zone_id": "", "stop_lat": "30.213644", "wheelchair_boarding": "0", "stop_code": "3112", "stop_lon": "-97.794264", "route_id": "311", "stop_name": "1701 Stassney/Rose Hill"}]
