[{"stop_lat": 30.268628, "stop_timezone": null, "wheelchair_boarding": 0, "stop_code": "5966", "direction_id": 0, "stop_lon": -97.74418, "parent_station": null, "route_id": "411", "stop_url": "http://www.capmetro.org/gismaps/stops/5966.html", "stop_sequence": 1, "stop_id": "5966", "stop_desc": "Northwest corner of COLORADO and 6TH - Nearside", "stop_name": "COLORADO/6TH", "location_type": null, "platform_code": null, "zone_id": null}, {"stop_lat": 30.242658, "stop_timezone": null, "wheelchair_boarding": 0, "stop_code": "5554", "direction_id": 0, "stop_lon": -97.729061, "parent_station": null, "route_id": "411", "stop_url": "http://www.capmetro.org/gismaps/stops/5554.html", "stop_sequence": 2, "stop_id": "5554", "stop_desc": "Northwest corner of RIVERSIDE and PARKER - Mid-Block", "stop_name": "1805 RIVERSIDE/PARKER", "location_type": null, "platform_code": null, "zone_id": null}, {"stop_lat": 30.2331, "stop_timezone": null, "wheelchair_boarding": 1, "stop_code": "4295", "direction_id": 0, "stop_lon": -97.728953, "parent_station": null, "route_id": "411", "stop_url": "http://www.capmetro.org/gismaps/stops/4295.html", "stop_sequence": 3, "stop_id": "4295", "stop_desc": "Southwest corner of WILLOW CREEK and WOODLAND - Mid-Block", "stop_name": "WILLOW CREEK/WOODLAND", "location_type": null, "platform_code": null, "zone_id": null}, {"stop_lat": 30.230853, "stop_timezone": null, "wheelchair_boarding": 0, "stop_code": "5080", "direction_id": 0, "stop_lon": -97.728958, "parent_station": null, "route_id": "411", "stop_url": "http://www.capmetro.org/gismaps/stops/5080.html", "stop_sequence": 4, "stop_id": "5080", "stop_desc": "Southeast corner of ANKEN and WILLOW CREEK - Farside", "stop_name": "ANKEN/WILLOW CREEK", "location_type": null, "platform_code": null, "zone_id": null}, {"stop_lat": 30.22936, "stop_timezone": null, "wheelchair_boarding": 1, "stop_code": "3527", "direction_id": 0, "stop_lon": -97.726739, "parent_station": null, "route_id": "411", "stop_url": "http://www.capmetro.org/gismaps/stops/3527.html", "stop_sequence": 5, "stop_id": "3527", "stop_desc": "Southwest corner of PLEASANT VALLEY and ANKEN - Farside", "stop_name": "2316 PLEASANT VALLEY/ANKEN", "location_type": null, "platform_code": null, "zone_id": null}, {"stop_lat": 30.226655, "stop_timezone": null, "wheelchair_boarding": 1, "stop_code": "1008", "direction_id": 0, "stop_lon": -97.726263, "parent_station": null, "route_id": "411", "stop_url": "http://www.capmetro.org/gismaps/stops/1008.html", "stop_sequence": 6, "stop_id": "1008", "stop_desc": "Southwest corner of OLTORF and HUNTWICK - Nearside", "stop_name": "4411 OLTORF/HUNTWICK", "location_type": null, "platform_code": null, "zone_id": null}, {"stop_lat": 30.226039, "stop_timezone": null, "wheelchair_boarding": 1, "stop_code": "1009", "direction_id": 0, "stop_lon": -97.723488, "parent_station": null, "route_id": "411", "stop_url": "http://www.capmetro.org/gismaps/stops/1009.html", "stop_sequence": 7, "stop_id": "1009", "stop_desc": "Northeast corner of WICKERSHAM and OLTORF - Mid-Block", "stop_name": "2401 WICKERSHAM/OLTORF", "location_type": null, "platform_code": null, "zone_id": null}, {"stop_lat": 30.227021, "stop_timezone": null, "wheelchair_boarding": 0, "stop_code": "1010", "direction_id": 0, "stop_lon": -97.721847, "parent_station": null, "route_id": "411", "stop_url": "http://www.capmetro.org/gismaps/stops/1010.html", "stop_sequence": 8, "stop_id": "1010", "stop_desc": "Southeast corner of WICKERSHAM and CROMWELL - Nearside", "stop_name": "WICKERSHAM/CROMWELL", "location_type": null, "platform_code": null, "zone_id": null}, {"stop_lat": 30.229237, "stop_timezone": null, "wheelchair_boarding": 0, "stop_code": "1011", "direction_id": 0, "stop_lon": -97.721378, "parent_station": null, "route_id": "411", "stop_url": "http://www.capmetro.org/gismaps/stops/1011.html", "stop_sequence": 9, "stop_id": "1011", "stop_desc": "Southeast corner of WICKERSHAM and SHERINGHAM - Nearside", "stop_name": "2207 WICKERSHAM/SHERINGHAM", "location_type": null, "platform_code": null, "zone_id": null}, {"stop_lat": 30.232153, "stop_timezone": null, "wheelchair_boarding": 0, "stop_code": "4300", "direction_id": 0, "stop_lon": -97.717055, "parent_station": null, "route_id": "411", "stop_url": "http://www.capmetro.org/gismaps/stops/4300.html", "stop_sequence": 10, "stop_id": "4300", "stop_desc": "Northeast corner of CROSSING PLACE and RIVERSIDE - Farside", "stop_name": "1901 CROSSING PLACE/RIVERSIDE", "location_type": null, "platform_code": null, "zone_id": null}, {"stop_lat": 30.235016, "stop_timezone": null, "wheelchair_boarding": 0, "stop_code": "4301", "direction_id": 0, "stop_lon": -97.714646, "parent_station": null, "route_id": "411", "stop_url": "http://www.capmetro.org/gismaps/stops/4301.html", "stop_sequence": 11, "stop_id": "4301", "stop_desc": "Southeast corner of CROSSING PLACE and FARO - Nearside", "stop_name": "1501 CROSSING PLACE/FARO", "location_type": null, "platform_code": null, "zone_id": null}, {"stop_lat": 30.237369, "stop_timezone": null, "wheelchair_boarding": 0, "stop_code": "3852", "direction_id": 0, "stop_lon": -97.7135, "parent_station": null, "route_id": "411", "stop_url": "http://www.capmetro.org/gismaps/stops/3852.html", "stop_sequence": 12, "stop_id": "3852", "stop_desc": "Southeast corner of CROSSING PLACE and ELMONT - Farside", "stop_name": "MELROSE PLACE APT", "location_type": null, "platform_code": null, "zone_id": null}, {"stop_lat": 30.234887, "stop_timezone": null, "wheelchair_boarding": 0, "stop_code": "4302", "direction_id": 0, "stop_lon": -97.71506, "parent_station": null, "route_id": "411", "stop_url": "http://www.capmetro.org/gismaps/stops/4302.html", "stop_sequence": 13, "stop_id": "4302", "stop_desc": "Southwest corner of CROSSING PLACE and FARO - Farside", "stop_name": "1500 CROSSING PLACE/FARO", "location_type": null, "platform_code": null, "zone_id": null}, {"stop_lat": 30.232408, "stop_timezone": null, "wheelchair_boarding": 0, "stop_code": "4299", "direction_id": 0, "stop_lon": -97.717232, "parent_station": null, "route_id": "411", "stop_url": "http://www.capmetro.org/gismaps/stops/4299.html", "stop_sequence": 14, "stop_id": "4299", "stop_desc": "Northwest corner of CROSSING PLACE and RIVERSIDE - Nearside", "stop_name": "1900 CROSSING PLACE/RIVERSIDE", "location_type": null, "platform_code": null, "zone_id": null}, {"stop_lat": 30.232959, "stop_timezone": null, "wheelchair_boarding": 0, "stop_code": "5079", "direction_id": 0, "stop_lon": -97.720095, "parent_station": null, "route_id": "411", "stop_url": "http://www.capmetro.org/gismaps/stops/5079.html", "stop_sequence": 15, "stop_id": "5079", "stop_desc": "Northeast corner of WICKERSHAM and RIVERSIDE - Farside", "stop_name": "WICKERSHAM/RIVERSIDE", "location_type": null, "platform_code": null, "zone_id": null}, {"stop_lat": 30.235709, "stop_timezone": null, "wheelchair_boarding": 0, "stop_code": "5078", "direction_id": 0, "stop_lon": -97.718516, "parent_station": null, "route_id": "411", "stop_url": "http://www.capmetro.org/gismaps/stops/5078.html", "stop_sequence": 16, "stop_id": "5078", "stop_desc": "Northeast corner of WICKERSHAM and RIVERSIDE - Mid-Block", "stop_name": "1515 WICKERSHAM/RIVERSIDE", "location_type": null, "platform_code": null, "zone_id": null}, {"stop_lat": 30.238352, "stop_timezone": null, "wheelchair_boarding": 0, "stop_code": "5077", "direction_id": 0, "stop_lon": -97.718471, "parent_station": null, "route_id": "411", "stop_url": "http://www.capmetro.org/gismaps/stops/5077.html", "stop_sequence": 17, "stop_id": "5077", "stop_desc": "Northwest corner of ELMONT and WICKERSHAM - Mid-Block", "stop_name": "ELMONT/WICKERSHAM", "location_type": null, "platform_code": null, "zone_id": null}, {"stop_lat": 30.239813, "stop_timezone": null, "wheelchair_boarding": 0, "stop_code": "4284", "direction_id": 0, "stop_lon": -97.718786, "parent_station": null, "route_id": "411", "stop_url": "http://www.capmetro.org/gismaps/stops/4284.html", "stop_sequence": 18, "stop_id": "4284", "stop_desc": "Northeast corner of PLEASANT VALLEY and ELMONT - Mid-Block", "stop_name": "1225 PLEASANT VALLEY/ELMONT", "location_type": null, "platform_code": null, "zone_id": null}, {"stop_lat": 30.241894, "stop_timezone": null, "wheelchair_boarding": 0, "stop_code": "5065", "direction_id": 0, "stop_lon": -97.717489, "parent_station": null, "route_id": "411", "stop_url": "http://www.capmetro.org/gismaps/stops/5065.html", "stop_sequence": 19, "stop_id": "5065", "stop_desc": "Northeast corner of PLEASANT VALLEY and ELMONT - Mid-Block", "stop_name": "1109 PLEASANT VALLEY/ELMONT", "location_type": null, "platform_code": null, "zone_id": null}, {"stop_lat": 30.243428, "stop_timezone": null, "wheelchair_boarding": 0, "stop_code": "5076", "direction_id": 0, "stop_lon": -97.719505, "parent_station": null, "route_id": "411", "stop_url": "http://www.capmetro.org/gismaps/stops/5076.html", "stop_sequence": 20, "stop_id": "5076", "stop_desc": "Northwest corner of LAKESHORE and PLEASANT VALLEY - Mid-Block", "stop_name": "LAKESHORE/PLEASANT VALLEY", "location_type": null, "platform_code": null, "zone_id": null}, {"stop_lat": 30.244391, "stop_timezone": null, "wheelchair_boarding": 0, "stop_code": "5075", "direction_id": 0, "stop_lon": -97.722075, "parent_station": null, "route_id": "411", "stop_url": "http://www.capmetro.org/gismaps/stops/5075.html", "stop_sequence": 21, "stop_id": "5075", "stop_desc": "Northeast corner of LAKESHORE and TINNIN FORD - Nearside", "stop_name": "2200 LAKESHORE/TINNIN FORD", "location_type": null, "platform_code": null, "zone_id": null}, {"stop_lat": 30.244912, "stop_timezone": null, "wheelchair_boarding": 0, "stop_code": "5074", "direction_id": 0, "stop_lon": -97.727278, "parent_station": null, "route_id": "411", "stop_url": "http://www.capmetro.org/gismaps/stops/5074.html", "stop_sequence": 22, "stop_id": "5074", "stop_desc": "Northwest corner of LAKESHORE and TINNIN FORD - Mid-Block", "stop_name": "1804 LAKESHORE/TINNIN FORD", "location_type": null, "platform_code": null, "zone_id": null}, {"stop_lat": 30.245006, "stop_timezone": null, "wheelchair_boarding": 0, "stop_code": "5706", "direction_id": 0, "stop_lon": -97.729679, "parent_station": null, "route_id": "411", "stop_url": "http://www.capmetro.org/gismaps/stops/5706.html", "stop_sequence": 23, "stop_id": "5706", "stop_desc": "Northeast corner of LAKESHORE and RIVERSIDE - Nearside", "stop_name": "1712 LAKESHORE/RIVERSIDE", "location_type": null, "platform_code": null, "zone_id": null}, {"stop_lat": 30.268628, "stop_timezone": null, "wheelchair_boarding": 0, "stop_code": "5966", "direction_id": 0, "stop_lon": -97.74418, "parent_station": null, "route_id": "411", "stop_url": "http://www.capmetro.org/gismaps/stops/5966.html", "stop_sequence": 24, "stop_id": "5966", "stop_desc": "Northwest corner of COLORADO and 6TH - Nearside", "stop_name": "COLORADO/6TH", "location_type": null, "platform_code": null, "zone_id": null}]
