[{"stop_lat": 30.290572, "stop_timezone": null, "wheelchair_boarding": 0, "stop_code": "1706", "direction_id": 1, "stop_lon": -97.727389, "parent_station": null, "route_id": "171", "stop_url": "http://www.capmetro.org/gismaps/stops/1706.html", "stop_sequence": 1, "stop_id": "1706", "stop_desc": "Southwest corner of RED RIVER and 32ND - Farside", "stop_name": "3100 RED RIVER/32ND", "location_type": null, "platform_code": null, "zone_id": null}, {"stop_lat": 30.287579, "stop_timezone": null, "wheelchair_boarding": 0, "stop_code": "2077", "direction_id": 1, "stop_lon": -97.727345, "parent_station": null, "route_id": "171", "stop_url": "http://www.capmetro.org/gismaps/stops/2077.html", "stop_sequence": 2, "stop_id": "2077", "stop_desc": "Northwest corner of DEAN KEETON and RED RIVER - Farside", "stop_name": "920 DEAN KEETON/RED RIVER", "location_type": null, "platform_code": null, "zone_id": null}, {"stop_lat": 30.289184, "stop_timezone": null, "wheelchair_boarding": 0, "stop_code": "2757", "direction_id": 1, "stop_lon": -97.730013, "parent_station": null, "route_id": "171", "stop_url": "http://www.capmetro.org/gismaps/stops/2757.html", "stop_sequence": 3, "stop_id": "2757", "stop_desc": "Northwest corner of DEAN KEETON and HAMPTON - Farside", "stop_name": "810 DEAN KEETON/HAMPTON", "location_type": null, "platform_code": null, "zone_id": null}, {"stop_lat": 30.287254, "stop_timezone": null, "wheelchair_boarding": 0, "stop_code": "1178", "direction_id": 1, "stop_lon": -97.733663, "parent_station": null, "route_id": "171", "stop_url": "http://www.capmetro.org/gismaps/stops/1178.html", "stop_sequence": 4, "stop_id": "1178", "stop_desc": "Northwest corner of SAN JACINTO and 24TH - Nearside", "stop_name": "2400 SAN JACINTO/24TH", "location_type": null, "platform_code": null, "zone_id": null}, {"stop_lat": 30.288838, "stop_timezone": null, "wheelchair_boarding": 0, "stop_code": "2494", "direction_id": 1, "stop_lon": -97.734682, "parent_station": null, "route_id": "171", "stop_url": "http://www.capmetro.org/gismaps/stops/2494.html", "stop_sequence": 4, "stop_id": "2494", "stop_desc": "Southwest corner of SAN JACINTO and DEAN KEETON - Farside", "stop_name": "SAN JACINTO/DEAN KEETON SB", "location_type": null, "platform_code": null, "zone_id": null}, {"stop_lat": 30.287254, "stop_timezone": null, "wheelchair_boarding": 0, "stop_code": "1178", "direction_id": 1, "stop_lon": -97.733663, "parent_station": null, "route_id": "171", "stop_url": "http://www.capmetro.org/gismaps/stops/1178.html", "stop_sequence": 5, "stop_id": "1178", "stop_desc": "Northwest corner of SAN JACINTO and 24TH - Nearside", "stop_name": "2400 SAN JACINTO/24TH", "location_type": null, "platform_code": null, "zone_id": null}, {"stop_lat": 30.285505, "stop_timezone": null, "wheelchair_boarding": 0, "stop_code": "1179", "direction_id": 1, "stop_lon": -97.733783, "parent_station": null, "route_id": "171", "stop_url": "http://www.capmetro.org/gismaps/stops/1179.html", "stop_sequence": 5, "stop_id": "1179", "stop_desc": "Northwest corner of SAN JACINTO and 23RD - Nearside", "stop_name": "2300 SAN JACINTO/23RD", "location_type": null, "platform_code": null, "zone_id": null}, {"stop_lat": 30.285505, "stop_timezone": null, "wheelchair_boarding": 0, "stop_code": "1179", "direction_id": 1, "stop_lon": -97.733783, "parent_station": null, "route_id": "171", "stop_url": "http://www.capmetro.org/gismaps/stops/1179.html", "stop_sequence": 6, "stop_id": "1179", "stop_desc": "Northwest corner of SAN JACINTO and 23RD - Nearside", "stop_name": "2300 SAN JACINTO/23RD", "location_type": null, "platform_code": null, "zone_id": null}, {"stop_lat": 30.283361, "stop_timezone": null, "wheelchair_boarding": 0, "stop_code": "1180", "direction_id": 1, "stop_lon": -97.734167, "parent_station": null, "route_id": "171", "stop_url": "http://www.capmetro.org/gismaps/stops/1180.html", "stop_sequence": 6, "stop_id": "1180", "stop_desc": "Northwest corner of SAN JACINTO and 21ST - Nearside", "stop_name": "2100 SAN JACINTO/21ST", "location_type": null, "platform_code": null, "zone_id": null}, {"stop_lat": 30.283361, "stop_timezone": null, "wheelchair_boarding": 0, "stop_code": "1180", "direction_id": 1, "stop_lon": -97.734167, "parent_station": null, "route_id": "171", "stop_url": "http://www.capmetro.org/gismaps/stops/1180.html", "stop_sequence": 7, "stop_id": "1180", "stop_desc": "Northwest corner of SAN JACINTO and 21ST - Nearside", "stop_name": "2100 SAN JACINTO/21ST", "location_type": null, "platform_code": null, "zone_id": null}, {"stop_lat": 30.279508, "stop_timezone": null, "wheelchair_boarding": 0, "stop_code": "915", "direction_id": 1, "stop_lon": -97.736019, "parent_station": null, "route_id": "171", "stop_url": "http://www.capmetro.org/gismaps/stops/915.html", "stop_sequence": 7, "stop_id": "915", "stop_desc": "Southwest corner of SAN JACINTO and MARTIN LUTHER KING - Farside", "stop_name": "1806 SAN JACINTO/MARTIN LUTHER KING", "location_type": null, "platform_code": null, "zone_id": null}, {"stop_lat": 30.279508, "stop_timezone": null, "wheelchair_boarding": 0, "stop_code": "915", "direction_id": 1, "stop_lon": -97.736019, "parent_station": null, "route_id": "171", "stop_url": "http://www.capmetro.org/gismaps/stops/915.html", "stop_sequence": 8, "stop_id": "915", "stop_desc": "Southwest corner of SAN JACINTO and MARTIN LUTHER KING - Farside", "stop_name": "1806 SAN JACINTO/MARTIN LUTHER KING", "location_type": null, "platform_code": null, "zone_id": null}, {"stop_lat": 30.278165, "stop_timezone": null, "wheelchair_boarding": 0, "stop_code": "916", "direction_id": 1, "stop_lon": -97.736503, "parent_station": null, "route_id": "171", "stop_url": "http://www.capmetro.org/gismaps/stops/916.html", "stop_sequence": 8, "stop_id": "916", "stop_desc": "Northwest corner of SAN JACINTO and 17TH - Nearside", "stop_name": "SAN JACINTO/17TH", "location_type": null, "platform_code": null, "zone_id": null}, {"stop_lat": 30.278165, "stop_timezone": null, "wheelchair_boarding": 0, "stop_code": "916", "direction_id": 1, "stop_lon": -97.736503, "parent_station": null, "route_id": "171", "stop_url": "http://www.capmetro.org/gismaps/stops/916.html", "stop_sequence": 9, "stop_id": "916", "stop_desc": "Northwest corner of SAN JACINTO and 17TH - Nearside", "stop_name": "SAN JACINTO/17TH", "location_type": null, "platform_code": null, "zone_id": null}, {"stop_lat": 30.276411, "stop_timezone": null, "wheelchair_boarding": 0, "stop_code": "918", "direction_id": 1, "stop_lon": -97.73718, "parent_station": null, "route_id": "171", "stop_url": "http://www.capmetro.org/gismaps/stops/918.html", "stop_sequence": 9, "stop_id": "918", "stop_desc": "Northwest corner of SAN JACINTO and 15TH - Nearside", "stop_name": "SAN JACINTO/15TH", "location_type": null, "platform_code": null, "zone_id": null}, {"stop_lat": 30.276411, "stop_timezone": null, "wheelchair_boarding": 0, "stop_code": "918", "direction_id": 1, "stop_lon": -97.73718, "parent_station": null, "route_id": "171", "stop_url": "http://www.capmetro.org/gismaps/stops/918.html", "stop_sequence": 10, "stop_id": "918", "stop_desc": "Northwest corner of SAN JACINTO and 15TH - Nearside", "stop_name": "SAN JACINTO/15TH", "location_type": null, "platform_code": null, "zone_id": null}, {"stop_lat": 30.275451, "stop_timezone": null, "wheelchair_boarding": 1, "stop_code": "919", "direction_id": 1, "stop_lon": -97.737526, "parent_station": null, "route_id": "171", "stop_url": "http://www.capmetro.org/gismaps/stops/919.html", "stop_sequence": 10, "stop_id": "919", "stop_desc": "Northwest corner of SAN JACINTO and 14TH - Nearside", "stop_name": "SAN JACINTO/14TH", "location_type": null, "platform_code": null, "zone_id": null}, {"stop_lat": 30.275451, "stop_timezone": null, "wheelchair_boarding": 1, "stop_code": "919", "direction_id": 1, "stop_lon": -97.737526, "parent_station": null, "route_id": "171", "stop_url": "http://www.capmetro.org/gismaps/stops/919.html", "stop_sequence": 11, "stop_id": "919", "stop_desc": "Northwest corner of SAN JACINTO and 14TH - Nearside", "stop_name": "SAN JACINTO/14TH", "location_type": null, "platform_code": null, "zone_id": null}, {"stop_lat": 30.274498, "stop_timezone": null, "wheelchair_boarding": 0, "stop_code": "920", "direction_id": 1, "stop_lon": -97.737862, "parent_station": null, "route_id": "171", "stop_url": "http://www.capmetro.org/gismaps/stops/920.html", "stop_sequence": 11, "stop_id": "920", "stop_desc": "Northwest corner of SAN JACINTO and 13TH - Nearside", "stop_name": "SAN JACINTO/13TH", "location_type": null, "platform_code": null, "zone_id": null}, {"stop_lat": 30.274498, "stop_timezone": null, "wheelchair_boarding": 0, "stop_code": "920", "direction_id": 1, "stop_lon": -97.737862, "parent_station": null, "route_id": "171", "stop_url": "http://www.capmetro.org/gismaps/stops/920.html", "stop_sequence": 12, "stop_id": "920", "stop_desc": "Northwest corner of SAN JACINTO and 13TH - Nearside", "stop_name": "SAN JACINTO/13TH", "location_type": null, "platform_code": null, "zone_id": null}, {"stop_lat": 30.272213, "stop_timezone": null, "wheelchair_boarding": 0, "stop_code": "922", "direction_id": 1, "stop_lon": -97.738718, "parent_station": null, "route_id": "171", "stop_url": "http://www.capmetro.org/gismaps/stops/922.html", "stop_sequence": 12, "stop_id": "922", "stop_desc": "Northwest corner of SAN JACINTO and 11TH - Nearside", "stop_name": "SAN JACINTO/11TH", "location_type": null, "platform_code": null, "zone_id": null}, {"stop_lat": 30.271503, "stop_timezone": null, "wheelchair_boarding": 0, "stop_code": "5950", "direction_id": 1, "stop_lon": -97.745478, "parent_station": null, "route_id": "171", "stop_url": "http://www.capmetro.org/gismaps/stops/5950.html", "stop_sequence": 13, "stop_id": "5950", "stop_desc": "Northwest corner of GUADALUPE and 8TH - Mid-Block", "stop_name": "GUADALUPE/8TH", "location_type": null, "platform_code": null, "zone_id": null}, {"stop_lat": 30.272213, "stop_timezone": null, "wheelchair_boarding": 0, "stop_code": "922", "direction_id": 1, "stop_lon": -97.738718, "parent_station": null, "route_id": "171", "stop_url": "http://www.capmetro.org/gismaps/stops/922.html", "stop_sequence": 13, "stop_id": "922", "stop_desc": "Northwest corner of SAN JACINTO and 11TH - Nearside", "stop_name": "SAN JACINTO/11TH", "location_type": null, "platform_code": null, "zone_id": null}, {"stop_lat": 30.268253, "stop_timezone": null, "wheelchair_boarding": 0, "stop_code": "2612", "direction_id": 1, "stop_lon": -97.74669, "parent_station": null, "route_id": "171", "stop_url": "http://www.capmetro.org/gismaps/stops/2612.html", "stop_sequence": 14, "stop_id": "2612", "stop_desc": "Southwest corner of GUADALUPE and 5TH - Nearside", "stop_name": "500 GUADALUPE/5TH", "location_type": null, "platform_code": null, "zone_id": null}, {"stop_lat": 30.271503, "stop_timezone": null, "wheelchair_boarding": 0, "stop_code": "5950", "direction_id": 1, "stop_lon": -97.745478, "parent_station": null, "route_id": "171", "stop_url": "http://www.capmetro.org/gismaps/stops/5950.html", "stop_sequence": 14, "stop_id": "5950", "stop_desc": "Northwest corner of GUADALUPE and 8TH - Mid-Block", "stop_name": "GUADALUPE/8TH", "location_type": null, "platform_code": null, "zone_id": null}, {"stop_lat": 30.268253, "stop_timezone": null, "wheelchair_boarding": 0, "stop_code": "2612", "direction_id": 1, "stop_lon": -97.74669, "parent_station": null, "route_id": "171", "stop_url": "http://www.capmetro.org/gismaps/stops/2612.html", "stop_sequence": 15, "stop_id": "2612", "stop_desc": "Southwest corner of GUADALUPE and 5TH - Nearside", "stop_name": "500 GUADALUPE/5TH", "location_type": null, "platform_code": null, "zone_id": null}, {"stop_lat": 30.265387, "stop_timezone": null, "wheelchair_boarding": 0, "stop_code": "5146", "direction_id": 1, "stop_lon": -97.74896, "parent_station": null, "route_id": "171", "stop_url": "http://www.capmetro.org/gismaps/stops/5146.html", "stop_sequence": 15, "stop_id": "5146", "stop_desc": "Southwest corner of SAN ANTONIO and 2ND - Mid-Block", "stop_name": "SAN ANTONIO/2ND", "location_type": null, "platform_code": null, "zone_id": null}, {"stop_lat": 30.265387, "stop_timezone": null, "wheelchair_boarding": 0, "stop_code": "5146", "direction_id": 1, "stop_lon": -97.74896, "parent_station": null, "route_id": "171", "stop_url": "http://www.capmetro.org/gismaps/stops/5146.html", "stop_sequence": 16, "stop_id": "5146", "stop_desc": "Southwest corner of SAN ANTONIO and 2ND - Mid-Block", "stop_name": "SAN ANTONIO/2ND", "location_type": null, "platform_code": null, "zone_id": null}, {"stop_lat": 30.265741, "stop_timezone": null, "wheelchair_boarding": 0, "stop_code": "716", "direction_id": 1, "stop_lon": -97.752406, "parent_station": null, "route_id": "171", "stop_url": "http://www.capmetro.org/gismaps/stops/716.html", "stop_sequence": 16, "stop_id": "716", "stop_desc": "Northwest corner of CESAR CHAVEZ and WEST - Farside", "stop_name": "800 CESAR CHAVEZ/WEST", "location_type": null, "platform_code": null, "zone_id": null}, {"stop_lat": 30.234397, "stop_timezone": null, "wheelchair_boarding": 0, "stop_code": "4486", "direction_id": 1, "stop_lon": -97.863234, "parent_station": null, "route_id": "171", "stop_url": "http://www.capmetro.org/gismaps/stops/4486.html", "stop_sequence": 17, "stop_id": "4486", "stop_desc": "Southeast corner of US 290 and WILLIAM CANNON - Mid-Block", "stop_name": "OAK HILL PARK AND RIDE", "location_type": null, "platform_code": null, "zone_id": null}, {"stop_lat": 30.265741, "stop_timezone": null, "wheelchair_boarding": 0, "stop_code": "716", "direction_id": 1, "stop_lon": -97.752406, "parent_station": null, "route_id": "171", "stop_url": "http://www.capmetro.org/gismaps/stops/716.html", "stop_sequence": 17, "stop_id": "716", "stop_desc": "Northwest corner of CESAR CHAVEZ and WEST - Farside", "stop_name": "800 CESAR CHAVEZ/WEST", "location_type": null, "platform_code": null, "zone_id": null}, {"stop_lat": 30.23566, "stop_timezone": null, "wheelchair_boarding": 0, "stop_code": "2617", "direction_id": 1, "stop_lon": -97.855268, "parent_station": null, "route_id": "171", "stop_url": "http://www.capmetro.org/gismaps/stops/2617.html", "stop_sequence": 18, "stop_id": "2617", "stop_desc": "Northeast corner of US 290 and PARKWOOD - Nearside", "stop_name": "6132 US 290/PARKWOOD", "location_type": null, "platform_code": null, "zone_id": null}, {"stop_lat": 30.234824, "stop_timezone": null, "wheelchair_boarding": 0, "stop_code": "4472", "direction_id": 1, "stop_lon": -97.862747, "parent_station": null, "route_id": "171", "stop_url": "http://www.capmetro.org/gismaps/stops/4472.html", "stop_sequence": 19, "stop_id": "4472", "stop_desc": "Northwest corner of US 290 and PATTON RANCH - Mid-Block", "stop_name": "6400 US 290/PATTON RANCH", "location_type": null, "platform_code": null, "zone_id": null}, {"stop_lat": 30.237011, "stop_timezone": null, "wheelchair_boarding": 0, "stop_code": "4473", "direction_id": 1, "stop_lon": -97.878699, "parent_station": null, "route_id": "171", "stop_url": "http://www.capmetro.org/gismaps/stops/4473.html", "stop_sequence": 20, "stop_id": "4473", "stop_desc": "Northwest corner of SCENIC BROOK and SH 71 - Farside", "stop_name": "6900 SCENIC BROOK/SH 71", "location_type": null, "platform_code": null, "zone_id": null}, {"stop_lat": 30.231836, "stop_timezone": null, "wheelchair_boarding": 0, "stop_code": "5943", "direction_id": 1, "stop_lon": -97.881376, "parent_station": null, "route_id": "171", "stop_url": "http://www.capmetro.org/gismaps/stops/5943.html", "stop_sequence": 20, "stop_id": "5943", "stop_desc": "Northeast corner of CONVICT HILL and US 290 - Mid-Block", "stop_name": "ACC (TEMP OAK HILL P&R)", "location_type": null, "platform_code": null, "zone_id": null}, {"stop_lat": 30.235646, "stop_timezone": null, "wheelchair_boarding": 0, "stop_code": "2618", "direction_id": 1, "stop_lon": -97.898749, "parent_station": null, "route_id": "171", "stop_url": "http://www.capmetro.org/gismaps/stops/2618.html", "stop_sequence": 21, "stop_id": "2618", "stop_desc": "Northeast corner of FENTON and SCENIC BROOK - Farside", "stop_name": "FENTON/SCENIC BROOK", "location_type": null, "platform_code": null, "zone_id": null}, {"stop_lat": 30.237053, "stop_timezone": null, "wheelchair_boarding": 0, "stop_code": "4475", "direction_id": 1, "stop_lon": -97.882769, "parent_station": null, "route_id": "171", "stop_url": "http://www.capmetro.org/gismaps/stops/4475.html", "stop_sequence": 21, "stop_id": "4475", "stop_desc": "Northeast corner of SCENIC BROOK and OAK MEADOW - Nearside", "stop_name": "7008 SCENIC BROOK/OAK MEADOW", "location_type": null, "platform_code": null, "zone_id": null}, {"stop_lat": 30.236672, "stop_timezone": null, "wheelchair_boarding": 0, "stop_code": "4462", "direction_id": 1, "stop_lon": -97.900803, "parent_station": null, "route_id": "171", "stop_url": "http://www.capmetro.org/gismaps/stops/4462.html", "stop_sequence": 22, "stop_id": "4462", "stop_desc": "Northeast corner of FENTON and RED WILLOW - Nearside", "stop_name": "FENTON/RED WILLOW", "location_type": null, "platform_code": null, "zone_id": null}, {"stop_lat": 30.237146, "stop_timezone": null, "wheelchair_boarding": 0, "stop_code": "4477", "direction_id": 1, "stop_lon": -97.886313, "parent_station": null, "route_id": "171", "stop_url": "http://www.capmetro.org/gismaps/stops/4477.html", "stop_sequence": 22, "stop_id": "4477", "stop_desc": "Southeast corner of SCENIC BROOK and STONE LEDGE - Nearside", "stop_name": "7126 SCENIC BROOK/STONE LEDGE", "location_type": null, "platform_code": null, "zone_id": null}, {"stop_lat": 30.238784, "stop_timezone": null, "wheelchair_boarding": 0, "stop_code": "4459", "direction_id": 1, "stop_lon": -97.899471, "parent_station": null, "route_id": "171", "stop_url": "http://www.capmetro.org/gismaps/stops/4459.html", "stop_sequence": 23, "stop_id": "4459", "stop_desc": "Southeast corner of RED WILLOW and HANBRIDGE - Nearside", "stop_name": "8551 RED WILLOW/HANBRIDGE", "location_type": null, "platform_code": null, "zone_id": null}, {"stop_lat": 30.238489, "stop_timezone": null, "wheelchair_boarding": 0, "stop_code": "4479", "direction_id": 1, "stop_lon": -97.888874, "parent_station": null, "route_id": "171", "stop_url": "http://www.capmetro.org/gismaps/stops/4479.html", "stop_sequence": 23, "stop_id": "4479", "stop_desc": "Northeast corner of SCENIC BROOK and DUNKIRK - Nearside", "stop_name": "SCENIC BROOK/DUNKIRK", "location_type": null, "platform_code": null, "zone_id": null}, {"stop_lat": 30.240953, "stop_timezone": null, "wheelchair_boarding": 0, "stop_code": "4457", "direction_id": 1, "stop_lon": -97.898066, "parent_station": null, "route_id": "171", "stop_url": "http://www.capmetro.org/gismaps/stops/4457.html", "stop_sequence": 24, "stop_id": "4457", "stop_desc": "Southeast corner of RED WILLOW and BARGAMEN - Mid-Block", "stop_name": "8525 RED WILLOW/BARGAMEN", "location_type": null, "platform_code": null, "zone_id": null}, {"stop_lat": 30.237524, "stop_timezone": null, "wheelchair_boarding": 0, "stop_code": "4481", "direction_id": 1, "stop_lon": -97.893567, "parent_station": null, "route_id": "171", "stop_url": "http://www.capmetro.org/gismaps/stops/4481.html", "stop_sequence": 24, "stop_id": "4481", "stop_desc": "Northeast corner of SCENIC BROOK and HANBRIDGE - Nearside", "stop_name": "SCENIC BROOK/HANBRIDGE", "location_type": null, "platform_code": null, "zone_id": null}, {"stop_lat": 30.24236, "stop_timezone": null, "wheelchair_boarding": 0, "stop_code": "4456", "direction_id": 1, "stop_lon": -97.896136, "parent_station": null, "route_id": "171", "stop_url": "http://www.capmetro.org/gismaps/stops/4456.html", "stop_sequence": 25, "stop_id": "4456", "stop_desc": "Southeast corner of RED WILLOW and SENECA - Farside", "stop_name": "8423 RED WILLOW/SENECA", "location_type": null, "platform_code": null, "zone_id": null}, {"stop_lat": 30.236589, "stop_timezone": null, "wheelchair_boarding": 0, "stop_code": "4483", "direction_id": 1, "stop_lon": -97.895114, "parent_station": null, "route_id": "171", "stop_url": "http://www.capmetro.org/gismaps/stops/4483.html", "stop_sequence": 25, "stop_id": "4483", "stop_desc": "Northeast corner of SCENIC BROOK and GALLATIN - Nearside", "stop_name": "7512 SCENIC BROOK/GALLATIN", "location_type": null, "platform_code": null, "zone_id": null}, {"stop_lat": 30.235646, "stop_timezone": null, "wheelchair_boarding": 0, "stop_code": "2618", "direction_id": 1, "stop_lon": -97.898749, "parent_station": null, "route_id": "171", "stop_url": "http://www.capmetro.org/gismaps/stops/2618.html", "stop_sequence": 26, "stop_id": "2618", "stop_desc": "Northeast corner of FENTON and SCENIC BROOK - Farside", "stop_name": "FENTON/SCENIC BROOK", "location_type": null, "platform_code": null, "zone_id": null}, {"stop_lat": 30.24159, "stop_timezone": null, "wheelchair_boarding": 0, "stop_code": "4453", "direction_id": 1, "stop_lon": -97.894279, "parent_station": null, "route_id": "171", "stop_url": "http://www.capmetro.org/gismaps/stops/4453.html", "stop_sequence": 26, "stop_id": "4453", "stop_desc": "Southwest corner of RED WILLOW and SMOKEY HILL - Nearside", "stop_name": "8403 RED WILLOW/SMOKEY HILL", "location_type": null, "platform_code": null, "zone_id": null}, {"stop_lat": 30.240398, "stop_timezone": null, "wheelchair_boarding": 0, "stop_code": "4452", "direction_id": 1, "stop_lon": -97.891771, "parent_station": null, "route_id": "171", "stop_url": "http://www.capmetro.org/gismaps/stops/4452.html", "stop_sequence": 27, "stop_id": "4452", "stop_desc": "Southwest corner of RED WILLOW and SILVERMINE - Nearside", "stop_name": "RED WILLOW/SILVERMINE", "location_type": null, "platform_code": null, "zone_id": null}, {"stop_lat": 30.236672, "stop_timezone": null, "wheelchair_boarding": 0, "stop_code": "4462", "direction_id": 1, "stop_lon": -97.900803, "parent_station": null, "route_id": "171", "stop_url": "http://www.capmetro.org/gismaps/stops/4462.html", "stop_sequence": 27, "stop_id": "4462", "stop_desc": "Northeast corner of FENTON and RED WILLOW - Nearside", "stop_name": "FENTON/RED WILLOW", "location_type": null, "platform_code": null, "zone_id": null}, {"stop_lat": 30.242818, "stop_timezone": null, "wheelchair_boarding": 0, "stop_code": "4450", "direction_id": 1, "stop_lon": -97.89121, "parent_station": null, "route_id": "171", "stop_url": "http://www.capmetro.org/gismaps/stops/4450.html", "stop_sequence": 28, "stop_id": "4450", "stop_desc": "Northeast corner of SILVERMINE and SAGE MOUNTAIN - Mid-Block", "stop_name": "SILVERMINE/SAGE MOUNTAIN", "location_type": null, "platform_code": null, "zone_id": null}, {"stop_lat": 30.238784, "stop_timezone": null, "wheelchair_boarding": 0, "stop_code": "4459", "direction_id": 1, "stop_lon": -97.899471, "parent_station": null, "route_id": "171", "stop_url": "http://www.capmetro.org/gismaps/stops/4459.html", "stop_sequence": 28, "stop_id": "4459", "stop_desc": "Southeast corner of RED WILLOW and HANBRIDGE - Nearside", "stop_name": "8551 RED WILLOW/HANBRIDGE", "location_type": null, "platform_code": null, "zone_id": null}, {"stop_lat": 30.245995, "stop_timezone": null, "wheelchair_boarding": 0, "stop_code": "4448", "direction_id": 1, "stop_lon": -97.888646, "parent_station": null, "route_id": "171", "stop_url": "http://www.capmetro.org/gismaps/stops/4448.html", "stop_sequence": 29, "stop_id": "4448", "stop_desc": "Southeast corner of SILVERMINE and SH 71 - Mid-Block", "stop_name": "6701 SILVERMINE/SH 71", "location_type": null, "platform_code": null, "zone_id": null}, {"stop_lat": 30.240953, "stop_timezone": null, "wheelchair_boarding": 0, "stop_code": "4457", "direction_id": 1, "stop_lon": -97.898066, "parent_station": null, "route_id": "171", "stop_url": "http://www.capmetro.org/gismaps/stops/4457.html", "stop_sequence": 29, "stop_id": "4457", "stop_desc": "Southeast corner of RED WILLOW and BARGAMEN - Mid-Block", "stop_name": "8525 RED WILLOW/BARGAMEN", "location_type": null, "platform_code": null, "zone_id": null}, {"stop_lat": 30.24236, "stop_timezone": null, "wheelchair_boarding": 0, "stop_code": "4456", "direction_id": 1, "stop_lon": -97.896136, "parent_station": null, "route_id": "171", "stop_url": "http://www.capmetro.org/gismaps/stops/4456.html", "stop_sequence": 30, "stop_id": "4456", "stop_desc": "Southeast corner of RED WILLOW and SENECA - Farside", "stop_name": "8423 RED WILLOW/SENECA", "location_type": null, "platform_code": null, "zone_id": null}, {"stop_lat": 30.237011, "stop_timezone": null, "wheelchair_boarding": 0, "stop_code": "4473", "direction_id": 1, "stop_lon": -97.878699, "parent_station": null, "route_id": "171", "stop_url": "http://www.capmetro.org/gismaps/stops/4473.html", "stop_sequence": 30, "stop_id": "4473", "stop_desc": "Northwest corner of SCENIC BROOK and SH 71 - Farside", "stop_name": "6900 SCENIC BROOK/SH 71", "location_type": null, "platform_code": null, "zone_id": null}, {"stop_lat": 30.24159, "stop_timezone": null, "wheelchair_boarding": 0, "stop_code": "4453", "direction_id": 1, "stop_lon": -97.894279, "parent_station": null, "route_id": "171", "stop_url": "http://www.capmetro.org/gismaps/stops/4453.html", "stop_sequence": 31, "stop_id": "4453", "stop_desc": "Southwest corner of RED WILLOW and SMOKEY HILL - Nearside", "stop_name": "8403 RED WILLOW/SMOKEY HILL", "location_type": null, "platform_code": null, "zone_id": null}, {"stop_lat": 30.237053, "stop_timezone": null, "wheelchair_boarding": 0, "stop_code": "4475", "direction_id": 1, "stop_lon": -97.882769, "parent_station": null, "route_id": "171", "stop_url": "http://www.capmetro.org/gismaps/stops/4475.html", "stop_sequence": 31, "stop_id": "4475", "stop_desc": "Northeast corner of SCENIC BROOK and OAK MEADOW - Nearside", "stop_name": "7008 SCENIC BROOK/OAK MEADOW", "location_type": null, "platform_code": null, "zone_id": null}, {"stop_lat": 30.240398, "stop_timezone": null, "wheelchair_boarding": 0, "stop_code": "4452", "direction_id": 1, "stop_lon": -97.891771, "parent_station": null, "route_id": "171", "stop_url": "http://www.capmetro.org/gismaps/stops/4452.html", "stop_sequence": 32, "stop_id": "4452", "stop_desc": "Southwest corner of RED WILLOW and SILVERMINE - Nearside", "stop_name": "RED WILLOW/SILVERMINE", "location_type": null, "platform_code": null, "zone_id": null}, {"stop_lat": 30.237146, "stop_timezone": null, "wheelchair_boarding": 0, "stop_code": "4477", "direction_id": 1, "stop_lon": -97.886313, "parent_station": null, "route_id": "171", "stop_url": "http://www.capmetro.org/gismaps/stops/4477.html", "stop_sequence": 32, "stop_id": "4477", "stop_desc": "Southeast corner of SCENIC BROOK and STONE LEDGE - Nearside", "stop_name": "7126 SCENIC BROOK/STONE LEDGE", "location_type": null, "platform_code": null, "zone_id": null}, {"stop_lat": 30.242818, "stop_timezone": null, "wheelchair_boarding": 0, "stop_code": "4450", "direction_id": 1, "stop_lon": -97.89121, "parent_station": null, "route_id": "171", "stop_url": "http://www.capmetro.org/gismaps/stops/4450.html", "stop_sequence": 33, "stop_id": "4450", "stop_desc": "Northeast corner of SILVERMINE and SAGE MOUNTAIN - Mid-Block", "stop_name": "SILVERMINE/SAGE MOUNTAIN", "location_type": null, "platform_code": null, "zone_id": null}, {"stop_lat": 30.238489, "stop_timezone": null, "wheelchair_boarding": 0, "stop_code": "4479", "direction_id": 1, "stop_lon": -97.888874, "parent_station": null, "route_id": "171", "stop_url": "http://www.capmetro.org/gismaps/stops/4479.html", "stop_sequence": 33, "stop_id": "4479", "stop_desc": "Northeast corner of SCENIC BROOK and DUNKIRK - Nearside", "stop_name": "SCENIC BROOK/DUNKIRK", "location_type": null, "platform_code": null, "zone_id": null}, {"stop_lat": 30.245995, "stop_timezone": null, "wheelchair_boarding": 0, "stop_code": "4448", "direction_id": 1, "stop_lon": -97.888646, "parent_station": null, "route_id": "171", "stop_url": "http://www.capmetro.org/gismaps/stops/4448.html", "stop_sequence": 34, "stop_id": "4448", "stop_desc": "Southeast corner of SILVERMINE and SH 71 - Mid-Block", "stop_name": "6701 SILVERMINE/SH 71", "location_type": null, "platform_code": null, "zone_id": null}, {"stop_lat": 30.237524, "stop_timezone": null, "wheelchair_boarding": 0, "stop_code": "4481", "direction_id": 1, "stop_lon": -97.893567, "parent_station": null, "route_id": "171", "stop_url": "http://www.capmetro.org/gismaps/stops/4481.html", "stop_sequence": 34, "stop_id": "4481", "stop_desc": "Northeast corner of SCENIC BROOK and HANBRIDGE - Nearside", "stop_name": "SCENIC BROOK/HANBRIDGE", "location_type": null, "platform_code": null, "zone_id": null}, {"stop_lat": 30.236589, "stop_timezone": null, "wheelchair_boarding": 0, "stop_code": "4483", "direction_id": 1, "stop_lon": -97.895114, "parent_station": null, "route_id": "171", "stop_url": "http://www.capmetro.org/gismaps/stops/4483.html", "stop_sequence": 35, "stop_id": "4483", "stop_desc": "Northeast corner of SCENIC BROOK and GALLATIN - Nearside", "stop_name": "7512 SCENIC BROOK/GALLATIN", "location_type": null, "platform_code": null, "zone_id": null}]
