[{"stop_lat": 30.267243, "stop_timezone": null, "wheelchair_boarding": 0, "stop_code": "5975", "direction_id": 1, "stop_lon": -97.747662, "parent_station": null, "route_id": "6", "stop_url": "http://www.capmetro.org/gismaps/stops/5975.html", "stop_sequence": 1, "stop_id": "5975", "stop_desc": "Northeast corner of 4TH and SAN ANTONIO - Farside", "stop_name": "415 4TH/SAN ANTONIO", "location_type": null, "platform_code": null, "zone_id": null}, {"stop_lat": 30.271366, "stop_timezone": null, "wheelchair_boarding": 0, "stop_code": "650", "direction_id": 1, "stop_lon": -97.743155, "parent_station": null, "route_id": "6", "stop_url": "http://www.capmetro.org/gismaps/stops/650.html", "stop_sequence": 1, "stop_id": "650", "stop_desc": "Northwest corner of COLORADO and 9TH - Nearside", "stop_name": "COLORADO/9TH", "location_type": null, "platform_code": null, "zone_id": null}, {"stop_lat": 30.270952, "stop_timezone": null, "wheelchair_boarding": 0, "stop_code": "5965", "direction_id": 1, "stop_lon": -97.744272, "parent_station": null, "route_id": "6", "stop_url": "http://www.capmetro.org/gismaps/stops/5965.html", "stop_sequence": 2, "stop_id": "5965", "stop_desc": "Northeast corner of LAVACA and 8TH - Farside", "stop_name": "813 LAVACA/8TH (FARSIDE)", "location_type": null, "platform_code": null, "zone_id": null}, {"stop_lat": 30.270427, "stop_timezone": null, "wheelchair_boarding": 0, "stop_code": "710", "direction_id": 1, "stop_lon": -97.7435, "parent_station": null, "route_id": "6", "stop_url": "http://www.capmetro.org/gismaps/stops/710.html", "stop_sequence": 2, "stop_id": "710", "stop_desc": "Northwest corner of COLORADO and 8TH - Nearside", "stop_name": "COLORADO/8TH", "location_type": null, "platform_code": null, "zone_id": null}, {"stop_lat": 30.2727, "stop_timezone": null, "wheelchair_boarding": 0, "stop_code": "506", "direction_id": 1, "stop_lon": -97.741376, "parent_station": null, "route_id": "6", "stop_url": "http://www.capmetro.org/gismaps/stops/506.html", "stop_sequence": 3, "stop_id": "506", "stop_desc": "Southwest corner of 11TH and CONGRESS - Nearside", "stop_name": "11TH/CONGRESS", "location_type": null, "platform_code": null, "zone_id": null}, {"stop_lat": 30.270613, "stop_timezone": null, "wheelchair_boarding": 0, "stop_code": "5938", "direction_id": 1, "stop_lon": -97.744215, "parent_station": null, "route_id": "6", "stop_url": "http://www.capmetro.org/gismaps/stops/5938.html", "stop_sequence": 3, "stop_id": "5938", "stop_desc": "Northwest corner of 8TH and LAVACA - Nearside", "stop_name": "216 8TH/LAVACA", "location_type": null, "platform_code": null, "zone_id": null}, {"stop_lat": 30.2727, "stop_timezone": null, "wheelchair_boarding": 0, "stop_code": "506", "direction_id": 1, "stop_lon": -97.741376, "parent_station": null, "route_id": "6", "stop_url": "http://www.capmetro.org/gismaps/stops/506.html", "stop_sequence": 4, "stop_id": "506", "stop_desc": "Southwest corner of 11TH and CONGRESS - Nearside", "stop_name": "11TH/CONGRESS", "location_type": null, "platform_code": null, "zone_id": null}, {"stop_lat": 30.272, "stop_timezone": null, "wheelchair_boarding": 0, "stop_code": "863", "direction_id": 1, "stop_lon": -97.738836, "parent_station": null, "route_id": "6", "stop_url": "http://www.capmetro.org/gismaps/stops/863.html", "stop_sequence": 4, "stop_id": "863", "stop_desc": "Southwest corner of 11TH and SAN JACINTO - Nearside", "stop_name": "11TH/SAN JACINTO SW CORNER", "location_type": null, "platform_code": null, "zone_id": null}, {"stop_lat": 30.272138, "stop_timezone": null, "wheelchair_boarding": 0, "stop_code": "1569", "direction_id": 1, "stop_lon": -97.734944, "parent_station": null, "route_id": "6", "stop_url": "http://www.capmetro.org/gismaps/stops/1569.html", "stop_sequence": 5, "stop_id": "1569", "stop_desc": "Southeast corner of RED RIVER and 12TH - Nearside", "stop_name": "1121 RED RIVER/12TH", "location_type": null, "platform_code": null, "zone_id": null}, {"stop_lat": 30.272, "stop_timezone": null, "wheelchair_boarding": 0, "stop_code": "863", "direction_id": 1, "stop_lon": -97.738836, "parent_station": null, "route_id": "6", "stop_url": "http://www.capmetro.org/gismaps/stops/863.html", "stop_sequence": 5, "stop_id": "863", "stop_desc": "Southwest corner of 11TH and SAN JACINTO - Nearside", "stop_name": "11TH/SAN JACINTO SW CORNER", "location_type": null, "platform_code": null, "zone_id": null}, {"stop_lat": 30.27191, "stop_timezone": null, "wheelchair_boarding": 0, "stop_code": "1113", "direction_id": 1, "stop_lon": -97.73128, "parent_station": null, "route_id": "6", "stop_url": "http://www.capmetro.org/gismaps/stops/1113.html", "stop_sequence": 6, "stop_id": "1113", "stop_desc": "Southwest corner of 12TH and BRANCH - Nearside", "stop_name": "12TH/BRANCH", "location_type": null, "platform_code": null, "zone_id": null}, {"stop_lat": 30.272138, "stop_timezone": null, "wheelchair_boarding": 0, "stop_code": "1569", "direction_id": 1, "stop_lon": -97.734944, "parent_station": null, "route_id": "6", "stop_url": "http://www.capmetro.org/gismaps/stops/1569.html", "stop_sequence": 6, "stop_id": "1569", "stop_desc": "Southeast corner of RED RIVER and 12TH - Nearside", "stop_name": "1121 RED RIVER/12TH", "location_type": null, "platform_code": null, "zone_id": null}, {"stop_lat": 30.27191, "stop_timezone": null, "wheelchair_boarding": 0, "stop_code": "1113", "direction_id": 1, "stop_lon": -97.73128, "parent_station": null, "route_id": "6", "stop_url": "http://www.capmetro.org/gismaps/stops/1113.html", "stop_sequence": 7, "stop_id": "1113", "stop_desc": "Southwest corner of 12TH and BRANCH - Nearside", "stop_name": "12TH/BRANCH", "location_type": null, "platform_code": null, "zone_id": null}, {"stop_lat": 30.272429, "stop_timezone": null, "wheelchair_boarding": 0, "stop_code": "1114", "direction_id": 1, "stop_lon": -97.727843, "parent_station": null, "route_id": "6", "stop_url": "http://www.capmetro.org/gismaps/stops/1114.html", "stop_sequence": 7, "stop_id": "1114", "stop_desc": "Southwest corner of 12TH and NAVASOTA - Nearside", "stop_name": "12TH/NAVASOTA", "location_type": null, "platform_code": null, "zone_id": null}, {"stop_lat": 30.272429, "stop_timezone": null, "wheelchair_boarding": 0, "stop_code": "1114", "direction_id": 1, "stop_lon": -97.727843, "parent_station": null, "route_id": "6", "stop_url": "http://www.capmetro.org/gismaps/stops/1114.html", "stop_sequence": 8, "stop_id": "1114", "stop_desc": "Southwest corner of 12TH and NAVASOTA - Nearside", "stop_name": "12TH/NAVASOTA", "location_type": null, "platform_code": null, "zone_id": null}, {"stop_lat": 30.272878, "stop_timezone": null, "wheelchair_boarding": 0, "stop_code": "4173", "direction_id": 1, "stop_lon": -97.725052, "parent_station": null, "route_id": "6", "stop_url": "http://www.capmetro.org/gismaps/stops/4173.html", "stop_sequence": 8, "stop_id": "4173", "stop_desc": "Southwest corner of 12TH and ANGELINA - Nearside", "stop_name": "1321 12TH/ANGELINA", "location_type": null, "platform_code": null, "zone_id": null}, {"stop_lat": 30.273472, "stop_timezone": null, "wheelchair_boarding": 0, "stop_code": "2856", "direction_id": 1, "stop_lon": -97.721367, "parent_station": null, "route_id": "6", "stop_url": "http://www.capmetro.org/gismaps/stops/2856.html", "stop_sequence": 9, "stop_id": "2856", "stop_desc": "Southeast corner of 12TH and LEONA - Farside", "stop_name": "1703 12TH/LEONA", "location_type": null, "platform_code": null, "zone_id": null}, {"stop_lat": 30.272878, "stop_timezone": null, "wheelchair_boarding": 0, "stop_code": "4173", "direction_id": 1, "stop_lon": -97.725052, "parent_station": null, "route_id": "6", "stop_url": "http://www.capmetro.org/gismaps/stops/4173.html", "stop_sequence": 9, "stop_id": "4173", "stop_desc": "Southwest corner of 12TH and ANGELINA - Nearside", "stop_name": "1321 12TH/ANGELINA", "location_type": null, "platform_code": null, "zone_id": null}, {"stop_lat": 30.273695, "stop_timezone": null, "wheelchair_boarding": 0, "stop_code": "1118", "direction_id": 1, "stop_lon": -97.720001, "parent_station": null, "route_id": "6", "stop_url": "http://www.capmetro.org/gismaps/stops/1118.html", "stop_sequence": 10, "stop_id": "1118", "stop_desc": "Southwest corner of 12TH and CHICON - Nearside", "stop_name": "1819 12TH/CHICON", "location_type": null, "platform_code": null, "zone_id": null}, {"stop_lat": 30.273472, "stop_timezone": null, "wheelchair_boarding": 0, "stop_code": "2856", "direction_id": 1, "stop_lon": -97.721367, "parent_station": null, "route_id": "6", "stop_url": "http://www.capmetro.org/gismaps/stops/2856.html", "stop_sequence": 10, "stop_id": "2856", "stop_desc": "Southeast corner of 12TH and LEONA - Farside", "stop_name": "1703 12TH/LEONA", "location_type": null, "platform_code": null, "zone_id": null}, {"stop_lat": 30.273695, "stop_timezone": null, "wheelchair_boarding": 0, "stop_code": "1118", "direction_id": 1, "stop_lon": -97.720001, "parent_station": null, "route_id": "6", "stop_url": "http://www.capmetro.org/gismaps/stops/1118.html", "stop_sequence": 11, "stop_id": "1118", "stop_desc": "Southwest corner of 12TH and CHICON - Nearside", "stop_name": "1819 12TH/CHICON", "location_type": null, "platform_code": null, "zone_id": null}, {"stop_lat": 30.273837, "stop_timezone": null, "wheelchair_boarding": 0, "stop_code": "1119", "direction_id": 1, "stop_lon": -97.718965, "parent_station": null, "route_id": "6", "stop_url": "http://www.capmetro.org/gismaps/stops/1119.html", "stop_sequence": 11, "stop_id": "1119", "stop_desc": "Southwest corner of 12TH and POQUITO - Nearside", "stop_name": "1919 12TH/POQUITO", "location_type": null, "platform_code": null, "zone_id": null}, {"stop_lat": 30.273837, "stop_timezone": null, "wheelchair_boarding": 0, "stop_code": "1119", "direction_id": 1, "stop_lon": -97.718965, "parent_station": null, "route_id": "6", "stop_url": "http://www.capmetro.org/gismaps/stops/1119.html", "stop_sequence": 12, "stop_id": "1119", "stop_desc": "Southwest corner of 12TH and POQUITO - Nearside", "stop_name": "1919 12TH/POQUITO", "location_type": null, "platform_code": null, "zone_id": null}, {"stop_lat": 30.274488, "stop_timezone": null, "wheelchair_boarding": 0, "stop_code": "5747", "direction_id": 1, "stop_lon": -97.714983, "parent_station": null, "route_id": "6", "stop_url": "http://www.capmetro.org/gismaps/stops/5747.html", "stop_sequence": 12, "stop_id": "5747", "stop_desc": "Northeast corner of 12TH and PLEASANT VALLEY - Mid-Block", "stop_name": "2401 12TH/PLEASANT VALLEY", "location_type": null, "platform_code": null, "zone_id": null}, {"stop_lat": 30.274815, "stop_timezone": null, "wheelchair_boarding": 0, "stop_code": "1121", "direction_id": 1, "stop_lon": -97.712846, "parent_station": null, "route_id": "6", "stop_url": "http://www.capmetro.org/gismaps/stops/1121.html", "stop_sequence": 13, "stop_id": "1121", "stop_desc": "Southeast corner of 12TH and CEDAR - Farside", "stop_name": "2601 12TH/CEDAR", "location_type": null, "platform_code": null, "zone_id": null}, {"stop_lat": 30.274488, "stop_timezone": null, "wheelchair_boarding": 0, "stop_code": "5747", "direction_id": 1, "stop_lon": -97.714983, "parent_station": null, "route_id": "6", "stop_url": "http://www.capmetro.org/gismaps/stops/5747.html", "stop_sequence": 13, "stop_id": "5747", "stop_desc": "Northeast corner of 12TH and PLEASANT VALLEY - Mid-Block", "stop_name": "2401 12TH/PLEASANT VALLEY", "location_type": null, "platform_code": null, "zone_id": null}, {"stop_lat": 30.274815, "stop_timezone": null, "wheelchair_boarding": 0, "stop_code": "1121", "direction_id": 1, "stop_lon": -97.712846, "parent_station": null, "route_id": "6", "stop_url": "http://www.capmetro.org/gismaps/stops/1121.html", "stop_sequence": 14, "stop_id": "1121", "stop_desc": "Southeast corner of 12TH and CEDAR - Farside", "stop_name": "2601 12TH/CEDAR", "location_type": null, "platform_code": null, "zone_id": null}, {"stop_lat": 30.275203, "stop_timezone": null, "wheelchair_boarding": 1, "stop_code": "1122", "direction_id": 1, "stop_lon": -97.710441, "parent_station": null, "route_id": "6", "stop_url": "http://www.capmetro.org/gismaps/stops/1122.html", "stop_sequence": 14, "stop_id": "1122", "stop_desc": "Southeast corner of 12TH and NEW YORK - Mid-Block", "stop_name": "2733 12TH/NEW YORK", "location_type": null, "platform_code": null, "zone_id": null}, {"stop_lat": 30.275203, "stop_timezone": null, "wheelchair_boarding": 1, "stop_code": "1122", "direction_id": 1, "stop_lon": -97.710441, "parent_station": null, "route_id": "6", "stop_url": "http://www.capmetro.org/gismaps/stops/1122.html", "stop_sequence": 15, "stop_id": "1122", "stop_desc": "Southeast corner of 12TH and NEW YORK - Mid-Block", "stop_name": "2733 12TH/NEW YORK", "location_type": null, "platform_code": null, "zone_id": null}, {"stop_lat": 30.275533, "stop_timezone": null, "wheelchair_boarding": 0, "stop_code": "1123", "direction_id": 1, "stop_lon": -97.708349, "parent_station": null, "route_id": "6", "stop_url": "http://www.capmetro.org/gismaps/stops/1123.html", "stop_sequence": 15, "stop_id": "1123", "stop_desc": "Southwest corner of 12TH and ALEXANDER - Nearside", "stop_name": "2863 12TH/ALEXANDER", "location_type": null, "platform_code": null, "zone_id": null}, {"stop_lat": 30.275533, "stop_timezone": null, "wheelchair_boarding": 0, "stop_code": "1123", "direction_id": 1, "stop_lon": -97.708349, "parent_station": null, "route_id": "6", "stop_url": "http://www.capmetro.org/gismaps/stops/1123.html", "stop_sequence": 16, "stop_id": "1123", "stop_desc": "Southwest corner of 12TH and ALEXANDER - Nearside", "stop_name": "2863 12TH/ALEXANDER", "location_type": null, "platform_code": null, "zone_id": null}, {"stop_lat": 30.275868, "stop_timezone": null, "wheelchair_boarding": 0, "stop_code": "1124", "direction_id": 1, "stop_lon": -97.706343, "parent_station": null, "route_id": "6", "stop_url": "http://www.capmetro.org/gismaps/stops/1124.html", "stop_sequence": 16, "stop_id": "1124", "stop_desc": "Southeast corner of 12TH and HARGRAVE - Mid-Block", "stop_name": "2917 12TH/HARGRAVE", "location_type": null, "platform_code": null, "zone_id": null}, {"stop_lat": 30.275868, "stop_timezone": null, "wheelchair_boarding": 0, "stop_code": "1124", "direction_id": 1, "stop_lon": -97.706343, "parent_station": null, "route_id": "6", "stop_url": "http://www.capmetro.org/gismaps/stops/1124.html", "stop_sequence": 17, "stop_id": "1124", "stop_desc": "Southeast corner of 12TH and HARGRAVE - Mid-Block", "stop_name": "2917 12TH/HARGRAVE", "location_type": null, "platform_code": null, "zone_id": null}, {"stop_lat": 30.276207, "stop_timezone": null, "wheelchair_boarding": 0, "stop_code": "4200", "direction_id": 1, "stop_lon": -97.70414, "parent_station": null, "route_id": "6", "stop_url": "http://www.capmetro.org/gismaps/stops/4200.html", "stop_sequence": 17, "stop_id": "4200", "stop_desc": "Southwest corner of 12TH and OAK GROVE - Nearside", "stop_name": "12TH/OAK GROVE", "location_type": null, "platform_code": null, "zone_id": null}, {"stop_lat": 30.276474, "stop_timezone": null, "wheelchair_boarding": 0, "stop_code": "1125", "direction_id": 1, "stop_lon": -97.702363, "parent_station": null, "route_id": "6", "stop_url": "http://www.capmetro.org/gismaps/stops/1125.html", "stop_sequence": 18, "stop_id": "1125", "stop_desc": "Southwest corner of 12TH and MCKINLEY - Nearside", "stop_name": "3021 12TH/MCKINLEY", "location_type": null, "platform_code": null, "zone_id": null}, {"stop_lat": 30.276207, "stop_timezone": null, "wheelchair_boarding": 0, "stop_code": "4200", "direction_id": 1, "stop_lon": -97.70414, "parent_station": null, "route_id": "6", "stop_url": "http://www.capmetro.org/gismaps/stops/4200.html", "stop_sequence": 18, "stop_id": "4200", "stop_desc": "Southwest corner of 12TH and OAK GROVE - Nearside", "stop_name": "12TH/OAK GROVE", "location_type": null, "platform_code": null, "zone_id": null}, {"stop_lat": 30.276474, "stop_timezone": null, "wheelchair_boarding": 0, "stop_code": "1125", "direction_id": 1, "stop_lon": -97.702363, "parent_station": null, "route_id": "6", "stop_url": "http://www.capmetro.org/gismaps/stops/1125.html", "stop_sequence": 19, "stop_id": "1125", "stop_desc": "Southwest corner of 12TH and MCKINLEY - Nearside", "stop_name": "3021 12TH/MCKINLEY", "location_type": null, "platform_code": null, "zone_id": null}, {"stop_lat": 30.276731, "stop_timezone": null, "wheelchair_boarding": 0, "stop_code": "1126", "direction_id": 1, "stop_lon": -97.700547, "parent_station": null, "route_id": "6", "stop_url": "http://www.capmetro.org/gismaps/stops/1126.html", "stop_sequence": 19, "stop_id": "1126", "stop_desc": "Southwest corner of 12TH and AIRPORT - Nearside", "stop_name": "3245 12TH/AIRPORT", "location_type": null, "platform_code": null, "zone_id": null}, {"stop_lat": 30.276731, "stop_timezone": null, "wheelchair_boarding": 0, "stop_code": "1126", "direction_id": 1, "stop_lon": -97.700547, "parent_station": null, "route_id": "6", "stop_url": "http://www.capmetro.org/gismaps/stops/1126.html", "stop_sequence": 20, "stop_id": "1126", "stop_desc": "Southwest corner of 12TH and AIRPORT - Nearside", "stop_name": "3245 12TH/AIRPORT", "location_type": null, "platform_code": null, "zone_id": null}, {"stop_lat": 30.277301, "stop_timezone": null, "wheelchair_boarding": 0, "stop_code": "1127", "direction_id": 1, "stop_lon": -97.697085, "parent_station": null, "route_id": "6", "stop_url": "http://www.capmetro.org/gismaps/stops/1127.html", "stop_sequence": 20, "stop_id": "1127", "stop_desc": "Southeast corner of 12TH and GREENWOOD - Farside", "stop_name": "3403 12TH/GREENWOOD", "location_type": null, "platform_code": null, "zone_id": null}, {"stop_lat": 30.277301, "stop_timezone": null, "wheelchair_boarding": 0, "stop_code": "1127", "direction_id": 1, "stop_lon": -97.697085, "parent_station": null, "route_id": "6", "stop_url": "http://www.capmetro.org/gismaps/stops/1127.html", "stop_sequence": 21, "stop_id": "1127", "stop_desc": "Southeast corner of 12TH and GREENWOOD - Farside", "stop_name": "3403 12TH/GREENWOOD", "location_type": null, "platform_code": null, "zone_id": null}, {"stop_lat": 30.277722, "stop_timezone": null, "wheelchair_boarding": 0, "stop_code": "1128", "direction_id": 1, "stop_lon": -97.694402, "parent_station": null, "route_id": "6", "stop_url": "http://www.capmetro.org/gismaps/stops/1128.html", "stop_sequence": 21, "stop_id": "1128", "stop_desc": "Southwest corner of 12TH and E M FRANKLIN - Nearside", "stop_name": "3525 12TH/E M FRANKLIN", "location_type": null, "platform_code": null, "zone_id": null}, {"stop_lat": 30.277722, "stop_timezone": null, "wheelchair_boarding": 0, "stop_code": "1128", "direction_id": 1, "stop_lon": -97.694402, "parent_station": null, "route_id": "6", "stop_url": "http://www.capmetro.org/gismaps/stops/1128.html", "stop_sequence": 22, "stop_id": "1128", "stop_desc": "Southwest corner of 12TH and E M FRANKLIN - Nearside", "stop_name": "3525 12TH/E M FRANKLIN", "location_type": null, "platform_code": null, "zone_id": null}, {"stop_lat": 30.27828, "stop_timezone": null, "wheelchair_boarding": 0, "stop_code": "4668", "direction_id": 1, "stop_lon": -97.69077, "parent_station": null, "route_id": "6", "stop_url": "http://www.capmetro.org/gismaps/stops/4668.html", "stop_sequence": 22, "stop_id": "4668", "stop_desc": "Southwest corner of 12TH and LUNA - Nearside", "stop_name": "12TH/LUNA", "location_type": null, "platform_code": null, "zone_id": null}, {"stop_lat": 30.278604, "stop_timezone": null, "wheelchair_boarding": 0, "stop_code": "4667", "direction_id": 1, "stop_lon": -97.686295, "parent_station": null, "route_id": "6", "stop_url": "http://www.capmetro.org/gismaps/stops/4667.html", "stop_sequence": 23, "stop_id": "4667", "stop_desc": "Southeast corner of 12TH and SPRINGDALE - Mid-Block", "stop_name": "4609 12TH/SPRINGDALE", "location_type": null, "platform_code": null, "zone_id": null}, {"stop_lat": 30.27828, "stop_timezone": null, "wheelchair_boarding": 0, "stop_code": "4668", "direction_id": 1, "stop_lon": -97.69077, "parent_station": null, "route_id": "6", "stop_url": "http://www.capmetro.org/gismaps/stops/4668.html", "stop_sequence": 23, "stop_id": "4668", "stop_desc": "Southwest corner of 12TH and LUNA - Nearside", "stop_name": "12TH/LUNA", "location_type": null, "platform_code": null, "zone_id": null}, {"stop_lat": 30.278282, "stop_timezone": null, "wheelchair_boarding": 0, "stop_code": "1130", "direction_id": 1, "stop_lon": -97.684544, "parent_station": null, "route_id": "6", "stop_url": "http://www.capmetro.org/gismaps/stops/1130.html", "stop_sequence": 24, "stop_id": "1130", "stop_desc": "Northeast corner of WEBBERVILLE and 12TH - Farside", "stop_name": "1201 WEBBERVILLE/12TH", "location_type": null, "platform_code": null, "zone_id": null}, {"stop_lat": 30.278604, "stop_timezone": null, "wheelchair_boarding": 0, "stop_code": "4667", "direction_id": 1, "stop_lon": -97.686295, "parent_station": null, "route_id": "6", "stop_url": "http://www.capmetro.org/gismaps/stops/4667.html", "stop_sequence": 24, "stop_id": "4667", "stop_desc": "Southeast corner of 12TH and SPRINGDALE - Mid-Block", "stop_name": "4609 12TH/SPRINGDALE", "location_type": null, "platform_code": null, "zone_id": null}, {"stop_lat": 30.278282, "stop_timezone": null, "wheelchair_boarding": 0, "stop_code": "1130", "direction_id": 1, "stop_lon": -97.684544, "parent_station": null, "route_id": "6", "stop_url": "http://www.capmetro.org/gismaps/stops/1130.html", "stop_sequence": 25, "stop_id": "1130", "stop_desc": "Northeast corner of WEBBERVILLE and 12TH - Farside", "stop_name": "1201 WEBBERVILLE/12TH", "location_type": null, "platform_code": null, "zone_id": null}, {"stop_lat": 30.279406, "stop_timezone": null, "wheelchair_boarding": 0, "stop_code": "1131", "direction_id": 1, "stop_lon": -97.682614, "parent_station": null, "route_id": "6", "stop_url": "http://www.capmetro.org/gismaps/stops/1131.html", "stop_sequence": 25, "stop_id": "1131", "stop_desc": "Southwest corner of WEBBERVILLE and RIBBECKE - Nearside", "stop_name": "1401 WEBBERVILLE/RIBBECKE", "location_type": null, "platform_code": null, "zone_id": null}, {"stop_lat": 30.279406, "stop_timezone": null, "wheelchair_boarding": 0, "stop_code": "1131", "direction_id": 1, "stop_lon": -97.682614, "parent_station": null, "route_id": "6", "stop_url": "http://www.capmetro.org/gismaps/stops/1131.html", "stop_sequence": 26, "stop_id": "1131", "stop_desc": "Southwest corner of WEBBERVILLE and RIBBECKE - Nearside", "stop_name": "1401 WEBBERVILLE/RIBBECKE", "location_type": null, "platform_code": null, "zone_id": null}, {"stop_lat": 30.279744, "stop_timezone": null, "wheelchair_boarding": 0, "stop_code": "1132", "direction_id": 1, "stop_lon": -97.680966, "parent_station": null, "route_id": "6", "stop_url": "http://www.capmetro.org/gismaps/stops/1132.html", "stop_sequence": 26, "stop_id": "1132", "stop_desc": "Southwest corner of WEBBERVILLE and FORT BRANCH - Nearside", "stop_name": "1419 WEBBERVILLE/FORT BRANCH", "location_type": null, "platform_code": null, "zone_id": null}, {"stop_lat": 30.279744, "stop_timezone": null, "wheelchair_boarding": 0, "stop_code": "1132", "direction_id": 1, "stop_lon": -97.680966, "parent_station": null, "route_id": "6", "stop_url": "http://www.capmetro.org/gismaps/stops/1132.html", "stop_sequence": 27, "stop_id": "1132", "stop_desc": "Southwest corner of WEBBERVILLE and FORT BRANCH - Nearside", "stop_name": "1419 WEBBERVILLE/FORT BRANCH", "location_type": null, "platform_code": null, "zone_id": null}, {"stop_lat": 30.278343, "stop_timezone": null, "wheelchair_boarding": 0, "stop_code": "5461", "direction_id": 1, "stop_lon": -97.680174, "parent_station": null, "route_id": "6", "stop_url": "http://www.capmetro.org/gismaps/stops/5461.html", "stop_sequence": 27, "stop_id": "5461", "stop_desc": "Southwest corner of FORT BRANCH and DELANO - Nearside", "stop_name": "1404 FORT BRANCH/DELANO", "location_type": null, "platform_code": null, "zone_id": null}, {"stop_lat": 30.27693, "stop_timezone": null, "wheelchair_boarding": 0, "stop_code": "1133", "direction_id": 1, "stop_lon": -97.680222, "parent_station": null, "route_id": "6", "stop_url": "http://www.capmetro.org/gismaps/stops/1133.html", "stop_sequence": 28, "stop_id": "1133", "stop_desc": "Northwest corner of FORT BRANCH and ELEANOR - Nearside", "stop_name": "1302 FORT BRANCH/ELEANOR", "location_type": null, "platform_code": null, "zone_id": null}, {"stop_lat": 30.278343, "stop_timezone": null, "wheelchair_boarding": 0, "stop_code": "5461", "direction_id": 1, "stop_lon": -97.680174, "parent_station": null, "route_id": "6", "stop_url": "http://www.capmetro.org/gismaps/stops/5461.html", "stop_sequence": 28, "stop_id": "5461", "stop_desc": "Southwest corner of FORT BRANCH and DELANO - Nearside", "stop_name": "1404 FORT BRANCH/DELANO", "location_type": null, "platform_code": null, "zone_id": null}, {"stop_lat": 30.27398, "stop_timezone": null, "wheelchair_boarding": 0, "stop_code": "1087", "direction_id": 1, "stop_lon": -97.67936, "parent_station": null, "route_id": "6", "stop_url": "http://www.capmetro.org/gismaps/stops/1087.html", "stop_sequence": 29, "stop_id": "1087", "stop_desc": "Northeast corner of ELEANOR and HUDSON - Farside", "stop_name": "HUDSON/ELEANOR", "location_type": null, "platform_code": null, "zone_id": null}, {"stop_lat": 30.27693, "stop_timezone": null, "wheelchair_boarding": 0, "stop_code": "1133", "direction_id": 1, "stop_lon": -97.680222, "parent_station": null, "route_id": "6", "stop_url": "http://www.capmetro.org/gismaps/stops/1133.html", "stop_sequence": 29, "stop_id": "1133", "stop_desc": "Northwest corner of FORT BRANCH and ELEANOR - Nearside", "stop_name": "1302 FORT BRANCH/ELEANOR", "location_type": null, "platform_code": null, "zone_id": null}, {"stop_lat": 30.27398, "stop_timezone": null, "wheelchair_boarding": 0, "stop_code": "1087", "direction_id": 1, "stop_lon": -97.67936, "parent_station": null, "route_id": "6", "stop_url": "http://www.capmetro.org/gismaps/stops/1087.html", "stop_sequence": 30, "stop_id": "1087", "stop_desc": "Northeast corner of ELEANOR and HUDSON - Farside", "stop_name": "HUDSON/ELEANOR", "location_type": null, "platform_code": null, "zone_id": null}, {"stop_lat": 30.273423, "stop_timezone": null, "wheelchair_boarding": 0, "stop_code": "1135", "direction_id": 1, "stop_lon": -97.677929, "parent_station": null, "route_id": "6", "stop_url": "http://www.capmetro.org/gismaps/stops/1135.html", "stop_sequence": 30, "stop_id": "1135", "stop_desc": "Northeast corner of DELANO and HUDSON - Farside", "stop_name": "1201 DELANO/HUDSON", "location_type": null, "platform_code": null, "zone_id": null}, {"stop_lat": 30.273423, "stop_timezone": null, "wheelchair_boarding": 0, "stop_code": "1135", "direction_id": 1, "stop_lon": -97.677929, "parent_station": null, "route_id": "6", "stop_url": "http://www.capmetro.org/gismaps/stops/1135.html", "stop_sequence": 31, "stop_id": "1135", "stop_desc": "Northeast corner of DELANO and HUDSON - Farside", "stop_name": "1201 DELANO/HUDSON", "location_type": null, "platform_code": null, "zone_id": null}, {"stop_lat": 30.276475, "stop_timezone": null, "wheelchair_boarding": 0, "stop_code": "5911", "direction_id": 1, "stop_lon": -97.678406, "parent_station": null, "route_id": "6", "stop_url": "http://www.capmetro.org/gismaps/stops/5911.html", "stop_sequence": 31, "stop_id": "5911", "stop_desc": "Southeast corner of JACKIE ROBINSON and DELANO - Farside", "stop_name": "5507 JACKIE ROBINSON/DELANO", "location_type": null, "platform_code": null, "zone_id": null}, {"stop_lat": 30.276584, "stop_timezone": null, "wheelchair_boarding": 0, "stop_code": "1137", "direction_id": 1, "stop_lon": -97.675697, "parent_station": null, "route_id": "6", "stop_url": "http://www.capmetro.org/gismaps/stops/1137.html", "stop_sequence": 32, "stop_id": "1137", "stop_desc": "Northeast corner of TANNEHILL and JACKIE ROBINSON - Farside", "stop_name": "3811 TANNEHILL/JACKIE ROBINSON", "location_type": null, "platform_code": null, "zone_id": null}, {"stop_lat": 30.276475, "stop_timezone": null, "wheelchair_boarding": 0, "stop_code": "5911", "direction_id": 1, "stop_lon": -97.678406, "parent_station": null, "route_id": "6", "stop_url": "http://www.capmetro.org/gismaps/stops/5911.html", "stop_sequence": 32, "stop_id": "5911", "stop_desc": "Southeast corner of JACKIE ROBINSON and DELANO - Farside", "stop_name": "5507 JACKIE ROBINSON/DELANO", "location_type": null, "platform_code": null, "zone_id": null}, {"stop_lat": 30.276584, "stop_timezone": null, "wheelchair_boarding": 0, "stop_code": "1137", "direction_id": 1, "stop_lon": -97.675697, "parent_station": null, "route_id": "6", "stop_url": "http://www.capmetro.org/gismaps/stops/1137.html", "stop_sequence": 33, "stop_id": "1137", "stop_desc": "Northeast corner of TANNEHILL and JACKIE ROBINSON - Farside", "stop_name": "3811 TANNEHILL/JACKIE ROBINSON", "location_type": null, "platform_code": null, "zone_id": null}, {"stop_lat": 30.279192, "stop_timezone": null, "wheelchair_boarding": 0, "stop_code": "1138", "direction_id": 1, "stop_lon": -97.673977, "parent_station": null, "route_id": "6", "stop_url": "http://www.capmetro.org/gismaps/stops/1138.html", "stop_sequence": 33, "stop_id": "1138", "stop_desc": "Southeast corner of TANNEHILL and SAMUEL HUSTON - Nearside", "stop_name": "4021 TANNEHILL/SAMUEL HUSTON", "location_type": null, "platform_code": null, "zone_id": null}, {"stop_lat": 30.279192, "stop_timezone": null, "wheelchair_boarding": 0, "stop_code": "1138", "direction_id": 1, "stop_lon": -97.673977, "parent_station": null, "route_id": "6", "stop_url": "http://www.capmetro.org/gismaps/stops/1138.html", "stop_sequence": 34, "stop_id": "1138", "stop_desc": "Southeast corner of TANNEHILL and SAMUEL HUSTON - Nearside", "stop_name": "4021 TANNEHILL/SAMUEL HUSTON", "location_type": null, "platform_code": null, "zone_id": null}, {"stop_lat": 30.283973, "stop_timezone": null, "wheelchair_boarding": 1, "stop_code": "5007", "direction_id": 1, "stop_lon": -97.671344, "parent_station": null, "route_id": "6", "stop_url": "http://www.capmetro.org/gismaps/stops/5007.html", "stop_sequence": 34, "stop_id": "5007", "stop_desc": "Southeast corner of TANNEHILL and WEBBERVILLE - Mid-Block", "stop_name": "TANNEHILL/WEBBERVILLE", "location_type": null, "platform_code": null, "zone_id": null}, {"stop_lat": 30.283973, "stop_timezone": null, "wheelchair_boarding": 1, "stop_code": "5007", "direction_id": 1, "stop_lon": -97.671344, "parent_station": null, "route_id": "6", "stop_url": "http://www.capmetro.org/gismaps/stops/5007.html", "stop_sequence": 35, "stop_id": "5007", "stop_desc": "Southeast corner of TANNEHILL and WEBBERVILLE - Mid-Block", "stop_name": "TANNEHILL/WEBBERVILLE", "location_type": null, "platform_code": null, "zone_id": null}]
