[{"stop_lat": 30.249906, "stop_timezone": null, "wheelchair_boarding": 0, "stop_code": "1246", "direction_id": 1, "stop_lon": -97.738594, "parent_station": null, "route_id": "985", "stop_url": null, "stop_sequence": 1, "stop_id": "1246", "stop_desc": "001000 RIVERSIDE & TRAVIS HEIGHTS", "stop_name": "1000 EAST RIVERSIDE/TRAVIS HEIGHTS", "location_type": null, "platform_code": null, "zone_id": null}, {"stop_lat": 30.253, "stop_timezone": null, "wheelchair_boarding": 0, "stop_code": "4024", "direction_id": 1, "stop_lon": -97.74295, "parent_station": null, "route_id": "985", "stop_url": null, "stop_sequence": 2, "stop_id": "4024", "stop_desc": "000504 RIVERSIDE & NEWNING", "stop_name": "504 RIVERSIDE/NEWNING", "location_type": null, "platform_code": null, "zone_id": null}, {"stop_lat": 30.255868, "stop_timezone": null, "wheelchair_boarding": 0, "stop_code": "1249", "direction_id": 1, "stop_lon": -97.74546, "parent_station": null, "route_id": "985", "stop_url": null, "stop_sequence": 3, "stop_id": "1249", "stop_desc": "000150 RIVERSIDE & NEWNING", "stop_name": "150 RIVERSIDE/NEWNING", "location_type": null, "platform_code": null, "zone_id": null}, {"stop_lat": 30.258306, "stop_timezone": null, "wheelchair_boarding": 0, "stop_code": "5942", "direction_id": 1, "stop_lon": -97.747938, "parent_station": null, "route_id": "985", "stop_url": null, "stop_sequence": 4, "stop_id": "5942", "stop_desc": "000210 RIVERSIDE & BARTON SPRINGS", "stop_name": "210 RIVERSIDE/BARTON SPRINGS", "location_type": null, "platform_code": null, "zone_id": null}, {"stop_lat": 30.265792, "stop_timezone": null, "wheelchair_boarding": 0, "stop_code": "5944", "direction_id": 1, "stop_lon": -97.746213, "parent_station": null, "route_id": "985", "stop_url": null, "stop_sequence": 5, "stop_id": "5944", "stop_desc": "000215 LAVACA & 3RD", "stop_name": "LAVACA/3RD", "location_type": null, "platform_code": null, "zone_id": null}, {"stop_lat": 30.268613, "stop_timezone": null, "wheelchair_boarding": 0, "stop_code": "2605", "direction_id": 1, "stop_lon": -97.745114, "parent_station": null, "route_id": "985", "stop_url": null, "stop_sequence": 6, "stop_id": "2605", "stop_desc": "000517 LAVACA & 6TH", "stop_name": "517 LAVACA/6TH", "location_type": null, "platform_code": null, "zone_id": null}, {"stop_lat": 30.271378, "stop_timezone": null, "wheelchair_boarding": 0, "stop_code": "4007", "direction_id": 1, "stop_lon": -97.744115, "parent_station": null, "route_id": "985", "stop_url": null, "stop_sequence": 7, "stop_id": "4007", "stop_desc": "000800 LAVACA & 9TH", "stop_name": "LAVACA/9TH", "location_type": null, "platform_code": null, "zone_id": null}, {"stop_lat": 30.27441, "stop_timezone": null, "wheelchair_boarding": 0, "stop_code": "590", "direction_id": 1, "stop_lon": -97.743, "parent_station": null, "route_id": "985", "stop_url": null, "stop_sequence": 8, "stop_id": "590", "stop_desc": "001100 LAVACA & 12TH", "stop_name": "LAVACA/12TH", "location_type": null, "platform_code": null, "zone_id": null}, {"stop_lat": 30.277383, "stop_timezone": null, "wheelchair_boarding": 0, "stop_code": "593", "direction_id": 1, "stop_lon": -97.741894, "parent_station": null, "route_id": "985", "stop_url": null, "stop_sequence": 9, "stop_id": "593", "stop_desc": "001415 LAVACA & 15TH", "stop_name": "LAVACA/15TH", "location_type": null, "platform_code": null, "zone_id": null}, {"stop_lat": 30.278834, "stop_timezone": null, "wheelchair_boarding": 0, "stop_code": "5940", "direction_id": 1, "stop_lon": -97.741358, "parent_station": null, "route_id": "985", "stop_url": null, "stop_sequence": 10, "stop_id": "5940", "stop_desc": "001609 LAVACA & 17TH", "stop_name": "1609 LAVACA/17TH (MB)", "location_type": null, "platform_code": null, "zone_id": null}, {"stop_lat": 30.27991, "stop_timezone": null, "wheelchair_boarding": 0, "stop_code": "2522", "direction_id": 1, "stop_lon": -97.73596, "parent_station": null, "route_id": "985", "stop_url": null, "stop_sequence": 11, "stop_id": "2522", "stop_desc": "000311 MARTIN LUTHER KING & SAN JACINTO", "stop_name": "311 MARTIN LUTHER KING/SAN JACINTO", "location_type": null, "platform_code": null, "zone_id": null}, {"stop_lat": 30.27926, "stop_timezone": null, "wheelchair_boarding": 0, "stop_code": "2768", "direction_id": 1, "stop_lon": -97.73353, "parent_station": null, "route_id": "985", "stop_url": null, "stop_sequence": 12, "stop_id": "2768", "stop_desc": "000411 MARTIN LUTHER KING & TRINITY", "stop_name": "MARTIN LUTHER KING/TRINITY MIDBLOCK", "location_type": null, "platform_code": null, "zone_id": null}, {"stop_lat": 30.480719, "stop_timezone": null, "wheelchair_boarding": 0, "stop_code": "5230", "direction_id": 1, "stop_lon": -97.786775, "parent_station": null, "route_id": "985", "stop_url": null, "stop_sequence": 13, "stop_id": "5230", "stop_desc": "10900G LYNDHURST & LAKELINE", "stop_name": "LAKELINE STATION BAY G", "location_type": null, "platform_code": null, "zone_id": null}, {"stop_lat": 30.586407, "stop_timezone": null, "wheelchair_boarding": 0, "stop_code": "5387", "direction_id": 1, "stop_lon": -97.855296, "parent_station": null, "route_id": "985", "stop_url": null, "stop_sequence": 14, "stop_id": "5387", "stop_desc": "000000 US 183 & EVANS", "stop_name": "LEANDER STATION BAY D", "location_type": null, "platform_code": null, "zone_id": null}]
