[{"stop_lat": 30.234966, "stop_timezone": null, "wheelchair_boarding": 0, "stop_code": "2597", "direction_id": 1, "stop_lon": -97.87694, "parent_station": null, "route_id": "333", "stop_url": null, "stop_sequence": 1, "stop_id": "2597", "stop_desc": "007101 SH 71 & US 290", "stop_name": "OAK HILL PLAZA", "location_type": null, "platform_code": null, "zone_id": null}, {"stop_lat": 30.2189, "stop_timezone": null, "wheelchair_boarding": 0, "stop_code": "4446", "direction_id": 1, "stop_lon": -97.85469, "parent_station": null, "route_id": "333", "stop_url": null, "stop_sequence": 1, "stop_id": "4446", "stop_desc": "005125 CONVICT HILL & WOODCREEK", "stop_name": "5125 CONVICT HILL/WOODCREEK", "location_type": null, "platform_code": null, "zone_id": null}, {"stop_lat": 30.189223, "stop_timezone": null, "wheelchair_boarding": 0, "stop_code": "5703", "direction_id": 1, "stop_lon": -97.768461, "parent_station": null, "route_id": "333", "stop_url": null, "stop_sequence": 1, "stop_id": "5703", "stop_desc": "001626 WILLIAM CANNON & BLUFF SPRINGS", "stop_name": "1626 WILLIAM CANNON/BLUFF SPRINGS", "location_type": null, "platform_code": null, "zone_id": null}, {"stop_lat": 30.231484, "stop_timezone": null, "wheelchair_boarding": 0, "stop_code": "5731", "direction_id": 1, "stop_lon": -97.883441, "parent_station": null, "route_id": "333", "stop_url": null, "stop_sequence": 1, "stop_id": "5731", "stop_desc": "000000 PINNACLE TURNOFF & US 290", "stop_name": "ACC PINNACLE SOUTH ENTRANCE", "location_type": null, "platform_code": null, "zone_id": null}, {"stop_lat": 30.18343, "stop_timezone": null, "wheelchair_boarding": 0, "stop_code": "2478", "direction_id": 1, "stop_lon": -97.76863, "parent_station": null, "route_id": "333", "stop_url": null, "stop_sequence": 2, "stop_id": "2478", "stop_desc": "001901 BLUE MEADOW & BLUFF SPRINGS", "stop_name": "1901 BLUE MEADOW/BLUFF SPRINGS", "location_type": null, "platform_code": null, "zone_id": null}, {"stop_lat": 30.232994, "stop_timezone": null, "wheelchair_boarding": 0, "stop_code": "3203", "direction_id": 1, "stop_lon": -97.864575, "parent_station": null, "route_id": "333", "stop_url": null, "stop_sequence": 2, "stop_id": "3203", "stop_desc": "006301 WILLIAM CANNON & US 290", "stop_name": "6301 WILLIAM CANNON/US 290", "location_type": null, "platform_code": null, "zone_id": null}, {"stop_lat": 30.217966, "stop_timezone": null, "wheelchair_boarding": 0, "stop_code": "4445", "direction_id": 1, "stop_lon": -97.852755, "parent_station": null, "route_id": "333", "stop_url": null, "stop_sequence": 2, "stop_id": "4445", "stop_desc": "004923 CONVICT HILL & FLAMING OAK", "stop_name": "4923 CONVICT HILL/FLAMING OAK", "location_type": null, "platform_code": null, "zone_id": null}, {"stop_lat": 30.251247, "stop_timezone": null, "wheelchair_boarding": 0, "stop_code": "5562", "direction_id": 1, "stop_lon": -97.893733, "parent_station": null, "route_id": "333", "stop_url": null, "stop_sequence": 2, "stop_id": "5562", "stop_desc": "000000 SH 71 & COVERED BRIDGE", "stop_name": "SH 71/COVERED BRIDGE", "location_type": null, "platform_code": null, "zone_id": null}, {"stop_lat": 30.18256, "stop_timezone": null, "wheelchair_boarding": 0, "stop_code": "2479", "direction_id": 1, "stop_lon": -97.766312, "parent_station": null, "route_id": "333", "stop_url": null, "stop_sequence": 3, "stop_id": "2479", "stop_desc": "002005 BLUE MEADOW & ELM CREEK", "stop_name": "2005 BLUE MEADOW/ELM CREEK", "location_type": null, "platform_code": null, "zone_id": null}, {"stop_lat": 30.234966, "stop_timezone": null, "wheelchair_boarding": 0, "stop_code": "2597", "direction_id": 1, "stop_lon": -97.87694, "parent_station": null, "route_id": "333", "stop_url": null, "stop_sequence": 3, "stop_id": "2597", "stop_desc": "007101 SH 71 & US 290", "stop_name": "OAK HILL PLAZA", "location_type": null, "platform_code": null, "zone_id": null}, {"stop_lat": 30.22928, "stop_timezone": null, "wheelchair_boarding": 0, "stop_code": "3204", "direction_id": 1, "stop_lon": -97.86627, "parent_station": null, "route_id": "333", "stop_url": null, "stop_sequence": 3, "stop_id": "3204", "stop_desc": "007000 ESCARPMENT & KENOSHA", "stop_name": "ESCARPMENT/KENOSHA", "location_type": null, "platform_code": null, "zone_id": null}, {"stop_lat": 30.216888, "stop_timezone": null, "wheelchair_boarding": 0, "stop_code": "3887", "direction_id": 1, "stop_lon": -97.846068, "parent_station": null, "route_id": "333", "stop_url": null, "stop_sequence": 3, "stop_id": "3887", "stop_desc": "004600 CONVICT HILL & LATTA", "stop_name": "CONVICT HILL/LATTA/BRUSH COUNTRY", "location_type": null, "platform_code": null, "zone_id": null}, {"stop_lat": 30.232994, "stop_timezone": null, "wheelchair_boarding": 0, "stop_code": "3203", "direction_id": 1, "stop_lon": -97.864575, "parent_station": null, "route_id": "333", "stop_url": null, "stop_sequence": 4, "stop_id": "3203", "stop_desc": "006301 WILLIAM CANNON & US 290", "stop_name": "6301 WILLIAM CANNON/US 290", "location_type": null, "platform_code": null, "zone_id": null}, {"stop_lat": 30.22496, "stop_timezone": null, "wheelchair_boarding": 0, "stop_code": "3205", "direction_id": 1, "stop_lon": -97.86717, "parent_station": null, "route_id": "333", "stop_url": null, "stop_sequence": 4, "stop_id": "3205", "stop_desc": "006115 CONVICT HILL & OLIVER LOVING", "stop_name": "6115 CONVICT HILL/OLIVER LOVING", "location_type": null, "platform_code": null, "zone_id": null}, {"stop_lat": 30.215081, "stop_timezone": null, "wheelchair_boarding": 0, "stop_code": "3211", "direction_id": 1, "stop_lon": -97.849878, "parent_station": null, "route_id": "333", "stop_url": null, "stop_sequence": 4, "stop_id": "3211", "stop_desc": "007600 LATTA & ISLANDER", "stop_name": "7600 LATTA/ISLANDER", "location_type": null, "platform_code": null, "zone_id": null}, {"stop_lat": 30.18154, "stop_timezone": null, "wheelchair_boarding": 0, "stop_code": "4355", "direction_id": 1, "stop_lon": -97.76431, "parent_station": null, "route_id": "333", "stop_url": null, "stop_sequence": 4, "stop_id": "4355", "stop_desc": "002203 BLUE MEADOW & BLUE DAWN", "stop_name": "2203 BLUE MEADOW/BLUE DAWN", "location_type": null, "platform_code": null, "zone_id": null}, {"stop_lat": 30.180184, "stop_timezone": null, "wheelchair_boarding": 0, "stop_code": "2480", "direction_id": 1, "stop_lon": -97.760843, "parent_station": null, "route_id": "333", "stop_url": null, "stop_sequence": 5, "stop_id": "2480", "stop_desc": "002421 BLUE MEADOW & BITTEROOT", "stop_name": "2421 BLUE MEADOW/BITTEROOT", "location_type": null, "platform_code": null, "zone_id": null}, {"stop_lat": 30.22928, "stop_timezone": null, "wheelchair_boarding": 0, "stop_code": "3204", "direction_id": 1, "stop_lon": -97.86627, "parent_station": null, "route_id": "333", "stop_url": null, "stop_sequence": 5, "stop_id": "3204", "stop_desc": "007000 ESCARPMENT & KENOSHA", "stop_name": "ESCARPMENT/KENOSHA", "location_type": null, "platform_code": null, "zone_id": null}, {"stop_lat": 30.223318, "stop_timezone": null, "wheelchair_boarding": 0, "stop_code": "3206", "direction_id": 1, "stop_lon": -97.863788, "parent_station": null, "route_id": "333", "stop_url": null, "stop_sequence": 5, "stop_id": "3206", "stop_desc": "005801 CONVICT HILL & CANNON MOUNTAIN", "stop_name": "5801 CONVICT HILL/CANNON MOUNTAIN", "location_type": null, "platform_code": null, "zone_id": null}, {"stop_lat": 30.21334, "stop_timezone": null, "wheelchair_boarding": 0, "stop_code": "3212", "direction_id": 1, "stop_lon": -97.85055, "parent_station": null, "route_id": "333", "stop_url": null, "stop_sequence": 5, "stop_id": "3212", "stop_desc": "007704 COPANO & COPPERAS", "stop_name": "7704 COPANO/COPPERAS", "location_type": null, "platform_code": null, "zone_id": null}, {"stop_lat": 30.22496, "stop_timezone": null, "wheelchair_boarding": 0, "stop_code": "3205", "direction_id": 1, "stop_lon": -97.86717, "parent_station": null, "route_id": "333", "stop_url": null, "stop_sequence": 6, "stop_id": "3205", "stop_desc": "006115 CONVICT HILL & OLIVER LOVING", "stop_name": "6115 CONVICT HILL/OLIVER LOVING", "location_type": null, "platform_code": null, "zone_id": null}, {"stop_lat": 30.22249, "stop_timezone": null, "wheelchair_boarding": 0, "stop_code": "3207", "direction_id": 1, "stop_lon": -97.86206, "parent_station": null, "route_id": "333", "stop_url": null, "stop_sequence": 6, "stop_id": "3207", "stop_desc": "005701 CONVICT HILL & WAGON TRAIN", "stop_name": "5701 CONVICT HILL/WAGON TRAIN", "location_type": null, "platform_code": null, "zone_id": null}, {"stop_lat": 30.21095, "stop_timezone": null, "wheelchair_boarding": 0, "stop_code": "3213", "direction_id": 1, "stop_lon": -97.84958, "parent_station": null, "route_id": "333", "stop_url": null, "stop_sequence": 6, "stop_id": "3213", "stop_desc": "007814 COPANO & SARASOTA", "stop_name": "7814 COPANO/SARASOTA", "location_type": null, "platform_code": null, "zone_id": null}, {"stop_lat": 30.17944, "stop_timezone": null, "wheelchair_boarding": 0, "stop_code": "5121", "direction_id": 1, "stop_lon": -97.758205, "parent_station": null, "route_id": "333", "stop_url": null, "stop_sequence": 6, "stop_id": "5121", "stop_desc": "004415 BLUE MEADOW & DEEP", "stop_name": "4415 BLUE MEADOW/DEEP", "location_type": null, "platform_code": null, "zone_id": null}, {"stop_lat": 30.223318, "stop_timezone": null, "wheelchair_boarding": 0, "stop_code": "3206", "direction_id": 1, "stop_lon": -97.863788, "parent_station": null, "route_id": "333", "stop_url": null, "stop_sequence": 7, "stop_id": "3206", "stop_desc": "005801 CONVICT HILL & CANNON MOUNTAIN", "stop_name": "5801 CONVICT HILL/CANNON MOUNTAIN", "location_type": null, "platform_code": null, "zone_id": null}, {"stop_lat": 30.22047, "stop_timezone": null, "wheelchair_boarding": 0, "stop_code": "3208", "direction_id": 1, "stop_lon": -97.85798, "parent_station": null, "route_id": "333", "stop_url": null, "stop_sequence": 7, "stop_id": "3208", "stop_desc": "005401 CONVICT HILL & BECKETT", "stop_name": "5401 CONVICT HILL/BECKETT", "location_type": null, "platform_code": null, "zone_id": null}, {"stop_lat": 30.209294, "stop_timezone": null, "wheelchair_boarding": 0, "stop_code": "3214", "direction_id": 1, "stop_lon": -97.848453, "parent_station": null, "route_id": "333", "stop_url": null, "stop_sequence": 7, "stop_id": "3214", "stop_desc": "004403 ESKEW & COPANO", "stop_name": "4403 ESKEW/COPANO", "location_type": null, "platform_code": null, "zone_id": null}, {"stop_lat": 30.178217, "stop_timezone": null, "wheelchair_boarding": 0, "stop_code": "5159", "direction_id": 1, "stop_lon": -97.755781, "parent_station": null, "route_id": "333", "stop_url": null, "stop_sequence": 7, "stop_id": "5159", "stop_desc": "004500 BLUE MEADOW & GRANGER", "stop_name": "BLUE MEADOW/GRANGER", "location_type": null, "platform_code": null, "zone_id": null}, {"stop_lat": 30.22249, "stop_timezone": null, "wheelchair_boarding": 0, "stop_code": "3207", "direction_id": 1, "stop_lon": -97.86206, "parent_station": null, "route_id": "333", "stop_url": null, "stop_sequence": 8, "stop_id": "3207", "stop_desc": "005701 CONVICT HILL & WAGON TRAIN", "stop_name": "5701 CONVICT HILL/WAGON TRAIN", "location_type": null, "platform_code": null, "zone_id": null}, {"stop_lat": 30.207733, "stop_timezone": null, "wheelchair_boarding": 0, "stop_code": "3215", "direction_id": 1, "stop_lon": -97.846601, "parent_station": null, "route_id": "333", "stop_url": null, "stop_sequence": 8, "stop_id": "3215", "stop_desc": "004200 ESKEW & MAUAI", "stop_name": "ESKEW/MAUAI", "location_type": null, "platform_code": null, "zone_id": null}, {"stop_lat": 30.2189, "stop_timezone": null, "wheelchair_boarding": 0, "stop_code": "4446", "direction_id": 1, "stop_lon": -97.85469, "parent_station": null, "route_id": "333", "stop_url": null, "stop_sequence": 8, "stop_id": "4446", "stop_desc": "005125 CONVICT HILL & WOODCREEK", "stop_name": "5125 CONVICT HILL/WOODCREEK", "location_type": null, "platform_code": null, "zone_id": null}, {"stop_lat": 30.17821, "stop_timezone": null, "wheelchair_boarding": 0, "stop_code": "5136", "direction_id": 1, "stop_lon": -97.75476, "parent_station": null, "route_id": "333", "stop_url": null, "stop_sequence": 8, "stop_id": "5136", "stop_desc": "006930 MEADOW LAKE & BLUE MEADOW", "stop_name": "MEADOW LAKE/BLUE MEADOW", "location_type": null, "platform_code": null, "zone_id": null}, {"stop_lat": 30.179042, "stop_timezone": null, "wheelchair_boarding": 0, "stop_code": "2482", "direction_id": 1, "stop_lon": -97.753083, "parent_station": null, "route_id": "333", "stop_url": null, "stop_sequence": 9, "stop_id": "2482", "stop_desc": "006805 MEADOW LAKE & BUCKS RUN", "stop_name": "6805 MEADOW LAKE/BUCKS RUN", "location_type": null, "platform_code": null, "zone_id": null}, {"stop_lat": 30.22047, "stop_timezone": null, "wheelchair_boarding": 0, "stop_code": "3208", "direction_id": 1, "stop_lon": -97.85798, "parent_station": null, "route_id": "333", "stop_url": null, "stop_sequence": 9, "stop_id": "3208", "stop_desc": "005401 CONVICT HILL & BECKETT", "stop_name": "5401 CONVICT HILL/BECKETT", "location_type": null, "platform_code": null, "zone_id": null}, {"stop_lat": 30.205755, "stop_timezone": null, "wheelchair_boarding": 0, "stop_code": "3216", "direction_id": 1, "stop_lon": -97.843159, "parent_station": null, "route_id": "333", "stop_url": null, "stop_sequence": 9, "stop_id": "3216", "stop_desc": "003911 ESKEW & TREE HOUSE", "stop_name": "3911 ESKEW/TREE HOUSE", "location_type": null, "platform_code": null, "zone_id": null}, {"stop_lat": 30.217966, "stop_timezone": null, "wheelchair_boarding": 0, "stop_code": "4445", "direction_id": 1, "stop_lon": -97.852755, "parent_station": null, "route_id": "333", "stop_url": null, "stop_sequence": 9, "stop_id": "4445", "stop_desc": "004923 CONVICT HILL & FLAMING OAK", "stop_name": "4923 CONVICT HILL/FLAMING OAK", "location_type": null, "platform_code": null, "zone_id": null}, {"stop_lat": 30.180708, "stop_timezone": null, "wheelchair_boarding": 0, "stop_code": "2483", "direction_id": 1, "stop_lon": -97.750278, "parent_station": null, "route_id": "333", "stop_url": null, "stop_sequence": 10, "stop_id": "2483", "stop_desc": "006601 MEADOW LAKE & WILLIAM CANNON", "stop_name": "6601 MEADOW LAKE/WILLIAM CANNON", "location_type": null, "platform_code": null, "zone_id": null}, {"stop_lat": 30.20489, "stop_timezone": null, "wheelchair_boarding": 0, "stop_code": "3217", "direction_id": 1, "stop_lon": -97.84016, "parent_station": null, "route_id": "333", "stop_url": null, "stop_sequence": 10, "stop_id": "3217", "stop_desc": "003709 ESKEW & CROFTWOOD", "stop_name": "3709 ESKEW/CROFTWOOD", "location_type": null, "platform_code": null, "zone_id": null}, {"stop_lat": 30.216888, "stop_timezone": null, "wheelchair_boarding": 0, "stop_code": "3887", "direction_id": 1, "stop_lon": -97.846068, "parent_station": null, "route_id": "333", "stop_url": null, "stop_sequence": 10, "stop_id": "3887", "stop_desc": "004600 CONVICT HILL & LATTA", "stop_name": "CONVICT HILL/LATTA/BRUSH COUNTRY", "location_type": null, "platform_code": null, "zone_id": null}, {"stop_lat": 30.2189, "stop_timezone": null, "wheelchair_boarding": 0, "stop_code": "4446", "direction_id": 1, "stop_lon": -97.85469, "parent_station": null, "route_id": "333", "stop_url": null, "stop_sequence": 10, "stop_id": "4446", "stop_desc": "005125 CONVICT HILL & WOODCREEK", "stop_name": "5125 CONVICT HILL/WOODCREEK", "location_type": null, "platform_code": null, "zone_id": null}, {"stop_lat": 30.215081, "stop_timezone": null, "wheelchair_boarding": 0, "stop_code": "3211", "direction_id": 1, "stop_lon": -97.849878, "parent_station": null, "route_id": "333", "stop_url": null, "stop_sequence": 11, "stop_id": "3211", "stop_desc": "007600 LATTA & ISLANDER", "stop_name": "7600 LATTA/ISLANDER", "location_type": null, "platform_code": null, "zone_id": null}, {"stop_lat": 30.217966, "stop_timezone": null, "wheelchair_boarding": 0, "stop_code": "4445", "direction_id": 1, "stop_lon": -97.852755, "parent_station": null, "route_id": "333", "stop_url": null, "stop_sequence": 11, "stop_id": "4445", "stop_desc": "004923 CONVICT HILL & FLAMING OAK", "stop_name": "4923 CONVICT HILL/FLAMING OAK", "location_type": null, "platform_code": null, "zone_id": null}, {"stop_lat": 30.20386, "stop_timezone": null, "wheelchair_boarding": 0, "stop_code": "5594", "direction_id": 1, "stop_lon": -97.83831, "parent_station": null, "route_id": "333", "stop_url": null, "stop_sequence": 11, "stop_id": "5594", "stop_desc": "003508 ESKEW & LEAFIELD", "stop_name": "3508 ESKEW/LEAFIELD", "location_type": null, "platform_code": null, "zone_id": null}, {"stop_lat": 30.21334, "stop_timezone": null, "wheelchair_boarding": 0, "stop_code": "3212", "direction_id": 1, "stop_lon": -97.85055, "parent_station": null, "route_id": "333", "stop_url": null, "stop_sequence": 12, "stop_id": "3212", "stop_desc": "007704 COPANO & COPPERAS", "stop_name": "7704 COPANO/COPPERAS", "location_type": null, "platform_code": null, "zone_id": null}, {"stop_lat": 30.206736, "stop_timezone": null, "wheelchair_boarding": 0, "stop_code": "3220", "direction_id": 1, "stop_lon": -97.834965, "parent_station": null, "route_id": "333", "stop_url": null, "stop_sequence": 12, "stop_id": "3220", "stop_desc": "007613 BRODIE & HARPERS FERRY", "stop_name": "7613 BRODIE/HARPERS FERRY", "location_type": null, "platform_code": null, "zone_id": null}, {"stop_lat": 30.216888, "stop_timezone": null, "wheelchair_boarding": 0, "stop_code": "3887", "direction_id": 1, "stop_lon": -97.846068, "parent_station": null, "route_id": "333", "stop_url": null, "stop_sequence": 12, "stop_id": "3887", "stop_desc": "004600 CONVICT HILL & LATTA", "stop_name": "CONVICT HILL/LATTA/BRUSH COUNTRY", "location_type": null, "platform_code": null, "zone_id": null}, {"stop_lat": 30.215081, "stop_timezone": null, "wheelchair_boarding": 0, "stop_code": "3211", "direction_id": 1, "stop_lon": -97.849878, "parent_station": null, "route_id": "333", "stop_url": null, "stop_sequence": 13, "stop_id": "3211", "stop_desc": "007600 LATTA & ISLANDER", "stop_name": "7600 LATTA/ISLANDER", "location_type": null, "platform_code": null, "zone_id": null}, {"stop_lat": 30.21095, "stop_timezone": null, "wheelchair_boarding": 0, "stop_code": "3213", "direction_id": 1, "stop_lon": -97.84958, "parent_station": null, "route_id": "333", "stop_url": null, "stop_sequence": 13, "stop_id": "3213", "stop_desc": "007814 COPANO & SARASOTA", "stop_name": "7814 COPANO/SARASOTA", "location_type": null, "platform_code": null, "zone_id": null}, {"stop_lat": 30.21119, "stop_timezone": null, "wheelchair_boarding": 0, "stop_code": "3221", "direction_id": 1, "stop_lon": -97.83185, "parent_station": null, "route_id": "333", "stop_url": null, "stop_sequence": 13, "stop_id": "3221", "stop_desc": "007201 BRODIE & CONVICT HILL", "stop_name": "7201 BRODIE/CONVICT HILL", "location_type": null, "platform_code": null, "zone_id": null}, {"stop_lat": 30.21334, "stop_timezone": null, "wheelchair_boarding": 0, "stop_code": "3212", "direction_id": 1, "stop_lon": -97.85055, "parent_station": null, "route_id": "333", "stop_url": null, "stop_sequence": 14, "stop_id": "3212", "stop_desc": "007704 COPANO & COPPERAS", "stop_name": "7704 COPANO/COPPERAS", "location_type": null, "platform_code": null, "zone_id": null}, {"stop_lat": 30.209294, "stop_timezone": null, "wheelchair_boarding": 0, "stop_code": "3214", "direction_id": 1, "stop_lon": -97.848453, "parent_station": null, "route_id": "333", "stop_url": null, "stop_sequence": 14, "stop_id": "3214", "stop_desc": "004403 ESKEW & COPANO", "stop_name": "4403 ESKEW/COPANO", "location_type": null, "platform_code": null, "zone_id": null}, {"stop_lat": 30.213228, "stop_timezone": null, "wheelchair_boarding": 0, "stop_code": "3223", "direction_id": 1, "stop_lon": -97.829451, "parent_station": null, "route_id": "333", "stop_url": null, "stop_sequence": 14, "stop_id": "3223", "stop_desc": "003421 WILLIAM CANNON & BRODIE", "stop_name": "3421 WILLIAM CANNON/BRODIE", "location_type": null, "platform_code": null, "zone_id": null}, {"stop_lat": 30.21095, "stop_timezone": null, "wheelchair_boarding": 0, "stop_code": "3213", "direction_id": 1, "stop_lon": -97.84958, "parent_station": null, "route_id": "333", "stop_url": null, "stop_sequence": 15, "stop_id": "3213", "stop_desc": "007814 COPANO & SARASOTA", "stop_name": "7814 COPANO/SARASOTA", "location_type": null, "platform_code": null, "zone_id": null}, {"stop_lat": 30.207733, "stop_timezone": null, "wheelchair_boarding": 0, "stop_code": "3215", "direction_id": 1, "stop_lon": -97.846601, "parent_station": null, "route_id": "333", "stop_url": null, "stop_sequence": 15, "stop_id": "3215", "stop_desc": "004200 ESKEW & MAUAI", "stop_name": "ESKEW/MAUAI", "location_type": null, "platform_code": null, "zone_id": null}, {"stop_lat": 30.210924, "stop_timezone": null, "wheelchair_boarding": 0, "stop_code": "3224", "direction_id": 1, "stop_lon": -97.824515, "parent_station": null, "route_id": "333", "stop_url": null, "stop_sequence": 15, "stop_id": "3224", "stop_desc": "003207 WILLIAM CANNON & STAGECOACH", "stop_name": "3207 WILLIAM CANNON/STAGECOACH", "location_type": null, "platform_code": null, "zone_id": null}, {"stop_lat": 30.209294, "stop_timezone": null, "wheelchair_boarding": 0, "stop_code": "3214", "direction_id": 1, "stop_lon": -97.848453, "parent_station": null, "route_id": "333", "stop_url": null, "stop_sequence": 16, "stop_id": "3214", "stop_desc": "004403 ESKEW & COPANO", "stop_name": "4403 ESKEW/COPANO", "location_type": null, "platform_code": null, "zone_id": null}, {"stop_lat": 30.205755, "stop_timezone": null, "wheelchair_boarding": 0, "stop_code": "3216", "direction_id": 1, "stop_lon": -97.843159, "parent_station": null, "route_id": "333", "stop_url": null, "stop_sequence": 16, "stop_id": "3216", "stop_desc": "003911 ESKEW & TREE HOUSE", "stop_name": "3911 ESKEW/TREE HOUSE", "location_type": null, "platform_code": null, "zone_id": null}, {"stop_lat": 30.209995, "stop_timezone": null, "wheelchair_boarding": 0, "stop_code": "4436", "direction_id": 1, "stop_lon": -97.822172, "parent_station": null, "route_id": "333", "stop_url": null, "stop_sequence": 16, "stop_id": "4436", "stop_desc": "003101 WILLIAM CANNON & RANCH", "stop_name": "3101 WILLIAM CANNON/RANCH", "location_type": null, "platform_code": null, "zone_id": null}, {"stop_lat": 30.207733, "stop_timezone": null, "wheelchair_boarding": 0, "stop_code": "3215", "direction_id": 1, "stop_lon": -97.846601, "parent_station": null, "route_id": "333", "stop_url": null, "stop_sequence": 17, "stop_id": "3215", "stop_desc": "004200 ESKEW & MAUAI", "stop_name": "ESKEW/MAUAI", "location_type": null, "platform_code": null, "zone_id": null}, {"stop_lat": 30.20489, "stop_timezone": null, "wheelchair_boarding": 0, "stop_code": "3217", "direction_id": 1, "stop_lon": -97.84016, "parent_station": null, "route_id": "333", "stop_url": null, "stop_sequence": 17, "stop_id": "3217", "stop_desc": "003709 ESKEW & CROFTWOOD", "stop_name": "3709 ESKEW/CROFTWOOD", "location_type": null, "platform_code": null, "zone_id": null}, {"stop_lat": 30.207901, "stop_timezone": null, "wheelchair_boarding": 0, "stop_code": "4428", "direction_id": 1, "stop_lon": -97.817777, "parent_station": null, "route_id": "333", "stop_url": null, "stop_sequence": 17, "stop_id": "4428", "stop_desc": "002809 WILLIAM CANNON & DEATON HILL", "stop_name": "WILLIAM CANNON/DEATON HILL", "location_type": null, "platform_code": null, "zone_id": null}, {"stop_lat": 30.205755, "stop_timezone": null, "wheelchair_boarding": 0, "stop_code": "3216", "direction_id": 1, "stop_lon": -97.843159, "parent_station": null, "route_id": "333", "stop_url": null, "stop_sequence": 18, "stop_id": "3216", "stop_desc": "003911 ESKEW & TREE HOUSE", "stop_name": "3911 ESKEW/TREE HOUSE", "location_type": null, "platform_code": null, "zone_id": null}, {"stop_lat": 30.207197, "stop_timezone": null, "wheelchair_boarding": 0, "stop_code": "3226", "direction_id": 1, "stop_lon": -97.815778, "parent_station": null, "route_id": "333", "stop_url": null, "stop_sequence": 18, "stop_id": "3226", "stop_desc": "002701 WILLIAM CANNON & WEST GATE", "stop_name": "2701 WILLIAM CANNON/WEST GATE", "location_type": null, "platform_code": null, "zone_id": null}, {"stop_lat": 30.20386, "stop_timezone": null, "wheelchair_boarding": 0, "stop_code": "5594", "direction_id": 1, "stop_lon": -97.83831, "parent_station": null, "route_id": "333", "stop_url": null, "stop_sequence": 18, "stop_id": "5594", "stop_desc": "003508 ESKEW & LEAFIELD", "stop_name": "3508 ESKEW/LEAFIELD", "location_type": null, "platform_code": null, "zone_id": null}, {"stop_lat": 30.20489, "stop_timezone": null, "wheelchair_boarding": 0, "stop_code": "3217", "direction_id": 1, "stop_lon": -97.84016, "parent_station": null, "route_id": "333", "stop_url": null, "stop_sequence": 19, "stop_id": "3217", "stop_desc": "003709 ESKEW & CROFTWOOD", "stop_name": "3709 ESKEW/CROFTWOOD", "location_type": null, "platform_code": null, "zone_id": null}, {"stop_lat": 30.206736, "stop_timezone": null, "wheelchair_boarding": 0, "stop_code": "3220", "direction_id": 1, "stop_lon": -97.834965, "parent_station": null, "route_id": "333", "stop_url": null, "stop_sequence": 19, "stop_id": "3220", "stop_desc": "007613 BRODIE & HARPERS FERRY", "stop_name": "7613 BRODIE/HARPERS FERRY", "location_type": null, "platform_code": null, "zone_id": null}, {"stop_lat": 30.203663, "stop_timezone": null, "wheelchair_boarding": 0, "stop_code": "4424", "direction_id": 1, "stop_lon": -97.809228, "parent_station": null, "route_id": "333", "stop_url": null, "stop_sequence": 19, "stop_id": "4424", "stop_desc": "002200 WILLIAM CANNON & WHISPERING OAKS", "stop_name": "WILLIAM CANNON/WHISPERING OAKS", "location_type": null, "platform_code": null, "zone_id": null}, {"stop_lat": 30.21119, "stop_timezone": null, "wheelchair_boarding": 0, "stop_code": "3221", "direction_id": 1, "stop_lon": -97.83185, "parent_station": null, "route_id": "333", "stop_url": null, "stop_sequence": 20, "stop_id": "3221", "stop_desc": "007201 BRODIE & CONVICT HILL", "stop_name": "7201 BRODIE/CONVICT HILL", "location_type": null, "platform_code": null, "zone_id": null}, {"stop_lat": 30.202716, "stop_timezone": null, "wheelchair_boarding": 0, "stop_code": "3228", "direction_id": 1, "stop_lon": -97.806233, "parent_station": null, "route_id": "333", "stop_url": null, "stop_sequence": 20, "stop_id": "3228", "stop_desc": "001945 WILLIAM CANNON & MANCHACA", "stop_name": "1945 WILLIAM CANNON/MANCHACA", "location_type": null, "platform_code": null, "zone_id": null}, {"stop_lat": 30.20386, "stop_timezone": null, "wheelchair_boarding": 0, "stop_code": "5594", "direction_id": 1, "stop_lon": -97.83831, "parent_station": null, "route_id": "333", "stop_url": null, "stop_sequence": 20, "stop_id": "5594", "stop_desc": "003508 ESKEW & LEAFIELD", "stop_name": "3508 ESKEW/LEAFIELD", "location_type": null, "platform_code": null, "zone_id": null}, {"stop_lat": 30.206736, "stop_timezone": null, "wheelchair_boarding": 0, "stop_code": "3220", "direction_id": 1, "stop_lon": -97.834965, "parent_station": null, "route_id": "333", "stop_url": null, "stop_sequence": 21, "stop_id": "3220", "stop_desc": "007613 BRODIE & HARPERS FERRY", "stop_name": "7613 BRODIE/HARPERS FERRY", "location_type": null, "platform_code": null, "zone_id": null}, {"stop_lat": 30.213228, "stop_timezone": null, "wheelchair_boarding": 0, "stop_code": "3223", "direction_id": 1, "stop_lon": -97.829451, "parent_station": null, "route_id": "333", "stop_url": null, "stop_sequence": 21, "stop_id": "3223", "stop_desc": "003421 WILLIAM CANNON & BRODIE", "stop_name": "3421 WILLIAM CANNON/BRODIE", "location_type": null, "platform_code": null, "zone_id": null}, {"stop_lat": 30.20029, "stop_timezone": null, "wheelchair_boarding": 0, "stop_code": "3229", "direction_id": 1, "stop_lon": -97.799, "parent_station": null, "route_id": "333", "stop_url": null, "stop_sequence": 21, "stop_id": "3229", "stop_desc": "001401 WILLIAM CANNON & WOODHUE", "stop_name": "1401 WILLIAM CANNON/WOODHUE", "location_type": null, "platform_code": null, "zone_id": null}, {"stop_lat": 30.21119, "stop_timezone": null, "wheelchair_boarding": 0, "stop_code": "3221", "direction_id": 1, "stop_lon": -97.83185, "parent_station": null, "route_id": "333", "stop_url": null, "stop_sequence": 22, "stop_id": "3221", "stop_desc": "007201 BRODIE & CONVICT HILL", "stop_name": "7201 BRODIE/CONVICT HILL", "location_type": null, "platform_code": null, "zone_id": null}, {"stop_lat": 30.210924, "stop_timezone": null, "wheelchair_boarding": 0, "stop_code": "3224", "direction_id": 1, "stop_lon": -97.824515, "parent_station": null, "route_id": "333", "stop_url": null, "stop_sequence": 22, "stop_id": "3224", "stop_desc": "003207 WILLIAM CANNON & STAGECOACH", "stop_name": "3207 WILLIAM CANNON/STAGECOACH", "location_type": null, "platform_code": null, "zone_id": null}, {"stop_lat": 30.19925, "stop_timezone": null, "wheelchair_boarding": 0, "stop_code": "3230", "direction_id": 1, "stop_lon": -97.7952, "parent_station": null, "route_id": "333", "stop_url": null, "stop_sequence": 22, "stop_id": "3230", "stop_desc": "001107 WILLIAM CANNON & MOUNT CARRELL", "stop_name": "1107 WILLIAM CANNON/MOUNT CARRELL", "location_type": null, "platform_code": null, "zone_id": null}, {"stop_lat": 30.213228, "stop_timezone": null, "wheelchair_boarding": 0, "stop_code": "3223", "direction_id": 1, "stop_lon": -97.829451, "parent_station": null, "route_id": "333", "stop_url": null, "stop_sequence": 23, "stop_id": "3223", "stop_desc": "003421 WILLIAM CANNON & BRODIE", "stop_name": "3421 WILLIAM CANNON/BRODIE", "location_type": null, "platform_code": null, "zone_id": null}, {"stop_lat": 30.199075, "stop_timezone": null, "wheelchair_boarding": 0, "stop_code": "3231", "direction_id": 1, "stop_lon": -97.793338, "parent_station": null, "route_id": "333", "stop_url": null, "stop_sequence": 23, "stop_id": "3231", "stop_desc": "001011 WILLIAM CANNON & EMERALD FOREST", "stop_name": "1011 WILLIAM CANNON/EMERALD FOREST", "location_type": null, "platform_code": null, "zone_id": null}, {"stop_lat": 30.209995, "stop_timezone": null, "wheelchair_boarding": 0, "stop_code": "4436", "direction_id": 1, "stop_lon": -97.822172, "parent_station": null, "route_id": "333", "stop_url": null, "stop_sequence": 23, "stop_id": "4436", "stop_desc": "003101 WILLIAM CANNON & RANCH", "stop_name": "3101 WILLIAM CANNON/RANCH", "location_type": null, "platform_code": null, "zone_id": null}, {"stop_lat": 30.197943, "stop_timezone": null, "wheelchair_boarding": 0, "stop_code": "2917", "direction_id": 1, "stop_lon": -97.790054, "parent_station": null, "route_id": "333", "stop_url": null, "stop_sequence": 24, "stop_id": "2917", "stop_desc": "000801 WILLIAM CANNON & COOPER", "stop_name": "801 WILLIAM CANNON/COOPER", "location_type": null, "platform_code": null, "zone_id": null}, {"stop_lat": 30.210924, "stop_timezone": null, "wheelchair_boarding": 0, "stop_code": "3224", "direction_id": 1, "stop_lon": -97.824515, "parent_station": null, "route_id": "333", "stop_url": null, "stop_sequence": 24, "stop_id": "3224", "stop_desc": "003207 WILLIAM CANNON & STAGECOACH", "stop_name": "3207 WILLIAM CANNON/STAGECOACH", "location_type": null, "platform_code": null, "zone_id": null}, {"stop_lat": 30.207901, "stop_timezone": null, "wheelchair_boarding": 0, "stop_code": "4428", "direction_id": 1, "stop_lon": -97.817777, "parent_station": null, "route_id": "333", "stop_url": null, "stop_sequence": 24, "stop_id": "4428", "stop_desc": "002809 WILLIAM CANNON & DEATON HILL", "stop_name": "WILLIAM CANNON/DEATON HILL", "location_type": null, "platform_code": null, "zone_id": null}, {"stop_lat": 30.197073, "stop_timezone": null, "wheelchair_boarding": 0, "stop_code": "2918", "direction_id": 1, "stop_lon": -97.788053, "parent_station": null, "route_id": "333", "stop_url": null, "stop_sequence": 25, "stop_id": "2918", "stop_desc": "000701 WILLIAM CANNON & 1ST", "stop_name": "701 WILLIAM CANNON/1ST", "location_type": null, "platform_code": null, "zone_id": null}, {"stop_lat": 30.207197, "stop_timezone": null, "wheelchair_boarding": 0, "stop_code": "3226", "direction_id": 1, "stop_lon": -97.815778, "parent_station": null, "route_id": "333", "stop_url": null, "stop_sequence": 25, "stop_id": "3226", "stop_desc": "002701 WILLIAM CANNON & WEST GATE", "stop_name": "2701 WILLIAM CANNON/WEST GATE", "location_type": null, "platform_code": null, "zone_id": null}, {"stop_lat": 30.209995, "stop_timezone": null, "wheelchair_boarding": 0, "stop_code": "4436", "direction_id": 1, "stop_lon": -97.822172, "parent_station": null, "route_id": "333", "stop_url": null, "stop_sequence": 25, "stop_id": "4436", "stop_desc": "003101 WILLIAM CANNON & RANCH", "stop_name": "3101 WILLIAM CANNON/RANCH", "location_type": null, "platform_code": null, "zone_id": null}, {"stop_lat": 30.19567, "stop_timezone": null, "wheelchair_boarding": 0, "stop_code": "3234", "direction_id": 1, "stop_lon": -97.78534, "parent_station": null, "route_id": "333", "stop_url": null, "stop_sequence": 26, "stop_id": "3234", "stop_desc": "000401 WILLIAM CANNON & BILL HUGHES", "stop_name": "401 WILLIAM CANNON/BILL HUGHES", "location_type": null, "platform_code": null, "zone_id": null}, {"stop_lat": 30.203663, "stop_timezone": null, "wheelchair_boarding": 0, "stop_code": "4424", "direction_id": 1, "stop_lon": -97.809228, "parent_station": null, "route_id": "333", "stop_url": null, "stop_sequence": 26, "stop_id": "4424", "stop_desc": "002200 WILLIAM CANNON & WHISPERING OAKS", "stop_name": "WILLIAM CANNON/WHISPERING OAKS", "location_type": null, "platform_code": null, "zone_id": null}, {"stop_lat": 30.207901, "stop_timezone": null, "wheelchair_boarding": 0, "stop_code": "4428", "direction_id": 1, "stop_lon": -97.817777, "parent_station": null, "route_id": "333", "stop_url": null, "stop_sequence": 26, "stop_id": "4428", "stop_desc": "002809 WILLIAM CANNON & DEATON HILL", "stop_name": "WILLIAM CANNON/DEATON HILL", "location_type": null, "platform_code": null, "zone_id": null}, {"stop_lat": 30.207197, "stop_timezone": null, "wheelchair_boarding": 0, "stop_code": "3226", "direction_id": 1, "stop_lon": -97.815778, "parent_station": null, "route_id": "333", "stop_url": null, "stop_sequence": 27, "stop_id": "3226", "stop_desc": "002701 WILLIAM CANNON & WEST GATE", "stop_name": "2701 WILLIAM CANNON/WEST GATE", "location_type": null, "platform_code": null, "zone_id": null}, {"stop_lat": 30.202716, "stop_timezone": null, "wheelchair_boarding": 0, "stop_code": "3228", "direction_id": 1, "stop_lon": -97.806233, "parent_station": null, "route_id": "333", "stop_url": null, "stop_sequence": 27, "stop_id": "3228", "stop_desc": "001945 WILLIAM CANNON & MANCHACA", "stop_name": "1945 WILLIAM CANNON/MANCHACA", "location_type": null, "platform_code": null, "zone_id": null}, {"stop_lat": 30.19348, "stop_timezone": null, "wheelchair_boarding": 0, "stop_code": "4384", "direction_id": 1, "stop_lon": -97.78031, "parent_station": null, "route_id": "333", "stop_url": null, "stop_sequence": 27, "stop_id": "4384", "stop_desc": "000117 WILLIAM CANNON & SKYNOOK", "stop_name": "WILLIAM CANNON/SKYNOOK", "location_type": null, "platform_code": null, "zone_id": null}, {"stop_lat": 30.20029, "stop_timezone": null, "wheelchair_boarding": 0, "stop_code": "3229", "direction_id": 1, "stop_lon": -97.799, "parent_station": null, "route_id": "333", "stop_url": null, "stop_sequence": 28, "stop_id": "3229", "stop_desc": "001401 WILLIAM CANNON & WOODHUE", "stop_name": "1401 WILLIAM CANNON/WOODHUE", "location_type": null, "platform_code": null, "zone_id": null}, {"stop_lat": 30.203663, "stop_timezone": null, "wheelchair_boarding": 0, "stop_code": "4424", "direction_id": 1, "stop_lon": -97.809228, "parent_station": null, "route_id": "333", "stop_url": null, "stop_sequence": 28, "stop_id": "4424", "stop_desc": "002200 WILLIAM CANNON & WHISPERING OAKS", "stop_name": "WILLIAM CANNON/WHISPERING OAKS", "location_type": null, "platform_code": null, "zone_id": null}, {"stop_lat": 30.192663, "stop_timezone": null, "wheelchair_boarding": 0, "stop_code": "550", "direction_id": 1, "stop_lon": -97.777841, "parent_station": null, "route_id": "333", "stop_url": null, "stop_sequence": 28, "stop_id": "550", "stop_desc": "000115 WILLIAM CANNON & CIRCLE S", "stop_name": "115 WILLIAM CANNON/CIRCLE S", "location_type": null, "platform_code": null, "zone_id": null}, {"stop_lat": 30.202716, "stop_timezone": null, "wheelchair_boarding": 0, "stop_code": "3228", "direction_id": 1, "stop_lon": -97.806233, "parent_station": null, "route_id": "333", "stop_url": null, "stop_sequence": 29, "stop_id": "3228", "stop_desc": "001945 WILLIAM CANNON & MANCHACA", "stop_name": "1945 WILLIAM CANNON/MANCHACA", "location_type": null, "platform_code": null, "zone_id": null}, {"stop_lat": 30.19925, "stop_timezone": null, "wheelchair_boarding": 0, "stop_code": "3230", "direction_id": 1, "stop_lon": -97.7952, "parent_station": null, "route_id": "333", "stop_url": null, "stop_sequence": 29, "stop_id": "3230", "stop_desc": "001107 WILLIAM CANNON & MOUNT CARRELL", "stop_name": "1107 WILLIAM CANNON/MOUNT CARRELL", "location_type": null, "platform_code": null, "zone_id": null}, {"stop_lat": 30.192082, "stop_timezone": null, "wheelchair_boarding": 0, "stop_code": "551", "direction_id": 1, "stop_lon": -97.776037, "parent_station": null, "route_id": "333", "stop_url": null, "stop_sequence": 29, "stop_id": "551", "stop_desc": "000409 WILLIAM CANNON & CIRCLE S", "stop_name": "409 WILLIAM CANNON/CIRCLE S", "location_type": null, "platform_code": null, "zone_id": null}, {"stop_lat": 30.20029, "stop_timezone": null, "wheelchair_boarding": 0, "stop_code": "3229", "direction_id": 1, "stop_lon": -97.799, "parent_station": null, "route_id": "333", "stop_url": null, "stop_sequence": 30, "stop_id": "3229", "stop_desc": "001401 WILLIAM CANNON & WOODHUE", "stop_name": "1401 WILLIAM CANNON/WOODHUE", "location_type": null, "platform_code": null, "zone_id": null}, {"stop_lat": 30.199075, "stop_timezone": null, "wheelchair_boarding": 0, "stop_code": "3231", "direction_id": 1, "stop_lon": -97.793338, "parent_station": null, "route_id": "333", "stop_url": null, "stop_sequence": 30, "stop_id": "3231", "stop_desc": "001011 WILLIAM CANNON & EMERALD FOREST", "stop_name": "1011 WILLIAM CANNON/EMERALD FOREST", "location_type": null, "platform_code": null, "zone_id": null}, {"stop_lat": 30.191387, "stop_timezone": null, "wheelchair_boarding": 0, "stop_code": "552", "direction_id": 1, "stop_lon": -97.77353, "parent_station": null, "route_id": "333", "stop_url": null, "stop_sequence": 30, "stop_id": "552", "stop_desc": "000601 WILLIAM CANNON & CIRCLE S", "stop_name": "601 WILLIAM CANNON/CIRCLE S", "location_type": null, "platform_code": null, "zone_id": null}, {"stop_lat": 30.197943, "stop_timezone": null, "wheelchair_boarding": 0, "stop_code": "2917", "direction_id": 1, "stop_lon": -97.790054, "parent_station": null, "route_id": "333", "stop_url": null, "stop_sequence": 31, "stop_id": "2917", "stop_desc": "000801 WILLIAM CANNON & COOPER", "stop_name": "801 WILLIAM CANNON/COOPER", "location_type": null, "platform_code": null, "zone_id": null}, {"stop_lat": 30.19925, "stop_timezone": null, "wheelchair_boarding": 0, "stop_code": "3230", "direction_id": 1, "stop_lon": -97.7952, "parent_station": null, "route_id": "333", "stop_url": null, "stop_sequence": 31, "stop_id": "3230", "stop_desc": "001107 WILLIAM CANNON & MOUNT CARRELL", "stop_name": "1107 WILLIAM CANNON/MOUNT CARRELL", "location_type": null, "platform_code": null, "zone_id": null}, {"stop_lat": 30.189223, "stop_timezone": null, "wheelchair_boarding": 0, "stop_code": "5703", "direction_id": 1, "stop_lon": -97.768461, "parent_station": null, "route_id": "333", "stop_url": null, "stop_sequence": 31, "stop_id": "5703", "stop_desc": "001626 WILLIAM CANNON & BLUFF SPRINGS", "stop_name": "1626 WILLIAM CANNON/BLUFF SPRINGS", "location_type": null, "platform_code": null, "zone_id": null}, {"stop_lat": 30.18343, "stop_timezone": null, "wheelchair_boarding": 0, "stop_code": "2478", "direction_id": 1, "stop_lon": -97.76863, "parent_station": null, "route_id": "333", "stop_url": null, "stop_sequence": 32, "stop_id": "2478", "stop_desc": "001901 BLUE MEADOW & BLUFF SPRINGS", "stop_name": "1901 BLUE MEADOW/BLUFF SPRINGS", "location_type": null, "platform_code": null, "zone_id": null}, {"stop_lat": 30.197073, "stop_timezone": null, "wheelchair_boarding": 0, "stop_code": "2918", "direction_id": 1, "stop_lon": -97.788053, "parent_station": null, "route_id": "333", "stop_url": null, "stop_sequence": 32, "stop_id": "2918", "stop_desc": "000701 WILLIAM CANNON & 1ST", "stop_name": "701 WILLIAM CANNON/1ST", "location_type": null, "platform_code": null, "zone_id": null}, {"stop_lat": 30.199075, "stop_timezone": null, "wheelchair_boarding": 0, "stop_code": "3231", "direction_id": 1, "stop_lon": -97.793338, "parent_station": null, "route_id": "333", "stop_url": null, "stop_sequence": 32, "stop_id": "3231", "stop_desc": "001011 WILLIAM CANNON & EMERALD FOREST", "stop_name": "1011 WILLIAM CANNON/EMERALD FOREST", "location_type": null, "platform_code": null, "zone_id": null}, {"stop_lat": 30.189223, "stop_timezone": null, "wheelchair_boarding": 0, "stop_code": "5703", "direction_id": 1, "stop_lon": -97.768461, "parent_station": null, "route_id": "333", "stop_url": null, "stop_sequence": 32, "stop_id": "5703", "stop_desc": "001626 WILLIAM CANNON & BLUFF SPRINGS", "stop_name": "1626 WILLIAM CANNON/BLUFF SPRINGS", "location_type": null, "platform_code": null, "zone_id": null}, {"stop_lat": 30.18256, "stop_timezone": null, "wheelchair_boarding": 0, "stop_code": "2479", "direction_id": 1, "stop_lon": -97.766312, "parent_station": null, "route_id": "333", "stop_url": null, "stop_sequence": 33, "stop_id": "2479", "stop_desc": "002005 BLUE MEADOW & ELM CREEK", "stop_name": "2005 BLUE MEADOW/ELM CREEK", "location_type": null, "platform_code": null, "zone_id": null}, {"stop_lat": 30.197943, "stop_timezone": null, "wheelchair_boarding": 0, "stop_code": "2917", "direction_id": 1, "stop_lon": -97.790054, "parent_station": null, "route_id": "333", "stop_url": null, "stop_sequence": 33, "stop_id": "2917", "stop_desc": "000801 WILLIAM CANNON & COOPER", "stop_name": "801 WILLIAM CANNON/COOPER", "location_type": null, "platform_code": null, "zone_id": null}, {"stop_lat": 30.19567, "stop_timezone": null, "wheelchair_boarding": 0, "stop_code": "3234", "direction_id": 1, "stop_lon": -97.78534, "parent_station": null, "route_id": "333", "stop_url": null, "stop_sequence": 33, "stop_id": "3234", "stop_desc": "000401 WILLIAM CANNON & BILL HUGHES", "stop_name": "401 WILLIAM CANNON/BILL HUGHES", "location_type": null, "platform_code": null, "zone_id": null}, {"stop_lat": 30.197073, "stop_timezone": null, "wheelchair_boarding": 0, "stop_code": "2918", "direction_id": 1, "stop_lon": -97.788053, "parent_station": null, "route_id": "333", "stop_url": null, "stop_sequence": 34, "stop_id": "2918", "stop_desc": "000701 WILLIAM CANNON & 1ST", "stop_name": "701 WILLIAM CANNON/1ST", "location_type": null, "platform_code": null, "zone_id": null}, {"stop_lat": 30.18154, "stop_timezone": null, "wheelchair_boarding": 0, "stop_code": "4355", "direction_id": 1, "stop_lon": -97.76431, "parent_station": null, "route_id": "333", "stop_url": null, "stop_sequence": 34, "stop_id": "4355", "stop_desc": "002203 BLUE MEADOW & BLUE DAWN", "stop_name": "2203 BLUE MEADOW/BLUE DAWN", "location_type": null, "platform_code": null, "zone_id": null}, {"stop_lat": 30.19348, "stop_timezone": null, "wheelchair_boarding": 0, "stop_code": "4384", "direction_id": 1, "stop_lon": -97.78031, "parent_station": null, "route_id": "333", "stop_url": null, "stop_sequence": 34, "stop_id": "4384", "stop_desc": "000117 WILLIAM CANNON & SKYNOOK", "stop_name": "WILLIAM CANNON/SKYNOOK", "location_type": null, "platform_code": null, "zone_id": null}, {"stop_lat": 30.180184, "stop_timezone": null, "wheelchair_boarding": 0, "stop_code": "2480", "direction_id": 1, "stop_lon": -97.760843, "parent_station": null, "route_id": "333", "stop_url": null, "stop_sequence": 35, "stop_id": "2480", "stop_desc": "002421 BLUE MEADOW & BITTEROOT", "stop_name": "2421 BLUE MEADOW/BITTEROOT", "location_type": null, "platform_code": null, "zone_id": null}, {"stop_lat": 30.19567, "stop_timezone": null, "wheelchair_boarding": 0, "stop_code": "3234", "direction_id": 1, "stop_lon": -97.78534, "parent_station": null, "route_id": "333", "stop_url": null, "stop_sequence": 35, "stop_id": "3234", "stop_desc": "000401 WILLIAM CANNON & BILL HUGHES", "stop_name": "401 WILLIAM CANNON/BILL HUGHES", "location_type": null, "platform_code": null, "zone_id": null}, {"stop_lat": 30.192663, "stop_timezone": null, "wheelchair_boarding": 0, "stop_code": "550", "direction_id": 1, "stop_lon": -97.777841, "parent_station": null, "route_id": "333", "stop_url": null, "stop_sequence": 35, "stop_id": "550", "stop_desc": "000115 WILLIAM CANNON & CIRCLE S", "stop_name": "115 WILLIAM CANNON/CIRCLE S", "location_type": null, "platform_code": null, "zone_id": null}, {"stop_lat": 30.19348, "stop_timezone": null, "wheelchair_boarding": 0, "stop_code": "4384", "direction_id": 1, "stop_lon": -97.78031, "parent_station": null, "route_id": "333", "stop_url": null, "stop_sequence": 36, "stop_id": "4384", "stop_desc": "000117 WILLIAM CANNON & SKYNOOK", "stop_name": "WILLIAM CANNON/SKYNOOK", "location_type": null, "platform_code": null, "zone_id": null}, {"stop_lat": 30.17944, "stop_timezone": null, "wheelchair_boarding": 0, "stop_code": "5121", "direction_id": 1, "stop_lon": -97.758205, "parent_station": null, "route_id": "333", "stop_url": null, "stop_sequence": 36, "stop_id": "5121", "stop_desc": "004415 BLUE MEADOW & DEEP", "stop_name": "4415 BLUE MEADOW/DEEP", "location_type": null, "platform_code": null, "zone_id": null}, {"stop_lat": 30.192082, "stop_timezone": null, "wheelchair_boarding": 0, "stop_code": "551", "direction_id": 1, "stop_lon": -97.776037, "parent_station": null, "route_id": "333", "stop_url": null, "stop_sequence": 36, "stop_id": "551", "stop_desc": "000409 WILLIAM CANNON & CIRCLE S", "stop_name": "409 WILLIAM CANNON/CIRCLE S", "location_type": null, "platform_code": null, "zone_id": null}, {"stop_lat": 30.178217, "stop_timezone": null, "wheelchair_boarding": 0, "stop_code": "5159", "direction_id": 1, "stop_lon": -97.755781, "parent_station": null, "route_id": "333", "stop_url": null, "stop_sequence": 37, "stop_id": "5159", "stop_desc": "004500 BLUE MEADOW & GRANGER", "stop_name": "BLUE MEADOW/GRANGER", "location_type": null, "platform_code": null, "zone_id": null}, {"stop_lat": 30.192663, "stop_timezone": null, "wheelchair_boarding": 0, "stop_code": "550", "direction_id": 1, "stop_lon": -97.777841, "parent_station": null, "route_id": "333", "stop_url": null, "stop_sequence": 37, "stop_id": "550", "stop_desc": "000115 WILLIAM CANNON & CIRCLE S", "stop_name": "115 WILLIAM CANNON/CIRCLE S", "location_type": null, "platform_code": null, "zone_id": null}, {"stop_lat": 30.191387, "stop_timezone": null, "wheelchair_boarding": 0, "stop_code": "552", "direction_id": 1, "stop_lon": -97.77353, "parent_station": null, "route_id": "333", "stop_url": null, "stop_sequence": 37, "stop_id": "552", "stop_desc": "000601 WILLIAM CANNON & CIRCLE S", "stop_name": "601 WILLIAM CANNON/CIRCLE S", "location_type": null, "platform_code": null, "zone_id": null}, {"stop_lat": 30.17821, "stop_timezone": null, "wheelchair_boarding": 0, "stop_code": "5136", "direction_id": 1, "stop_lon": -97.75476, "parent_station": null, "route_id": "333", "stop_url": null, "stop_sequence": 38, "stop_id": "5136", "stop_desc": "006930 MEADOW LAKE & BLUE MEADOW", "stop_name": "MEADOW LAKE/BLUE MEADOW", "location_type": null, "platform_code": null, "zone_id": null}, {"stop_lat": 30.192082, "stop_timezone": null, "wheelchair_boarding": 0, "stop_code": "551", "direction_id": 1, "stop_lon": -97.776037, "parent_station": null, "route_id": "333", "stop_url": null, "stop_sequence": 38, "stop_id": "551", "stop_desc": "000409 WILLIAM CANNON & CIRCLE S", "stop_name": "409 WILLIAM CANNON/CIRCLE S", "location_type": null, "platform_code": null, "zone_id": null}, {"stop_lat": 30.189223, "stop_timezone": null, "wheelchair_boarding": 0, "stop_code": "5703", "direction_id": 1, "stop_lon": -97.768461, "parent_station": null, "route_id": "333", "stop_url": null, "stop_sequence": 38, "stop_id": "5703", "stop_desc": "001626 WILLIAM CANNON & BLUFF SPRINGS", "stop_name": "1626 WILLIAM CANNON/BLUFF SPRINGS", "location_type": null, "platform_code": null, "zone_id": null}, {"stop_lat": 30.18343, "stop_timezone": null, "wheelchair_boarding": 0, "stop_code": "2478", "direction_id": 1, "stop_lon": -97.76863, "parent_station": null, "route_id": "333", "stop_url": null, "stop_sequence": 39, "stop_id": "2478", "stop_desc": "001901 BLUE MEADOW & BLUFF SPRINGS", "stop_name": "1901 BLUE MEADOW/BLUFF SPRINGS", "location_type": null, "platform_code": null, "zone_id": null}, {"stop_lat": 30.179042, "stop_timezone": null, "wheelchair_boarding": 0, "stop_code": "2482", "direction_id": 1, "stop_lon": -97.753083, "parent_station": null, "route_id": "333", "stop_url": null, "stop_sequence": 39, "stop_id": "2482", "stop_desc": "006805 MEADOW LAKE & BUCKS RUN", "stop_name": "6805 MEADOW LAKE/BUCKS RUN", "location_type": null, "platform_code": null, "zone_id": null}, {"stop_lat": 30.191387, "stop_timezone": null, "wheelchair_boarding": 0, "stop_code": "552", "direction_id": 1, "stop_lon": -97.77353, "parent_station": null, "route_id": "333", "stop_url": null, "stop_sequence": 39, "stop_id": "552", "stop_desc": "000601 WILLIAM CANNON & CIRCLE S", "stop_name": "601 WILLIAM CANNON/CIRCLE S", "location_type": null, "platform_code": null, "zone_id": null}, {"stop_lat": 30.18256, "stop_timezone": null, "wheelchair_boarding": 0, "stop_code": "2479", "direction_id": 1, "stop_lon": -97.766312, "parent_station": null, "route_id": "333", "stop_url": null, "stop_sequence": 40, "stop_id": "2479", "stop_desc": "002005 BLUE MEADOW & ELM CREEK", "stop_name": "2005 BLUE MEADOW/ELM CREEK", "location_type": null, "platform_code": null, "zone_id": null}, {"stop_lat": 30.180708, "stop_timezone": null, "wheelchair_boarding": 0, "stop_code": "2483", "direction_id": 1, "stop_lon": -97.750278, "parent_station": null, "route_id": "333", "stop_url": null, "stop_sequence": 40, "stop_id": "2483", "stop_desc": "006601 MEADOW LAKE & WILLIAM CANNON", "stop_name": "6601 MEADOW LAKE/WILLIAM CANNON", "location_type": null, "platform_code": null, "zone_id": null}, {"stop_lat": 30.189223, "stop_timezone": null, "wheelchair_boarding": 0, "stop_code": "5703", "direction_id": 1, "stop_lon": -97.768461, "parent_station": null, "route_id": "333", "stop_url": null, "stop_sequence": 40, "stop_id": "5703", "stop_desc": "001626 WILLIAM CANNON & BLUFF SPRINGS", "stop_name": "1626 WILLIAM CANNON/BLUFF SPRINGS", "location_type": null, "platform_code": null, "zone_id": null}, {"stop_lat": 30.18343, "stop_timezone": null, "wheelchair_boarding": 0, "stop_code": "2478", "direction_id": 1, "stop_lon": -97.76863, "parent_station": null, "route_id": "333", "stop_url": null, "stop_sequence": 41, "stop_id": "2478", "stop_desc": "001901 BLUE MEADOW & BLUFF SPRINGS", "stop_name": "1901 BLUE MEADOW/BLUFF SPRINGS", "location_type": null, "platform_code": null, "zone_id": null}, {"stop_lat": 30.18154, "stop_timezone": null, "wheelchair_boarding": 0, "stop_code": "4355", "direction_id": 1, "stop_lon": -97.76431, "parent_station": null, "route_id": "333", "stop_url": null, "stop_sequence": 41, "stop_id": "4355", "stop_desc": "002203 BLUE MEADOW & BLUE DAWN", "stop_name": "2203 BLUE MEADOW/BLUE DAWN", "location_type": null, "platform_code": null, "zone_id": null}, {"stop_lat": 30.168548, "stop_timezone": null, "wheelchair_boarding": 0, "stop_code": "4357", "direction_id": 1, "stop_lon": -97.739677, "parent_station": null, "route_id": "333", "stop_url": null, "stop_sequence": 41, "stop_id": "4357", "stop_desc": "007200 SALT SPRINGS & ORLEANS", "stop_name": "7200 SALT SPRINGS/ORLEANS", "location_type": null, "platform_code": null, "zone_id": null}, {"stop_lat": 30.18256, "stop_timezone": null, "wheelchair_boarding": 0, "stop_code": "2479", "direction_id": 1, "stop_lon": -97.766312, "parent_station": null, "route_id": "333", "stop_url": null, "stop_sequence": 42, "stop_id": "2479", "stop_desc": "002005 BLUE MEADOW & ELM CREEK", "stop_name": "2005 BLUE MEADOW/ELM CREEK", "location_type": null, "platform_code": null, "zone_id": null}, {"stop_lat": 30.180184, "stop_timezone": null, "wheelchair_boarding": 0, "stop_code": "2480", "direction_id": 1, "stop_lon": -97.760843, "parent_station": null, "route_id": "333", "stop_url": null, "stop_sequence": 42, "stop_id": "2480", "stop_desc": "002421 BLUE MEADOW & BITTEROOT", "stop_name": "2421 BLUE MEADOW/BITTEROOT", "location_type": null, "platform_code": null, "zone_id": null}, {"stop_lat": 30.16528, "stop_timezone": null, "wheelchair_boarding": 0, "stop_code": "4359", "direction_id": 1, "stop_lon": -97.741884, "parent_station": null, "route_id": "333", "stop_url": null, "stop_sequence": 42, "stop_id": "4359", "stop_desc": "007400 SALT SPRINGS & ASA", "stop_name": "SALT SPRINGS/ASA", "location_type": null, "platform_code": null, "zone_id": null}, {"stop_lat": 30.163611, "stop_timezone": null, "wheelchair_boarding": 0, "stop_code": "3901", "direction_id": 1, "stop_lon": -97.742899, "parent_station": null, "route_id": "333", "stop_url": null, "stop_sequence": 43, "stop_id": "3901", "stop_desc": "007615 SALT SPRINGS & TARA", "stop_name": "SALT SPRINGS/TARA", "location_type": null, "platform_code": null, "zone_id": null}, {"stop_lat": 30.18154, "stop_timezone": null, "wheelchair_boarding": 0, "stop_code": "4355", "direction_id": 1, "stop_lon": -97.76431, "parent_station": null, "route_id": "333", "stop_url": null, "stop_sequence": 43, "stop_id": "4355", "stop_desc": "002203 BLUE MEADOW & BLUE DAWN", "stop_name": "2203 BLUE MEADOW/BLUE DAWN", "location_type": null, "platform_code": null, "zone_id": null}, {"stop_lat": 30.17944, "stop_timezone": null, "wheelchair_boarding": 0, "stop_code": "5121", "direction_id": 1, "stop_lon": -97.758205, "parent_station": null, "route_id": "333", "stop_url": null, "stop_sequence": 43, "stop_id": "5121", "stop_desc": "004415 BLUE MEADOW & DEEP", "stop_name": "4415 BLUE MEADOW/DEEP", "location_type": null, "platform_code": null, "zone_id": null}, {"stop_lat": 30.180184, "stop_timezone": null, "wheelchair_boarding": 0, "stop_code": "2480", "direction_id": 1, "stop_lon": -97.760843, "parent_station": null, "route_id": "333", "stop_url": null, "stop_sequence": 44, "stop_id": "2480", "stop_desc": "002421 BLUE MEADOW & BITTEROOT", "stop_name": "2421 BLUE MEADOW/BITTEROOT", "location_type": null, "platform_code": null, "zone_id": null}, {"stop_lat": 30.178217, "stop_timezone": null, "wheelchair_boarding": 0, "stop_code": "5159", "direction_id": 1, "stop_lon": -97.755781, "parent_station": null, "route_id": "333", "stop_url": null, "stop_sequence": 44, "stop_id": "5159", "stop_desc": "004500 BLUE MEADOW & GRANGER", "stop_name": "BLUE MEADOW/GRANGER", "location_type": null, "platform_code": null, "zone_id": null}, {"stop_lat": 30.157548, "stop_timezone": null, "wheelchair_boarding": 0, "stop_code": "5700", "direction_id": 1, "stop_lon": -97.742243, "parent_station": null, "route_id": "333", "stop_url": null, "stop_sequence": 44, "stop_id": "5700", "stop_desc": "008022 THAXTON & RUNNING WATER", "stop_name": "8022 THAXTON/RUNNING WATER", "location_type": null, "platform_code": null, "zone_id": null}, {"stop_lat": 30.17944, "stop_timezone": null, "wheelchair_boarding": 0, "stop_code": "5121", "direction_id": 1, "stop_lon": -97.758205, "parent_station": null, "route_id": "333", "stop_url": null, "stop_sequence": 45, "stop_id": "5121", "stop_desc": "004415 BLUE MEADOW & DEEP", "stop_name": "4415 BLUE MEADOW/DEEP", "location_type": null, "platform_code": null, "zone_id": null}, {"stop_lat": 30.17821, "stop_timezone": null, "wheelchair_boarding": 0, "stop_code": "5136", "direction_id": 1, "stop_lon": -97.75476, "parent_station": null, "route_id": "333", "stop_url": null, "stop_sequence": 45, "stop_id": "5136", "stop_desc": "006930 MEADOW LAKE & BLUE MEADOW", "stop_name": "MEADOW LAKE/BLUE MEADOW", "location_type": null, "platform_code": null, "zone_id": null}, {"stop_lat": 30.154079, "stop_timezone": null, "wheelchair_boarding": 0, "stop_code": "5798", "direction_id": 1, "stop_lon": -97.736716, "parent_station": null, "route_id": "333", "stop_url": null, "stop_sequence": 45, "stop_id": "5798", "stop_desc": "008208 ALUM ROCK & BROAD BROOK", "stop_name": "8208 ALUM ROCK/BROAD BROOK", "location_type": null, "platform_code": null, "zone_id": null}, {"stop_lat": 30.179042, "stop_timezone": null, "wheelchair_boarding": 0, "stop_code": "2482", "direction_id": 1, "stop_lon": -97.753083, "parent_station": null, "route_id": "333", "stop_url": null, "stop_sequence": 46, "stop_id": "2482", "stop_desc": "006805 MEADOW LAKE & BUCKS RUN", "stop_name": "6805 MEADOW LAKE/BUCKS RUN", "location_type": null, "platform_code": null, "zone_id": null}, {"stop_lat": 30.178217, "stop_timezone": null, "wheelchair_boarding": 0, "stop_code": "5159", "direction_id": 1, "stop_lon": -97.755781, "parent_station": null, "route_id": "333", "stop_url": null, "stop_sequence": 46, "stop_id": "5159", "stop_desc": "004500 BLUE MEADOW & GRANGER", "stop_name": "BLUE MEADOW/GRANGER", "location_type": null, "platform_code": null, "zone_id": null}, {"stop_lat": 30.155447, "stop_timezone": null, "wheelchair_boarding": 0, "stop_code": "5701", "direction_id": 1, "stop_lon": -97.74224, "parent_station": null, "route_id": "333", "stop_url": null, "stop_sequence": 46, "stop_id": "5701", "stop_desc": "006501 ALUM ROCK & FALL MEADOW", "stop_name": "6501 ALUM ROCK/FALL MEADOW", "location_type": null, "platform_code": null, "zone_id": null}, {"stop_lat": 30.180708, "stop_timezone": null, "wheelchair_boarding": 0, "stop_code": "2483", "direction_id": 1, "stop_lon": -97.750278, "parent_station": null, "route_id": "333", "stop_url": null, "stop_sequence": 47, "stop_id": "2483", "stop_desc": "006601 MEADOW LAKE & WILLIAM CANNON", "stop_name": "6601 MEADOW LAKE/WILLIAM CANNON", "location_type": null, "platform_code": null, "zone_id": null}, {"stop_lat": 30.17821, "stop_timezone": null, "wheelchair_boarding": 0, "stop_code": "5136", "direction_id": 1, "stop_lon": -97.75476, "parent_station": null, "route_id": "333", "stop_url": null, "stop_sequence": 47, "stop_id": "5136", "stop_desc": "006930 MEADOW LAKE & BLUE MEADOW", "stop_name": "MEADOW LAKE/BLUE MEADOW", "location_type": null, "platform_code": null, "zone_id": null}, {"stop_lat": 30.157067, "stop_timezone": null, "wheelchair_boarding": 0, "stop_code": "5702", "direction_id": 1, "stop_lon": -97.743627, "parent_station": null, "route_id": "333", "stop_url": null, "stop_sequence": 47, "stop_id": "5702", "stop_desc": "008213 PANADERO & ALUM ROCK", "stop_name": "8213 PANADERO/ALUM ROCK", "location_type": null, "platform_code": null, "zone_id": null}, {"stop_lat": 30.179042, "stop_timezone": null, "wheelchair_boarding": 0, "stop_code": "2482", "direction_id": 1, "stop_lon": -97.753083, "parent_station": null, "route_id": "333", "stop_url": null, "stop_sequence": 48, "stop_id": "2482", "stop_desc": "006805 MEADOW LAKE & BUCKS RUN", "stop_name": "6805 MEADOW LAKE/BUCKS RUN", "location_type": null, "platform_code": null, "zone_id": null}, {"stop_lat": 30.179893, "stop_timezone": null, "wheelchair_boarding": 0, "stop_code": "5398", "direction_id": 1, "stop_lon": -97.747991, "parent_station": null, "route_id": "333", "stop_url": null, "stop_sequence": 48, "stop_id": "5398", "stop_desc": "005201 WILLIAM CANNON & PLEASANT VALLEY", "stop_name": "5201 WILLIAM CANNON/PLEASANT VALLEY", "location_type": null, "platform_code": null, "zone_id": null}, {"stop_lat": 30.180708, "stop_timezone": null, "wheelchair_boarding": 0, "stop_code": "2483", "direction_id": 1, "stop_lon": -97.750278, "parent_station": null, "route_id": "333", "stop_url": null, "stop_sequence": 49, "stop_id": "2483", "stop_desc": "006601 MEADOW LAKE & WILLIAM CANNON", "stop_name": "6601 MEADOW LAKE/WILLIAM CANNON", "location_type": null, "platform_code": null, "zone_id": null}, {"stop_lat": 30.17697, "stop_timezone": null, "wheelchair_boarding": 0, "stop_code": "3237", "direction_id": 1, "stop_lon": -97.74872, "parent_station": null, "route_id": "333", "stop_url": null, "stop_sequence": 49, "stop_id": "3237", "stop_desc": "006800 PLEASANT VALLEY & SAND HILL", "stop_name": "6800 PLEASANT VALLEY/SAND HILL", "location_type": null, "platform_code": null, "zone_id": null}, {"stop_lat": 30.168548, "stop_timezone": null, "wheelchair_boarding": 0, "stop_code": "4357", "direction_id": 1, "stop_lon": -97.739677, "parent_station": null, "route_id": "333", "stop_url": null, "stop_sequence": 49, "stop_id": "4357", "stop_desc": "007200 SALT SPRINGS & ORLEANS", "stop_name": "7200 SALT SPRINGS/ORLEANS", "location_type": null, "platform_code": null, "zone_id": null}, {"stop_lat": 30.173491, "stop_timezone": null, "wheelchair_boarding": 0, "stop_code": "3673", "direction_id": 1, "stop_lon": -97.751556, "parent_station": null, "route_id": "333", "stop_url": null, "stop_sequence": 50, "stop_id": "3673", "stop_desc": "007106 PLEASANT VALLEY & SPRINGVILLE", "stop_name": "7106 PLEASANT VALLEY/SPRINGVILLE", "location_type": null, "platform_code": null, "zone_id": null}, {"stop_lat": 30.16528, "stop_timezone": null, "wheelchair_boarding": 0, "stop_code": "4359", "direction_id": 1, "stop_lon": -97.741884, "parent_station": null, "route_id": "333", "stop_url": null, "stop_sequence": 50, "stop_id": "4359", "stop_desc": "007400 SALT SPRINGS & ASA", "stop_name": "SALT SPRINGS/ASA", "location_type": null, "platform_code": null, "zone_id": null}, {"stop_lat": 30.179893, "stop_timezone": null, "wheelchair_boarding": 0, "stop_code": "5398", "direction_id": 1, "stop_lon": -97.747991, "parent_station": null, "route_id": "333", "stop_url": null, "stop_sequence": 50, "stop_id": "5398", "stop_desc": "005201 WILLIAM CANNON & PLEASANT VALLEY", "stop_name": "5201 WILLIAM CANNON/PLEASANT VALLEY", "location_type": null, "platform_code": null, "zone_id": null}, {"stop_lat": 30.170484, "stop_timezone": null, "wheelchair_boarding": 0, "stop_code": "3161", "direction_id": 1, "stop_lon": -97.752802, "parent_station": null, "route_id": "333", "stop_url": null, "stop_sequence": 51, "stop_id": "3161", "stop_desc": "007455 ONION CREEK & PLEASANT VALLEY", "stop_name": "7455 ONION CREEK/PLEASANT VALLEY", "location_type": null, "platform_code": null, "zone_id": null}, {"stop_lat": 30.17697, "stop_timezone": null, "wheelchair_boarding": 0, "stop_code": "3237", "direction_id": 1, "stop_lon": -97.74872, "parent_station": null, "route_id": "333", "stop_url": null, "stop_sequence": 51, "stop_id": "3237", "stop_desc": "006800 PLEASANT VALLEY & SAND HILL", "stop_name": "6800 PLEASANT VALLEY/SAND HILL", "location_type": null, "platform_code": null, "zone_id": null}, {"stop_lat": 30.163611, "stop_timezone": null, "wheelchair_boarding": 0, "stop_code": "3901", "direction_id": 1, "stop_lon": -97.742899, "parent_station": null, "route_id": "333", "stop_url": null, "stop_sequence": 51, "stop_id": "3901", "stop_desc": "007615 SALT SPRINGS & TARA", "stop_name": "SALT SPRINGS/TARA", "location_type": null, "platform_code": null, "zone_id": null}, {"stop_lat": 30.168548, "stop_timezone": null, "wheelchair_boarding": 0, "stop_code": "4357", "direction_id": 1, "stop_lon": -97.739677, "parent_station": null, "route_id": "333", "stop_url": null, "stop_sequence": 51, "stop_id": "4357", "stop_desc": "007200 SALT SPRINGS & ORLEANS", "stop_name": "7200 SALT SPRINGS/ORLEANS", "location_type": null, "platform_code": null, "zone_id": null}, {"stop_lat": 30.173491, "stop_timezone": null, "wheelchair_boarding": 0, "stop_code": "3673", "direction_id": 1, "stop_lon": -97.751556, "parent_station": null, "route_id": "333", "stop_url": null, "stop_sequence": 52, "stop_id": "3673", "stop_desc": "007106 PLEASANT VALLEY & SPRINGVILLE", "stop_name": "7106 PLEASANT VALLEY/SPRINGVILLE", "location_type": null, "platform_code": null, "zone_id": null}, {"stop_lat": 30.168895, "stop_timezone": null, "wheelchair_boarding": 0, "stop_code": "4356", "direction_id": 1, "stop_lon": -97.749696, "parent_station": null, "route_id": "333", "stop_url": null, "stop_sequence": 52, "stop_id": "4356", "stop_desc": "007424 ONION CREEK & DRAGONFLY", "stop_name": "ONION CREEK/DRAGONFLY", "location_type": null, "platform_code": null, "zone_id": null}, {"stop_lat": 30.16528, "stop_timezone": null, "wheelchair_boarding": 0, "stop_code": "4359", "direction_id": 1, "stop_lon": -97.741884, "parent_station": null, "route_id": "333", "stop_url": null, "stop_sequence": 52, "stop_id": "4359", "stop_desc": "007400 SALT SPRINGS & ASA", "stop_name": "SALT SPRINGS/ASA", "location_type": null, "platform_code": null, "zone_id": null}, {"stop_lat": 30.157548, "stop_timezone": null, "wheelchair_boarding": 0, "stop_code": "5700", "direction_id": 1, "stop_lon": -97.742243, "parent_station": null, "route_id": "333", "stop_url": null, "stop_sequence": 52, "stop_id": "5700", "stop_desc": "008022 THAXTON & RUNNING WATER", "stop_name": "8022 THAXTON/RUNNING WATER", "location_type": null, "platform_code": null, "zone_id": null}, {"stop_lat": 30.170484, "stop_timezone": null, "wheelchair_boarding": 0, "stop_code": "3161", "direction_id": 1, "stop_lon": -97.752802, "parent_station": null, "route_id": "333", "stop_url": null, "stop_sequence": 53, "stop_id": "3161", "stop_desc": "007455 ONION CREEK & PLEASANT VALLEY", "stop_name": "7455 ONION CREEK/PLEASANT VALLEY", "location_type": null, "platform_code": null, "zone_id": null}, {"stop_lat": 30.163611, "stop_timezone": null, "wheelchair_boarding": 0, "stop_code": "3901", "direction_id": 1, "stop_lon": -97.742899, "parent_station": null, "route_id": "333", "stop_url": null, "stop_sequence": 53, "stop_id": "3901", "stop_desc": "007615 SALT SPRINGS & TARA", "stop_name": "SALT SPRINGS/TARA", "location_type": null, "platform_code": null, "zone_id": null}, {"stop_lat": 30.154079, "stop_timezone": null, "wheelchair_boarding": 0, "stop_code": "5798", "direction_id": 1, "stop_lon": -97.736716, "parent_station": null, "route_id": "333", "stop_url": null, "stop_sequence": 53, "stop_id": "5798", "stop_desc": "008208 ALUM ROCK & BROAD BROOK", "stop_name": "8208 ALUM ROCK/BROAD BROOK", "location_type": null, "platform_code": null, "zone_id": null}, {"stop_lat": 30.171285, "stop_timezone": null, "wheelchair_boarding": 0, "stop_code": "5821", "direction_id": 1, "stop_lon": -97.748214, "parent_station": null, "route_id": "333", "stop_url": null, "stop_sequence": 53, "stop_id": "5821", "stop_desc": "005607 SPRINGVILLE & FIREFLY", "stop_name": "5607 SPRINGVILLE/FIREFLY", "location_type": null, "platform_code": null, "zone_id": null}, {"stop_lat": 30.173817, "stop_timezone": null, "wheelchair_boarding": 0, "stop_code": "3164", "direction_id": 1, "stop_lon": -97.751071, "parent_station": null, "route_id": "333", "stop_url": null, "stop_sequence": 54, "stop_id": "3164", "stop_desc": "007105 PLEASANT VALLEY & SPRINGVILLE", "stop_name": "7105 PLEASANT VALLEY/SPRINGVILLE", "location_type": null, "platform_code": null, "zone_id": null}, {"stop_lat": 30.168895, "stop_timezone": null, "wheelchair_boarding": 0, "stop_code": "4356", "direction_id": 1, "stop_lon": -97.749696, "parent_station": null, "route_id": "333", "stop_url": null, "stop_sequence": 54, "stop_id": "4356", "stop_desc": "007424 ONION CREEK & DRAGONFLY", "stop_name": "ONION CREEK/DRAGONFLY", "location_type": null, "platform_code": null, "zone_id": null}, {"stop_lat": 30.157548, "stop_timezone": null, "wheelchair_boarding": 0, "stop_code": "5700", "direction_id": 1, "stop_lon": -97.742243, "parent_station": null, "route_id": "333", "stop_url": null, "stop_sequence": 54, "stop_id": "5700", "stop_desc": "008022 THAXTON & RUNNING WATER", "stop_name": "8022 THAXTON/RUNNING WATER", "location_type": null, "platform_code": null, "zone_id": null}, {"stop_lat": 30.155447, "stop_timezone": null, "wheelchair_boarding": 0, "stop_code": "5701", "direction_id": 1, "stop_lon": -97.74224, "parent_station": null, "route_id": "333", "stop_url": null, "stop_sequence": 54, "stop_id": "5701", "stop_desc": "006501 ALUM ROCK & FALL MEADOW", "stop_name": "6501 ALUM ROCK/FALL MEADOW", "location_type": null, "platform_code": null, "zone_id": null}, {"stop_lat": 30.176846, "stop_timezone": null, "wheelchair_boarding": 0, "stop_code": "3165", "direction_id": 1, "stop_lon": -97.74854, "parent_station": null, "route_id": "333", "stop_url": null, "stop_sequence": 55, "stop_id": "3165", "stop_desc": "006803 PLEASANT VALLEY & SAND HILL", "stop_name": "6803 PLEASANT VALLEY/SAND HILL", "location_type": null, "platform_code": null, "zone_id": null}, {"stop_lat": 30.157067, "stop_timezone": null, "wheelchair_boarding": 0, "stop_code": "5702", "direction_id": 1, "stop_lon": -97.743627, "parent_station": null, "route_id": "333", "stop_url": null, "stop_sequence": 55, "stop_id": "5702", "stop_desc": "008213 PANADERO & ALUM ROCK", "stop_name": "8213 PANADERO/ALUM ROCK", "location_type": null, "platform_code": null, "zone_id": null}, {"stop_lat": 30.154079, "stop_timezone": null, "wheelchair_boarding": 0, "stop_code": "5798", "direction_id": 1, "stop_lon": -97.736716, "parent_station": null, "route_id": "333", "stop_url": null, "stop_sequence": 55, "stop_id": "5798", "stop_desc": "008208 ALUM ROCK & BROAD BROOK", "stop_name": "8208 ALUM ROCK/BROAD BROOK", "location_type": null, "platform_code": null, "zone_id": null}, {"stop_lat": 30.171285, "stop_timezone": null, "wheelchair_boarding": 0, "stop_code": "5821", "direction_id": 1, "stop_lon": -97.748214, "parent_station": null, "route_id": "333", "stop_url": null, "stop_sequence": 55, "stop_id": "5821", "stop_desc": "005607 SPRINGVILLE & FIREFLY", "stop_name": "5607 SPRINGVILLE/FIREFLY", "location_type": null, "platform_code": null, "zone_id": null}, {"stop_lat": 30.173817, "stop_timezone": null, "wheelchair_boarding": 0, "stop_code": "3164", "direction_id": 1, "stop_lon": -97.751071, "parent_station": null, "route_id": "333", "stop_url": null, "stop_sequence": 56, "stop_id": "3164", "stop_desc": "007105 PLEASANT VALLEY & SPRINGVILLE", "stop_name": "7105 PLEASANT VALLEY/SPRINGVILLE", "location_type": null, "platform_code": null, "zone_id": null}, {"stop_lat": 30.178937, "stop_timezone": null, "wheelchair_boarding": 0, "stop_code": "5399", "direction_id": 1, "stop_lon": -97.746926, "parent_station": null, "route_id": "333", "stop_url": null, "stop_sequence": 56, "stop_id": "5399", "stop_desc": "006607 PLEASANT VALLEY & WILLIAM CANNON", "stop_name": "PLEASANT VALLEY/WILLIAM CANNON", "location_type": null, "platform_code": null, "zone_id": null}, {"stop_lat": 30.155447, "stop_timezone": null, "wheelchair_boarding": 0, "stop_code": "5701", "direction_id": 1, "stop_lon": -97.74224, "parent_station": null, "route_id": "333", "stop_url": null, "stop_sequence": 56, "stop_id": "5701", "stop_desc": "006501 ALUM ROCK & FALL MEADOW", "stop_name": "6501 ALUM ROCK/FALL MEADOW", "location_type": null, "platform_code": null, "zone_id": null}, {"stop_lat": 30.176846, "stop_timezone": null, "wheelchair_boarding": 0, "stop_code": "3165", "direction_id": 1, "stop_lon": -97.74854, "parent_station": null, "route_id": "333", "stop_url": null, "stop_sequence": 57, "stop_id": "3165", "stop_desc": "006803 PLEASANT VALLEY & SAND HILL", "stop_name": "6803 PLEASANT VALLEY/SAND HILL", "location_type": null, "platform_code": null, "zone_id": null}, {"stop_lat": 30.168548, "stop_timezone": null, "wheelchair_boarding": 0, "stop_code": "4357", "direction_id": 1, "stop_lon": -97.739677, "parent_station": null, "route_id": "333", "stop_url": null, "stop_sequence": 57, "stop_id": "4357", "stop_desc": "007200 SALT SPRINGS & ORLEANS", "stop_name": "7200 SALT SPRINGS/ORLEANS", "location_type": null, "platform_code": null, "zone_id": null}, {"stop_lat": 30.157067, "stop_timezone": null, "wheelchair_boarding": 0, "stop_code": "5702", "direction_id": 1, "stop_lon": -97.743627, "parent_station": null, "route_id": "333", "stop_url": null, "stop_sequence": 57, "stop_id": "5702", "stop_desc": "008213 PANADERO & ALUM ROCK", "stop_name": "8213 PANADERO/ALUM ROCK", "location_type": null, "platform_code": null, "zone_id": null}, {"stop_lat": 30.16528, "stop_timezone": null, "wheelchair_boarding": 0, "stop_code": "4359", "direction_id": 1, "stop_lon": -97.741884, "parent_station": null, "route_id": "333", "stop_url": null, "stop_sequence": 58, "stop_id": "4359", "stop_desc": "007400 SALT SPRINGS & ASA", "stop_name": "SALT SPRINGS/ASA", "location_type": null, "platform_code": null, "zone_id": null}, {"stop_lat": 30.178937, "stop_timezone": null, "wheelchair_boarding": 0, "stop_code": "5399", "direction_id": 1, "stop_lon": -97.746926, "parent_station": null, "route_id": "333", "stop_url": null, "stop_sequence": 58, "stop_id": "5399", "stop_desc": "006607 PLEASANT VALLEY & WILLIAM CANNON", "stop_name": "PLEASANT VALLEY/WILLIAM CANNON", "location_type": null, "platform_code": null, "zone_id": null}, {"stop_lat": 30.163611, "stop_timezone": null, "wheelchair_boarding": 0, "stop_code": "3901", "direction_id": 1, "stop_lon": -97.742899, "parent_station": null, "route_id": "333", "stop_url": null, "stop_sequence": 59, "stop_id": "3901", "stop_desc": "007615 SALT SPRINGS & TARA", "stop_name": "SALT SPRINGS/TARA", "location_type": null, "platform_code": null, "zone_id": null}, {"stop_lat": 30.168548, "stop_timezone": null, "wheelchair_boarding": 0, "stop_code": "4357", "direction_id": 1, "stop_lon": -97.739677, "parent_station": null, "route_id": "333", "stop_url": null, "stop_sequence": 59, "stop_id": "4357", "stop_desc": "007200 SALT SPRINGS & ORLEANS", "stop_name": "7200 SALT SPRINGS/ORLEANS", "location_type": null, "platform_code": null, "zone_id": null}, {"stop_lat": 30.16528, "stop_timezone": null, "wheelchair_boarding": 0, "stop_code": "4359", "direction_id": 1, "stop_lon": -97.741884, "parent_station": null, "route_id": "333", "stop_url": null, "stop_sequence": 60, "stop_id": "4359", "stop_desc": "007400 SALT SPRINGS & ASA", "stop_name": "SALT SPRINGS/ASA", "location_type": null, "platform_code": null, "zone_id": null}, {"stop_lat": 30.157548, "stop_timezone": null, "wheelchair_boarding": 0, "stop_code": "5700", "direction_id": 1, "stop_lon": -97.742243, "parent_station": null, "route_id": "333", "stop_url": null, "stop_sequence": 60, "stop_id": "5700", "stop_desc": "008022 THAXTON & RUNNING WATER", "stop_name": "8022 THAXTON/RUNNING WATER", "location_type": null, "platform_code": null, "zone_id": null}, {"stop_lat": 30.163611, "stop_timezone": null, "wheelchair_boarding": 0, "stop_code": "3901", "direction_id": 1, "stop_lon": -97.742899, "parent_station": null, "route_id": "333", "stop_url": null, "stop_sequence": 61, "stop_id": "3901", "stop_desc": "007615 SALT SPRINGS & TARA", "stop_name": "SALT SPRINGS/TARA", "location_type": null, "platform_code": null, "zone_id": null}, {"stop_lat": 30.154079, "stop_timezone": null, "wheelchair_boarding": 0, "stop_code": "5798", "direction_id": 1, "stop_lon": -97.736716, "parent_station": null, "route_id": "333", "stop_url": null, "stop_sequence": 61, "stop_id": "5798", "stop_desc": "008208 ALUM ROCK & BROAD BROOK", "stop_name": "8208 ALUM ROCK/BROAD BROOK", "location_type": null, "platform_code": null, "zone_id": null}, {"stop_lat": 30.157548, "stop_timezone": null, "wheelchair_boarding": 0, "stop_code": "5700", "direction_id": 1, "stop_lon": -97.742243, "parent_station": null, "route_id": "333", "stop_url": null, "stop_sequence": 62, "stop_id": "5700", "stop_desc": "008022 THAXTON & RUNNING WATER", "stop_name": "8022 THAXTON/RUNNING WATER", "location_type": null, "platform_code": null, "zone_id": null}, {"stop_lat": 30.155447, "stop_timezone": null, "wheelchair_boarding": 0, "stop_code": "5701", "direction_id": 1, "stop_lon": -97.74224, "parent_station": null, "route_id": "333", "stop_url": null, "stop_sequence": 62, "stop_id": "5701", "stop_desc": "006501 ALUM ROCK & FALL MEADOW", "stop_name": "6501 ALUM ROCK/FALL MEADOW", "location_type": null, "platform_code": null, "zone_id": null}, {"stop_lat": 30.157067, "stop_timezone": null, "wheelchair_boarding": 0, "stop_code": "5702", "direction_id": 1, "stop_lon": -97.743627, "parent_station": null, "route_id": "333", "stop_url": null, "stop_sequence": 63, "stop_id": "5702", "stop_desc": "008213 PANADERO & ALUM ROCK", "stop_name": "8213 PANADERO/ALUM ROCK", "location_type": null, "platform_code": null, "zone_id": null}, {"stop_lat": 30.154079, "stop_timezone": null, "wheelchair_boarding": 0, "stop_code": "5798", "direction_id": 1, "stop_lon": -97.736716, "parent_station": null, "route_id": "333", "stop_url": null, "stop_sequence": 63, "stop_id": "5798", "stop_desc": "008208 ALUM ROCK & BROAD BROOK", "stop_name": "8208 ALUM ROCK/BROAD BROOK", "location_type": null, "platform_code": null, "zone_id": null}, {"stop_lat": 30.155447, "stop_timezone": null, "wheelchair_boarding": 0, "stop_code": "5701", "direction_id": 1, "stop_lon": -97.74224, "parent_station": null, "route_id": "333", "stop_url": null, "stop_sequence": 64, "stop_id": "5701", "stop_desc": "006501 ALUM ROCK & FALL MEADOW", "stop_name": "6501 ALUM ROCK/FALL MEADOW", "location_type": null, "platform_code": null, "zone_id": null}, {"stop_lat": 30.157067, "stop_timezone": null, "wheelchair_boarding": 0, "stop_code": "5702", "direction_id": 1, "stop_lon": -97.743627, "parent_station": null, "route_id": "333", "stop_url": null, "stop_sequence": 65, "stop_id": "5702", "stop_desc": "008213 PANADERO & ALUM ROCK", "stop_name": "8213 PANADERO/ALUM ROCK", "location_type": null, "platform_code": null, "zone_id": null}]
