[{"stop_timezone": "", "parent_station": "", "direction_id": "1", "stop_url": "https://www.capmetro.org/stopdetail/index.php?stop=1178", "stop_sequence": "1", "stop_id": "1178", "stop_desc": "002400 SAN JACINTO & 24TH", "location_type": "", "zone_id": "", "stop_lat": "30.287254", "wheelchair_boarding": "0", "stop_code": "1178", "stop_lon": "-97.733663", "route_id": "985", "stop_name": "2400 San Jacinto/24th"}, {"stop_timezone": "", "parent_station": "", "direction_id": "1", "stop_url": "https://www.capmetro.org/stopdetail/index.php?stop=5387", "stop_sequence": "10", "stop_id": "5387", "stop_desc": "000000 US 183 & EVANS", "location_type": "", "zone_id": "", "stop_lat": "30.586407", "wheelchair_boarding": "0", "stop_code": "5387", "stop_lon": "-97.855296", "route_id": "985", "stop_name": "Leander Station Bay D"}, {"stop_timezone": "", "parent_station": "", "direction_id": "1", "stop_url": "https://www.capmetro.org/stopdetail/index.php?stop=1179", "stop_sequence": "2", "stop_id": "1179", "stop_desc": "002300 SAN JACINTO & 23RD", "location_type": "", "zone_id": "", "stop_lat": "30.285506", "wheelchair_boarding": "0", "stop_code": "1179", "stop_lon": "-97.733782", "route_id": "985", "stop_name": "2300 San Jacinto/23rd"}, {"stop_timezone": "", "parent_station": "", "direction_id": "1", "stop_url": "https://www.capmetro.org/stopdetail/index.php?stop=915", "stop_sequence": "3", "stop_id": "915", "stop_desc": "001806 SAN JACINTO & MARTIN LUTHER KING", "location_type": "", "zone_id": "", "stop_lat": "30.279508", "wheelchair_boarding": "0", "stop_code": "915", "stop_lon": "-97.736019", "route_id": "985", "stop_name": "1806 San Jacinto/Martin Luther King"}, {"stop_timezone": "", "parent_station": "", "direction_id": "1", "stop_url": "https://www.capmetro.org/stopdetail/index.php?stop=5092", "stop_sequence": "4", "stop_id": "5092", "stop_desc": "000100 15TH & COLORADO", "location_type": "", "zone_id": "", "stop_lat": "30.277262", "wheelchair_boarding": "0", "stop_code": "5092", "stop_lon": "-97.740316", "route_id": "985", "stop_name": "15th/Colorado"}, {"stop_timezone": "", "parent_station": "", "direction_id": "1", "stop_url": "https://www.capmetro.org/stopdetail/index.php?stop=2738", "stop_sequence": "5", "stop_id": "2738", "stop_desc": "001200 GUADALUPE & 12TH", "location_type": "", "zone_id": "", "stop_lat": "30.275022", "wheelchair_boarding": "0", "stop_code": "2738", "stop_lon": "-97.744169", "route_id": "985", "stop_name": "Capitol Station (SB)"}, {"stop_timezone": "", "parent_station": "", "direction_id": "1", "stop_url": "https://www.capmetro.org/stopdetail/index.php?stop=5950", "stop_sequence": "6", "stop_id": "5950", "stop_desc": "000000 GUADALUPE & 8TH", "location_type": "", "zone_id": "", "stop_lat": "30.271503", "wheelchair_boarding": "0", "stop_code": "5950", "stop_lon": "-97.745478", "route_id": "985", "stop_name": "Guadalupe/8th"}, {"stop_timezone": "", "parent_station": "", "direction_id": "1", "stop_url": "https://www.capmetro.org/stopdetail/index.php?stop=2612", "stop_sequence": "7", "stop_id": "2612", "stop_desc": "000500 GUADALUPE & 5TH", "location_type": "", "zone_id": "", "stop_lat": "30.268253", "wheelchair_boarding": "0", "stop_code": "2612", "stop_lon": "-97.746690", "route_id": "985", "stop_name": "500 Guadalupe/5th"}, {"stop_timezone": "", "parent_station": "", "direction_id": "1", "stop_url": "https://www.capmetro.org/stopdetail/index.php?stop=716", "stop_sequence": "8", "stop_id": "716", "stop_desc": "000800 CESAR CHAVEZ & WEST", "location_type": "", "zone_id": "", "stop_lat": "30.265741", "wheelchair_boarding": "0", "stop_code": "716", "stop_lon": "-97.752406", "route_id": "985", "stop_name": "800 Cesar Chavez/West"}, {"stop_timezone": "", "parent_station": "", "direction_id": "1", "stop_url": "https://www.capmetro.org/stopdetail/index.php?stop=5230", "stop_sequence": "9", "stop_id": "5230", "stop_desc": "10900G LYNDHURST & LAKELINE", "location_type": "", "zone_id": "", "stop_lat": "30.480719", "wheelchair_boarding": "0", "stop_code": "5230", "stop_lon": "-97.786775", "route_id": "985", "stop_name": "Lakeline Station Bay G"}]
