[{"stop_timezone": "", "parent_station": "", "direction_id": "0", "stop_url": "https://www.capmetro.org/stopdetail/index.php?stop=5909", "stop_sequence": "1", "stop_id": "5909", "stop_desc": "011241 ESCARPMENT & SOUTH BAY", "location_type": "", "zone_id": "", "stop_lat": "30.185521", "wheelchair_boarding": "0", "stop_code": "5909", "stop_lon": "-97.894708", "route_id": "111", "stop_name": "11241 Escarpment/South Bay"}, {"stop_timezone": "", "parent_station": "", "direction_id": "0", "stop_url": "https://www.capmetro.org/stopdetail/index.php?stop=5900", "stop_sequence": "10", "stop_id": "5900", "stop_desc": "006911 BRUSH COUNTRY & ONE OAK", "location_type": "", "zone_id": "", "stop_lat": "30.219895", "wheelchair_boarding": "0", "stop_code": "5900", "stop_lon": "-97.843893", "route_id": "111", "stop_name": "6911 Brush Country/One Oak"}, {"stop_timezone": "", "parent_station": "", "direction_id": "0", "stop_url": "https://www.capmetro.org/stopdetail/index.php?stop=5902", "stop_sequence": "11", "stop_id": "5902", "stop_desc": "006703 BRUSH COUNTRY & WILLIAM CANNON", "location_type": "", "zone_id": "", "stop_lat": "30.222951", "wheelchair_boarding": "0", "stop_code": "5902", "stop_lon": "-97.841813", "route_id": "111", "stop_name": "6703 Brush Country/William Cannon"}, {"stop_timezone": "", "parent_station": "", "direction_id": "0", "stop_url": "https://www.capmetro.org/stopdetail/index.php?stop=5498", "stop_sequence": "12", "stop_id": "5498", "stop_desc": "000601 CESAR CHAVEZ & SAN ANTONIO", "location_type": "", "zone_id": "", "stop_lat": "30.265065", "wheelchair_boarding": "0", "stop_code": "5498", "stop_lon": "-97.750824", "route_id": "111", "stop_name": "Seaholm Station (NB)"}, {"stop_timezone": "", "parent_station": "", "direction_id": "0", "stop_url": "https://www.capmetro.org/stopdetail/index.php?stop=5944", "stop_sequence": "13", "stop_id": "5944", "stop_desc": "000215 LAVACA & 3RD", "location_type": "", "zone_id": "", "stop_lat": "30.265792", "wheelchair_boarding": "0", "stop_code": "5944", "stop_lon": "-97.746213", "route_id": "111", "stop_name": "Lavaca/3rd"}, {"stop_timezone": "", "parent_station": "", "direction_id": "0", "stop_url": "https://www.capmetro.org/stopdetail/index.php?stop=2605", "stop_sequence": "14", "stop_id": "2605", "stop_desc": "000517 LAVACA & 6TH", "location_type": "", "zone_id": "", "stop_lat": "30.268613", "wheelchair_boarding": "0", "stop_code": "2605", "stop_lon": "-97.745114", "route_id": "111", "stop_name": "517 Lavaca/6th"}, {"stop_timezone": "", "parent_station": "", "direction_id": "0", "stop_url": "https://www.capmetro.org/stopdetail/index.php?stop=4007", "stop_sequence": "15", "stop_id": "4007", "stop_desc": "000800 LAVACA & 9TH", "location_type": "", "zone_id": "", "stop_lat": "30.271378", "wheelchair_boarding": "0", "stop_code": "4007", "stop_lon": "-97.744115", "route_id": "111", "stop_name": "Lavaca/9th"}, {"stop_timezone": "", "parent_station": "", "direction_id": "0", "stop_url": "https://www.capmetro.org/stopdetail/index.php?stop=6314", "stop_sequence": "15", "stop_id": "6314", "stop_desc": "000115 7TH & COLORADO", "location_type": "", "zone_id": "", "stop_lat": "30.269174", "wheelchair_boarding": "0", "stop_code": "6314", "stop_lon": "-97.743476", "route_id": "111", "stop_name": "115 7th/Colorado"}, {"stop_timezone": "", "parent_station": "", "direction_id": "0", "stop_url": "https://www.capmetro.org/stopdetail/index.php?stop=506", "stop_sequence": "16", "stop_id": "506", "stop_desc": "000100 11TH & CONGRESS", "location_type": "", "zone_id": "", "stop_lat": "30.272700", "wheelchair_boarding": "0", "stop_code": "506", "stop_lon": "-97.741376", "route_id": "111", "stop_name": "11th/Congress"}, {"stop_timezone": "", "parent_station": "", "direction_id": "0", "stop_url": "https://www.capmetro.org/stopdetail/index.php?stop=6315", "stop_sequence": "16", "stop_id": "6315", "stop_desc": "000714 Trinity & 8Th", "location_type": "", "zone_id": "", "stop_lat": "30.269216", "wheelchair_boarding": "0", "stop_code": "6315", "stop_lon": "-97.738446", "route_id": "111", "stop_name": "805 Trinity/8th"}, {"stop_timezone": "", "parent_station": "", "direction_id": "0", "stop_url": "https://www.capmetro.org/stopdetail/index.php?stop=863", "stop_sequence": "17", "stop_id": "863", "stop_desc": "000200 11TH & SAN JACINTO", "location_type": "", "zone_id": "", "stop_lat": "30.272000", "wheelchair_boarding": "0", "stop_code": "863", "stop_lon": "-97.738836", "route_id": "111", "stop_name": "11th/San Jacinto SW Corner"}, {"stop_timezone": "", "parent_station": "", "direction_id": "0", "stop_url": "https://www.capmetro.org/stopdetail/index.php?stop=864", "stop_sequence": "17", "stop_id": "864", "stop_desc": "001117 TRINITY & 12TH", "location_type": "", "zone_id": "", "stop_lat": "30.272709", "wheelchair_boarding": "0", "stop_code": "864", "stop_lon": "-97.737150", "route_id": "111", "stop_name": "Trinity/12th"}, {"stop_timezone": "", "parent_station": "", "direction_id": "0", "stop_url": "https://www.capmetro.org/stopdetail/index.php?stop=864", "stop_sequence": "18", "stop_id": "864", "stop_desc": "001117 TRINITY & 12TH", "location_type": "", "zone_id": "", "stop_lat": "30.272709", "wheelchair_boarding": "0", "stop_code": "864", "stop_lon": "-97.737150", "route_id": "111", "stop_name": "Trinity/12th"}, {"stop_timezone": "", "parent_station": "", "direction_id": "0", "stop_url": "https://www.capmetro.org/stopdetail/index.php?stop=866", "stop_sequence": "18", "stop_id": "866", "stop_desc": "001700 TRINITY & 18TH", "location_type": "", "zone_id": "", "stop_lat": "30.278435", "wheelchair_boarding": "0", "stop_code": "866", "stop_lon": "-97.734985", "route_id": "111", "stop_name": "Trinity/18th"}, {"stop_timezone": "", "parent_station": "", "direction_id": "0", "stop_url": "https://www.capmetro.org/stopdetail/index.php?stop=1253", "stop_sequence": "19", "stop_id": "1253", "stop_desc": "002031 SAN JACINTO & 21ST", "location_type": "", "zone_id": "", "stop_lat": "30.283104", "wheelchair_boarding": "0", "stop_code": "1253", "stop_lon": "-97.733910", "route_id": "111", "stop_name": "2031 San Jacinto/21st"}, {"stop_timezone": "", "parent_station": "", "direction_id": "0", "stop_url": "https://www.capmetro.org/stopdetail/index.php?stop=866", "stop_sequence": "19", "stop_id": "866", "stop_desc": "001700 TRINITY & 18TH", "location_type": "", "zone_id": "", "stop_lat": "30.278435", "wheelchair_boarding": "0", "stop_code": "866", "stop_lon": "-97.734985", "route_id": "111", "stop_name": "Trinity/18th"}, {"stop_timezone": "", "parent_station": "", "direction_id": "0", "stop_url": "https://www.capmetro.org/stopdetail/index.php?stop=5908", "stop_sequence": "2", "stop_id": "5908", "stop_desc": "010405 ESCARPMENT & LA CROSSE", "location_type": "", "zone_id": "", "stop_lat": "30.193652", "wheelchair_boarding": "0", "stop_code": "5908", "stop_lon": "-97.885356", "route_id": "111", "stop_name": "10405 Escarpment/La Crosse"}, {"stop_timezone": "", "parent_station": "", "direction_id": "0", "stop_url": "https://www.capmetro.org/stopdetail/index.php?stop=1253", "stop_sequence": "20", "stop_id": "1253", "stop_desc": "002031 SAN JACINTO & 21ST", "location_type": "", "zone_id": "", "stop_lat": "30.283104", "wheelchair_boarding": "0", "stop_code": "1253", "stop_lon": "-97.733910", "route_id": "111", "stop_name": "2031 San Jacinto/21st"}, {"stop_timezone": "", "parent_station": "", "direction_id": "0", "stop_url": "https://www.capmetro.org/stopdetail/index.php?stop=3491", "stop_sequence": "20", "stop_id": "3491", "stop_desc": "002301 SAN JACINTO & 23RD", "location_type": "", "zone_id": "", "stop_lat": "30.285550", "wheelchair_boarding": "0", "stop_code": "3491", "stop_lon": "-97.733531", "route_id": "111", "stop_name": "2301 San Jacinto/23rd"}, {"stop_timezone": "", "parent_station": "", "direction_id": "0", "stop_url": "https://www.capmetro.org/stopdetail/index.php?stop=1255", "stop_sequence": "21", "stop_id": "1255", "stop_desc": "002329 SAN JACINTO & 24TH", "location_type": "", "zone_id": "", "stop_lat": "30.286940", "wheelchair_boarding": "0", "stop_code": "1255", "stop_lon": "-97.733427", "route_id": "111", "stop_name": "2329 San Jacinto/24th"}, {"stop_timezone": "", "parent_station": "", "direction_id": "0", "stop_url": "https://www.capmetro.org/stopdetail/index.php?stop=3491", "stop_sequence": "21", "stop_id": "3491", "stop_desc": "002301 SAN JACINTO & 23RD", "location_type": "", "zone_id": "", "stop_lat": "30.285550", "wheelchair_boarding": "0", "stop_code": "3491", "stop_lon": "-97.733531", "route_id": "111", "stop_name": "2301 San Jacinto/23rd"}, {"stop_timezone": "", "parent_station": "", "direction_id": "0", "stop_url": "https://www.capmetro.org/stopdetail/index.php?stop=1255", "stop_sequence": "22", "stop_id": "1255", "stop_desc": "002329 SAN JACINTO & 24TH", "location_type": "", "zone_id": "", "stop_lat": "30.286940", "wheelchair_boarding": "0", "stop_code": "1255", "stop_lon": "-97.733427", "route_id": "111", "stop_name": "2329 San Jacinto/24th"}, {"stop_timezone": "", "parent_station": "", "direction_id": "0", "stop_url": "https://www.capmetro.org/stopdetail/index.php?stop=1256", "stop_sequence": "22", "stop_id": "1256", "stop_desc": "002525 SAN JACINTO & DEAN KEETON", "location_type": "", "zone_id": "", "stop_lat": "30.288776", "wheelchair_boarding": "0", "stop_code": "1256", "stop_lon": "-97.734397", "route_id": "111", "stop_name": "2525 San Jacinto/Dean Keeton"}, {"stop_timezone": "", "parent_station": "", "direction_id": "0", "stop_url": "https://www.capmetro.org/stopdetail/index.php?stop=5889", "stop_sequence": "3", "stop_id": "5889", "stop_desc": "005801 SLAUGHTER & ESCARPMENT", "location_type": "", "zone_id": "", "stop_lat": "30.200218", "wheelchair_boarding": "0", "stop_code": "5889", "stop_lon": "-97.876027", "route_id": "111", "stop_name": "5801 Slaughter/Escarpment"}, {"stop_timezone": "", "parent_station": "", "direction_id": "0", "stop_url": "https://www.capmetro.org/stopdetail/index.php?stop=5891", "stop_sequence": "4", "stop_id": "5891", "stop_desc": "009111 BECKETT & LA CRESADA", "location_type": "", "zone_id": "", "stop_lat": "30.203832", "wheelchair_boarding": "0", "stop_code": "5891", "stop_lon": "-97.870754", "route_id": "111", "stop_name": "9111 Beckett/La Cresada"}, {"stop_timezone": "", "parent_station": "", "direction_id": "0", "stop_url": "https://www.capmetro.org/stopdetail/index.php?stop=5893", "stop_sequence": "5", "stop_id": "5893", "stop_desc": "008719 BECKETT & DAVIS", "location_type": "", "zone_id": "", "stop_lat": "30.208187", "wheelchair_boarding": "0", "stop_code": "5893", "stop_lon": "-97.869105", "route_id": "111", "stop_name": "8719 Beckett/Davis"}, {"stop_timezone": "", "parent_station": "", "direction_id": "0", "stop_url": "https://www.capmetro.org/stopdetail/index.php?stop=5896", "stop_sequence": "6", "stop_id": "5896", "stop_desc": "008101 BECKETT & NEW HORIZONS", "location_type": "", "zone_id": "", "stop_lat": "30.213884", "wheelchair_boarding": "0", "stop_code": "5896", "stop_lon": "-97.863891", "route_id": "111", "stop_name": "8101 Beckett at Dick Nichols Park"}, {"stop_timezone": "", "parent_station": "", "direction_id": "0", "stop_url": "https://www.capmetro.org/stopdetail/index.php?stop=5898", "stop_sequence": "7", "stop_id": "5898", "stop_desc": "007405 BECKETT & PONOMA", "location_type": "", "zone_id": "", "stop_lat": "30.219823", "wheelchair_boarding": "0", "stop_code": "5898", "stop_lon": "-97.858161", "route_id": "111", "stop_name": "7405 Beckett/Ponoma"}, {"stop_timezone": "", "parent_station": "", "direction_id": "0", "stop_url": "https://www.capmetro.org/stopdetail/index.php?stop=4446", "stop_sequence": "8", "stop_id": "4446", "stop_desc": "005125 CONVICT HILL & WOODCREEK", "location_type": "", "zone_id": "", "stop_lat": "30.218895", "wheelchair_boarding": "0", "stop_code": "4446", "stop_lon": "-97.854694", "route_id": "111", "stop_name": "5125 Convict Hill/Woodcreek"}, {"stop_timezone": "", "parent_station": "", "direction_id": "0", "stop_url": "https://www.capmetro.org/stopdetail/index.php?stop=4445", "stop_sequence": "9", "stop_id": "4445", "stop_desc": "004923 CONVICT HILL & FLAMING OAK", "location_type": "", "zone_id": "", "stop_lat": "30.217966", "wheelchair_boarding": "0", "stop_code": "4445", "stop_lon": "-97.852755", "route_id": "111", "stop_name": "4923 Convict Hill/Flaming Oak"}]
