[{"stop_lat": 30.202744, "stop_timezone": null, "wheelchair_boarding": 0, "stop_code": "4326", "direction_id": 0, "stop_lon": -97.665653, "parent_station": null, "route_id": "100", "stop_url": "http://www.capmetro.org/gismaps/stops/4326.html", "stop_sequence": 1, "stop_id": "4326", "stop_desc": "Northwest corner of PRESIDENTIAL and ABIA LOWER LEVEL - Nearside", "stop_name": "ABIA LOWER LEVEL", "location_type": null, "platform_code": null, "zone_id": null}, {"stop_lat": 30.212636, "stop_timezone": null, "wheelchair_boarding": 0, "stop_code": "5099", "direction_id": 0, "stop_lon": -97.66384, "parent_station": null, "route_id": "100", "stop_url": "http://www.capmetro.org/gismaps/stops/5099.html", "stop_sequence": 2, "stop_id": "5099", "stop_desc": "Northwest corner of NEW AIRPORT and EMPLOYEE - Mid-Block", "stop_name": "NEW AIRPORT/EMPLOYEE", "location_type": null, "platform_code": null, "zone_id": null}, {"stop_lat": 30.224996, "stop_timezone": null, "wheelchair_boarding": 0, "stop_code": "950", "direction_id": 0, "stop_lon": -97.703124, "parent_station": null, "route_id": "100", "stop_url": "http://www.capmetro.org/gismaps/stops/950.html", "stop_sequence": 3, "stop_id": "950", "stop_desc": "Northeast corner of RIVERSIDE and MONTOPOLIS - Nearside", "stop_name": "6306 RIVERSIDE/MONTOPOLIS", "location_type": null, "platform_code": null, "zone_id": null}, {"stop_lat": 30.231928, "stop_timezone": null, "wheelchair_boarding": 0, "stop_code": "1021", "direction_id": 0, "stop_lon": -97.717861, "parent_station": null, "route_id": "100", "stop_url": "http://www.capmetro.org/gismaps/stops/1021.html", "stop_sequence": 4, "stop_id": "1021", "stop_desc": "Northwest corner of RIVERSIDE and CROSSING PLACE - Farside", "stop_name": "4823 RIVERSIDE/CROSSING PLACE", "location_type": null, "platform_code": null, "zone_id": null}, {"stop_lat": 30.24114, "stop_timezone": null, "wheelchair_boarding": 0, "stop_code": "1032", "direction_id": 0, "stop_lon": -97.727591, "parent_station": null, "route_id": "100", "stop_url": "http://www.capmetro.org/gismaps/stops/1032.html", "stop_sequence": 5, "stop_id": "1032", "stop_desc": "Southeast corner of RIVERSIDE and TOWN CREEK - Nearside", "stop_name": "RIVERSIDE/TOWN CREEK", "location_type": null, "platform_code": null, "zone_id": null}, {"stop_lat": 30.257559, "stop_timezone": null, "wheelchair_boarding": 0, "stop_code": "2516", "direction_id": 0, "stop_lon": -97.746559, "parent_station": null, "route_id": "100", "stop_url": "http://www.capmetro.org/gismaps/stops/2516.html", "stop_sequence": 6, "stop_id": "2516", "stop_desc": "Northeast corner of CONGRESS and RIVERSIDE - Farside", "stop_name": "CONGRESS/RIVERSIDE", "location_type": null, "platform_code": null, "zone_id": null}, {"stop_lat": 30.264174, "stop_timezone": null, "wheelchair_boarding": 0, "stop_code": "578", "direction_id": 0, "stop_lon": -97.744098, "parent_station": null, "route_id": "100", "stop_url": "http://www.capmetro.org/gismaps/stops/578.html", "stop_sequence": 7, "stop_id": "578", "stop_desc": "Southeast corner of CONGRESS and 2ND - Nearside", "stop_name": "101 CONGRESS/2ND", "location_type": null, "platform_code": null, "zone_id": null}, {"stop_lat": 30.266052, "stop_timezone": null, "wheelchair_boarding": 0, "stop_code": "580", "direction_id": 0, "stop_lon": -97.74339, "parent_station": null, "route_id": "100", "stop_url": "http://www.capmetro.org/gismaps/stops/580.html", "stop_sequence": 8, "stop_id": "580", "stop_desc": "Southeast corner of CONGRESS and 4TH - Nearside", "stop_name": "CONGRESS/4TH", "location_type": null, "platform_code": null, "zone_id": null}, {"stop_lat": 30.265499, "stop_timezone": null, "wheelchair_boarding": 0, "stop_code": "5589", "direction_id": 0, "stop_lon": -97.73986, "parent_station": null, "route_id": "100", "stop_url": "http://www.capmetro.org/gismaps/stops/5589.html", "stop_sequence": 9, "stop_id": "5589", "stop_desc": "Northeast corner of TRINITY and 4TH - Farside", "stop_name": "TRINITY/4TH", "location_type": null, "platform_code": null, "zone_id": null}, {"stop_lat": 30.272709, "stop_timezone": null, "wheelchair_boarding": 0, "stop_code": "864", "direction_id": 0, "stop_lon": -97.73715, "parent_station": null, "route_id": "100", "stop_url": "http://www.capmetro.org/gismaps/stops/864.html", "stop_sequence": 10, "stop_id": "864", "stop_desc": "Southeast corner of TRINITY and 12TH - Nearside", "stop_name": "TRINITY/12TH", "location_type": null, "platform_code": null, "zone_id": null}, {"stop_lat": 30.278435, "stop_timezone": null, "wheelchair_boarding": 0, "stop_code": "866", "direction_id": 0, "stop_lon": -97.734985, "parent_station": null, "route_id": "100", "stop_url": "http://www.capmetro.org/gismaps/stops/866.html", "stop_sequence": 11, "stop_id": "866", "stop_desc": "Southeast corner of TRINITY and 18TH - Nearside", "stop_name": "TRINITY/18TH", "location_type": null, "platform_code": null, "zone_id": null}, {"stop_lat": 30.283104, "stop_timezone": null, "wheelchair_boarding": 0, "stop_code": "1253", "direction_id": 0, "stop_lon": -97.73391, "parent_station": null, "route_id": "100", "stop_url": "http://www.capmetro.org/gismaps/stops/1253.html", "stop_sequence": 12, "stop_id": "1253", "stop_desc": "Southeast corner of SAN JACINTO and 21ST - Nearside", "stop_name": "2031 SAN JACINTO/21ST", "location_type": null, "platform_code": null, "zone_id": null}, {"stop_lat": 30.284983, "stop_timezone": null, "wheelchair_boarding": 0, "stop_code": "5177", "direction_id": 0, "stop_lon": -97.731603, "parent_station": null, "route_id": "100", "stop_url": "http://www.capmetro.org/gismaps/stops/5177.html", "stop_sequence": 13, "stop_id": "5177", "stop_desc": "Southwest corner of 23RD and ROBERT DEDMAN - Mid-Block", "stop_name": "701 23RD/ROBERT DEDMAN", "location_type": null, "platform_code": null, "zone_id": null}]
