[{"stop_lat": 30.290572, "stop_timezone": null, "wheelchair_boarding": 0, "stop_code": "1706", "direction_id": 1, "stop_lon": -97.727389, "parent_station": null, "route_id": "171", "stop_url": "http://www.capmetro.org/gismaps/stops/1706.html", "stop_sequence": 1, "stop_id": "1706", "stop_desc": "Southwest corner of RED RIVER and 32ND - Farside", "stop_name": "3100 RED RIVER/32ND", "location_type": null, "platform_code": null, "zone_id": null}, {"stop_lat": 30.287579, "stop_timezone": null, "wheelchair_boarding": 0, "stop_code": "2077", "direction_id": 1, "stop_lon": -97.727345, "parent_station": null, "route_id": "171", "stop_url": "http://www.capmetro.org/gismaps/stops/2077.html", "stop_sequence": 2, "stop_id": "2077", "stop_desc": "Northwest corner of DEAN KEETON and RED RIVER - Farside", "stop_name": "920 DEAN KEETON/RED RIVER", "location_type": null, "platform_code": null, "zone_id": null}, {"stop_lat": 30.289184, "stop_timezone": null, "wheelchair_boarding": 0, "stop_code": "2757", "direction_id": 1, "stop_lon": -97.730013, "parent_station": null, "route_id": "171", "stop_url": "http://www.capmetro.org/gismaps/stops/2757.html", "stop_sequence": 3, "stop_id": "2757", "stop_desc": "Northwest corner of DEAN KEETON and HAMPTON - Farside", "stop_name": "810 DEAN KEETON/HAMPTON", "location_type": null, "platform_code": null, "zone_id": null}, {"stop_lat": 30.287254, "stop_timezone": null, "wheelchair_boarding": 0, "stop_code": "1178", "direction_id": 1, "stop_lon": -97.733663, "parent_station": null, "route_id": "171", "stop_url": "http://www.capmetro.org/gismaps/stops/1178.html", "stop_sequence": 4, "stop_id": "1178", "stop_desc": "Northwest corner of SAN JACINTO and 24TH - Nearside", "stop_name": "2400 SAN JACINTO/24TH", "location_type": null, "platform_code": null, "zone_id": null}, {"stop_lat": 30.287254, "stop_timezone": null, "wheelchair_boarding": 0, "stop_code": "1178", "direction_id": 1, "stop_lon": -97.733663, "parent_station": null, "route_id": "171", "stop_url": "http://www.capmetro.org/gismaps/stops/1178.html", "stop_sequence": 5, "stop_id": "1178", "stop_desc": "Northwest corner of SAN JACINTO and 24TH - Nearside", "stop_name": "2400 SAN JACINTO/24TH", "location_type": null, "platform_code": null, "zone_id": null}, {"stop_lat": 30.285505, "stop_timezone": null, "wheelchair_boarding": 0, "stop_code": "1179", "direction_id": 1, "stop_lon": -97.733783, "parent_station": null, "route_id": "171", "stop_url": "http://www.capmetro.org/gismaps/stops/1179.html", "stop_sequence": 5, "stop_id": "1179", "stop_desc": "Northwest corner of SAN JACINTO and 23RD - Nearside", "stop_name": "2300 SAN JACINTO/23RD", "location_type": null, "platform_code": null, "zone_id": null}, {"stop_lat": 30.285505, "stop_timezone": null, "wheelchair_boarding": 0, "stop_code": "1179", "direction_id": 1, "stop_lon": -97.733783, "parent_station": null, "route_id": "171", "stop_url": "http://www.capmetro.org/gismaps/stops/1179.html", "stop_sequence": 6, "stop_id": "1179", "stop_desc": "Northwest corner of SAN JACINTO and 23RD - Nearside", "stop_name": "2300 SAN JACINTO/23RD", "location_type": null, "platform_code": null, "zone_id": null}, {"stop_lat": 30.283361, "stop_timezone": null, "wheelchair_boarding": 0, "stop_code": "1180", "direction_id": 1, "stop_lon": -97.734167, "parent_station": null, "route_id": "171", "stop_url": "http://www.capmetro.org/gismaps/stops/1180.html", "stop_sequence": 6, "stop_id": "1180", "stop_desc": "Northwest corner of SAN JACINTO and 21ST - Nearside", "stop_name": "2100 SAN JACINTO/21ST", "location_type": null, "platform_code": null, "zone_id": null}, {"stop_lat": 30.283361, "stop_timezone": null, "wheelchair_boarding": 0, "stop_code": "1180", "direction_id": 1, "stop_lon": -97.734167, "parent_station": null, "route_id": "171", "stop_url": "http://www.capmetro.org/gismaps/stops/1180.html", "stop_sequence": 7, "stop_id": "1180", "stop_desc": "Northwest corner of SAN JACINTO and 21ST - Nearside", "stop_name": "2100 SAN JACINTO/21ST", "location_type": null, "platform_code": null, "zone_id": null}, {"stop_lat": 30.279508, "stop_timezone": null, "wheelchair_boarding": 0, "stop_code": "915", "direction_id": 1, "stop_lon": -97.736019, "parent_station": null, "route_id": "171", "stop_url": "http://www.capmetro.org/gismaps/stops/915.html", "stop_sequence": 7, "stop_id": "915", "stop_desc": "Southwest corner of SAN JACINTO and MARTIN LUTHER KING - Farside", "stop_name": "1806 SAN JACINTO/MARTIN LUTHER KING", "location_type": null, "platform_code": null, "zone_id": null}, {"stop_lat": 30.279508, "stop_timezone": null, "wheelchair_boarding": 0, "stop_code": "915", "direction_id": 1, "stop_lon": -97.736019, "parent_station": null, "route_id": "171", "stop_url": "http://www.capmetro.org/gismaps/stops/915.html", "stop_sequence": 8, "stop_id": "915", "stop_desc": "Southwest corner of SAN JACINTO and MARTIN LUTHER KING - Farside", "stop_name": "1806 SAN JACINTO/MARTIN LUTHER KING", "location_type": null, "platform_code": null, "zone_id": null}, {"stop_lat": 30.278165, "stop_timezone": null, "wheelchair_boarding": 0, "stop_code": "916", "direction_id": 1, "stop_lon": -97.736503, "parent_station": null, "route_id": "171", "stop_url": "http://www.capmetro.org/gismaps/stops/916.html", "stop_sequence": 8, "stop_id": "916", "stop_desc": "Northwest corner of SAN JACINTO and 17TH - Nearside", "stop_name": "SAN JACINTO/17TH", "location_type": null, "platform_code": null, "zone_id": null}, {"stop_lat": 30.278165, "stop_timezone": null, "wheelchair_boarding": 0, "stop_code": "916", "direction_id": 1, "stop_lon": -97.736503, "parent_station": null, "route_id": "171", "stop_url": "http://www.capmetro.org/gismaps/stops/916.html", "stop_sequence": 9, "stop_id": "916", "stop_desc": "Northwest corner of SAN JACINTO and 17TH - Nearside", "stop_name": "SAN JACINTO/17TH", "location_type": null, "platform_code": null, "zone_id": null}, {"stop_lat": 30.276411, "stop_timezone": null, "wheelchair_boarding": 0, "stop_code": "918", "direction_id": 1, "stop_lon": -97.73718, "parent_station": null, "route_id": "171", "stop_url": "http://www.capmetro.org/gismaps/stops/918.html", "stop_sequence": 9, "stop_id": "918", "stop_desc": "Northwest corner of SAN JACINTO and 15TH - Nearside", "stop_name": "SAN JACINTO/15TH", "location_type": null, "platform_code": null, "zone_id": null}, {"stop_lat": 30.276411, "stop_timezone": null, "wheelchair_boarding": 0, "stop_code": "918", "direction_id": 1, "stop_lon": -97.73718, "parent_station": null, "route_id": "171", "stop_url": "http://www.capmetro.org/gismaps/stops/918.html", "stop_sequence": 10, "stop_id": "918", "stop_desc": "Northwest corner of SAN JACINTO and 15TH - Nearside", "stop_name": "SAN JACINTO/15TH", "location_type": null, "platform_code": null, "zone_id": null}, {"stop_lat": 30.275451, "stop_timezone": null, "wheelchair_boarding": 1, "stop_code": "919", "direction_id": 1, "stop_lon": -97.737526, "parent_station": null, "route_id": "171", "stop_url": "http://www.capmetro.org/gismaps/stops/919.html", "stop_sequence": 10, "stop_id": "919", "stop_desc": "Northwest corner of SAN JACINTO and 14TH - Nearside", "stop_name": "SAN JACINTO/14TH", "location_type": null, "platform_code": null, "zone_id": null}, {"stop_lat": 30.275451, "stop_timezone": null, "wheelchair_boarding": 1, "stop_code": "919", "direction_id": 1, "stop_lon": -97.737526, "parent_station": null, "route_id": "171", "stop_url": "http://www.capmetro.org/gismaps/stops/919.html", "stop_sequence": 11, "stop_id": "919", "stop_desc": "Northwest corner of SAN JACINTO and 14TH - Nearside", "stop_name": "SAN JACINTO/14TH", "location_type": null, "platform_code": null, "zone_id": null}, {"stop_lat": 30.274498, "stop_timezone": null, "wheelchair_boarding": 0, "stop_code": "920", "direction_id": 1, "stop_lon": -97.737862, "parent_station": null, "route_id": "171", "stop_url": "http://www.capmetro.org/gismaps/stops/920.html", "stop_sequence": 11, "stop_id": "920", "stop_desc": "Northwest corner of SAN JACINTO and 13TH - Nearside", "stop_name": "SAN JACINTO/13TH", "location_type": null, "platform_code": null, "zone_id": null}, {"stop_lat": 30.274498, "stop_timezone": null, "wheelchair_boarding": 0, "stop_code": "920", "direction_id": 1, "stop_lon": -97.737862, "parent_station": null, "route_id": "171", "stop_url": "http://www.capmetro.org/gismaps/stops/920.html", "stop_sequence": 12, "stop_id": "920", "stop_desc": "Northwest corner of SAN JACINTO and 13TH - Nearside", "stop_name": "SAN JACINTO/13TH", "location_type": null, "platform_code": null, "zone_id": null}, {"stop_lat": 30.272213, "stop_timezone": null, "wheelchair_boarding": 0, "stop_code": "922", "direction_id": 1, "stop_lon": -97.738718, "parent_station": null, "route_id": "171", "stop_url": "http://www.capmetro.org/gismaps/stops/922.html", "stop_sequence": 12, "stop_id": "922", "stop_desc": "Northwest corner of SAN JACINTO and 11TH - Nearside", "stop_name": "SAN JACINTO/11TH", "location_type": null, "platform_code": null, "zone_id": null}, {"stop_lat": 30.271503, "stop_timezone": null, "wheelchair_boarding": 0, "stop_code": "5950", "direction_id": 1, "stop_lon": -97.745478, "parent_station": null, "route_id": "171", "stop_url": "http://www.capmetro.org/gismaps/stops/5950.html", "stop_sequence": 13, "stop_id": "5950", "stop_desc": "Northwest corner of GUADALUPE and 8TH - Mid-Block", "stop_name": "GUADALUPE/8TH", "location_type": null, "platform_code": null, "zone_id": null}, {"stop_lat": 30.272213, "stop_timezone": null, "wheelchair_boarding": 0, "stop_code": "922", "direction_id": 1, "stop_lon": -97.738718, "parent_station": null, "route_id": "171", "stop_url": "http://www.capmetro.org/gismaps/stops/922.html", "stop_sequence": 13, "stop_id": "922", "stop_desc": "Northwest corner of SAN JACINTO and 11TH - Nearside", "stop_name": "SAN JACINTO/11TH", "location_type": null, "platform_code": null, "zone_id": null}, {"stop_lat": 30.268253, "stop_timezone": null, "wheelchair_boarding": 0, "stop_code": "2612", "direction_id": 1, "stop_lon": -97.74669, "parent_station": null, "route_id": "171", "stop_url": "http://www.capmetro.org/gismaps/stops/2612.html", "stop_sequence": 14, "stop_id": "2612", "stop_desc": "Southwest corner of GUADALUPE and 5TH - Nearside", "stop_name": "500 GUADALUPE/5TH", "location_type": null, "platform_code": null, "zone_id": null}, {"stop_lat": 30.271503, "stop_timezone": null, "wheelchair_boarding": 0, "stop_code": "5950", "direction_id": 1, "stop_lon": -97.745478, "parent_station": null, "route_id": "171", "stop_url": "http://www.capmetro.org/gismaps/stops/5950.html", "stop_sequence": 14, "stop_id": "5950", "stop_desc": "Northwest corner of GUADALUPE and 8TH - Mid-Block", "stop_name": "GUADALUPE/8TH", "location_type": null, "platform_code": null, "zone_id": null}, {"stop_lat": 30.268253, "stop_timezone": null, "wheelchair_boarding": 0, "stop_code": "2612", "direction_id": 1, "stop_lon": -97.74669, "parent_station": null, "route_id": "171", "stop_url": "http://www.capmetro.org/gismaps/stops/2612.html", "stop_sequence": 15, "stop_id": "2612", "stop_desc": "Southwest corner of GUADALUPE and 5TH - Nearside", "stop_name": "500 GUADALUPE/5TH", "location_type": null, "platform_code": null, "zone_id": null}, {"stop_lat": 30.265387, "stop_timezone": null, "wheelchair_boarding": 0, "stop_code": "5146", "direction_id": 1, "stop_lon": -97.74896, "parent_station": null, "route_id": "171", "stop_url": "http://www.capmetro.org/gismaps/stops/5146.html", "stop_sequence": 15, "stop_id": "5146", "stop_desc": "Southwest corner of SAN ANTONIO and 2ND - Mid-Block", "stop_name": "SAN ANTONIO/2ND", "location_type": null, "platform_code": null, "zone_id": null}, {"stop_lat": 30.265387, "stop_timezone": null, "wheelchair_boarding": 0, "stop_code": "5146", "direction_id": 1, "stop_lon": -97.74896, "parent_station": null, "route_id": "171", "stop_url": "http://www.capmetro.org/gismaps/stops/5146.html", "stop_sequence": 16, "stop_id": "5146", "stop_desc": "Southwest corner of SAN ANTONIO and 2ND - Mid-Block", "stop_name": "SAN ANTONIO/2ND", "location_type": null, "platform_code": null, "zone_id": null}, {"stop_lat": 30.265741, "stop_timezone": null, "wheelchair_boarding": 0, "stop_code": "716", "direction_id": 1, "stop_lon": -97.752406, "parent_station": null, "route_id": "171", "stop_url": "http://www.capmetro.org/gismaps/stops/716.html", "stop_sequence": 16, "stop_id": "716", "stop_desc": "Northwest corner of CESAR CHAVEZ and WEST - Farside", "stop_name": "800 CESAR CHAVEZ/WEST", "location_type": null, "platform_code": null, "zone_id": null}, {"stop_lat": 30.234397, "stop_timezone": null, "wheelchair_boarding": 0, "stop_code": "4486", "direction_id": 1, "stop_lon": -97.863234, "parent_station": null, "route_id": "171", "stop_url": "http://www.capmetro.org/gismaps/stops/4486.html", "stop_sequence": 17, "stop_id": "4486", "stop_desc": "Southeast corner of US 290 and WILLIAM CANNON - Mid-Block", "stop_name": "OAK HILL PARK AND RIDE", "location_type": null, "platform_code": null, "zone_id": null}, {"stop_lat": 30.265741, "stop_timezone": null, "wheelchair_boarding": 0, "stop_code": "716", "direction_id": 1, "stop_lon": -97.752406, "parent_station": null, "route_id": "171", "stop_url": "http://www.capmetro.org/gismaps/stops/716.html", "stop_sequence": 17, "stop_id": "716", "stop_desc": "Northwest corner of CESAR CHAVEZ and WEST - Farside", "stop_name": "800 CESAR CHAVEZ/WEST", "location_type": null, "platform_code": null, "zone_id": null}, {"stop_lat": 30.236589, "stop_timezone": null, "wheelchair_boarding": 0, "stop_code": "4483", "direction_id": 1, "stop_lon": -97.895114, "parent_station": null, "route_id": "171", "stop_url": "http://www.capmetro.org/gismaps/stops/4483.html", "stop_sequence": 25, "stop_id": "4483", "stop_desc": "Northeast corner of SCENIC BROOK and GALLATIN - Nearside", "stop_name": "7512 SCENIC BROOK/GALLATIN", "location_type": null, "platform_code": null, "zone_id": null}, {"stop_lat": 30.236589, "stop_timezone": null, "wheelchair_boarding": 0, "stop_code": "4483", "direction_id": 1, "stop_lon": -97.895114, "parent_station": null, "route_id": "171", "stop_url": "http://www.capmetro.org/gismaps/stops/4483.html", "stop_sequence": 35, "stop_id": "4483", "stop_desc": "Northeast corner of SCENIC BROOK and GALLATIN - Nearside", "stop_name": "7512 SCENIC BROOK/GALLATIN", "location_type": null, "platform_code": null, "zone_id": null}]
