[{"stop_lat": 30.28725, "stop_timezone": null, "wheelchair_boarding": 0, "stop_code": "1178", "direction_id": 1, "stop_lon": -97.73366, "parent_station": null, "route_id": "171", "stop_url": null, "stop_sequence": 1, "stop_id": "1178", "stop_desc": "002400 SAN JACINTO & 24TH", "stop_name": "2400 SAN JACINTO/24TH", "location_type": null, "platform_code": null, "zone_id": null}, {"stop_lat": 30.290572, "stop_timezone": null, "wheelchair_boarding": 0, "stop_code": "1706", "direction_id": 1, "stop_lon": -97.727389, "parent_station": null, "route_id": "171", "stop_url": null, "stop_sequence": 1, "stop_id": "1706", "stop_desc": "003100 RED RIVER & 32ND", "stop_name": "3100 RED RIVER/32ND", "location_type": null, "platform_code": null, "zone_id": null}, {"stop_lat": 30.2855, "stop_timezone": null, "wheelchair_boarding": 0, "stop_code": "1179", "direction_id": 1, "stop_lon": -97.73378, "parent_station": null, "route_id": "171", "stop_url": null, "stop_sequence": 2, "stop_id": "1179", "stop_desc": "002300 SAN JACINTO & 23RD", "stop_name": "2300 SAN JACINTO/23RD", "location_type": null, "platform_code": null, "zone_id": null}, {"stop_lat": 30.287579, "stop_timezone": null, "wheelchair_boarding": 0, "stop_code": "2077", "direction_id": 1, "stop_lon": -97.727345, "parent_station": null, "route_id": "171", "stop_url": null, "stop_sequence": 2, "stop_id": "2077", "stop_desc": "000920 DEAN KEETON & RED RIVER", "stop_name": "920 DEAN KEETON/RED RIVER", "location_type": null, "platform_code": null, "zone_id": null}, {"stop_lat": 30.28336, "stop_timezone": null, "wheelchair_boarding": 0, "stop_code": "1180", "direction_id": 1, "stop_lon": -97.73417, "parent_station": null, "route_id": "171", "stop_url": null, "stop_sequence": 3, "stop_id": "1180", "stop_desc": "002100 SAN JACINTO & 21ST", "stop_name": "2100 SAN JACINTO/21ST", "location_type": null, "platform_code": null, "zone_id": null}, {"stop_lat": 30.28918, "stop_timezone": null, "wheelchair_boarding": 0, "stop_code": "2757", "direction_id": 1, "stop_lon": -97.73001, "parent_station": null, "route_id": "171", "stop_url": null, "stop_sequence": 3, "stop_id": "2757", "stop_desc": "000810 DEAN KEETON & HAMPTON", "stop_name": "810 DEAN KEETON/HAMPTON", "location_type": null, "platform_code": null, "zone_id": null}, {"stop_lat": 30.28725, "stop_timezone": null, "wheelchair_boarding": 0, "stop_code": "1178", "direction_id": 1, "stop_lon": -97.73366, "parent_station": null, "route_id": "171", "stop_url": null, "stop_sequence": 4, "stop_id": "1178", "stop_desc": "002400 SAN JACINTO & 24TH", "stop_name": "2400 SAN JACINTO/24TH", "location_type": null, "platform_code": null, "zone_id": null}, {"stop_lat": 30.279508, "stop_timezone": null, "wheelchair_boarding": 0, "stop_code": "915", "direction_id": 1, "stop_lon": -97.736019, "parent_station": null, "route_id": "171", "stop_url": null, "stop_sequence": 4, "stop_id": "915", "stop_desc": "001806 SAN JACINTO & MARTIN LUTHER KING", "stop_name": "1806 SAN JACINTO/MARTIN LUTHER KING", "location_type": null, "platform_code": null, "zone_id": null}, {"stop_lat": 30.2855, "stop_timezone": null, "wheelchair_boarding": 0, "stop_code": "1179", "direction_id": 1, "stop_lon": -97.73378, "parent_station": null, "route_id": "171", "stop_url": null, "stop_sequence": 5, "stop_id": "1179", "stop_desc": "002300 SAN JACINTO & 23RD", "stop_name": "2300 SAN JACINTO/23RD", "location_type": null, "platform_code": null, "zone_id": null}, {"stop_lat": 30.27816, "stop_timezone": null, "wheelchair_boarding": 0, "stop_code": "916", "direction_id": 1, "stop_lon": -97.7365, "parent_station": null, "route_id": "171", "stop_url": null, "stop_sequence": 5, "stop_id": "916", "stop_desc": "001700 SAN JACINTO & 17TH", "stop_name": "SAN JACINTO/17TH", "location_type": null, "platform_code": null, "zone_id": null}, {"stop_lat": 30.28336, "stop_timezone": null, "wheelchair_boarding": 0, "stop_code": "1180", "direction_id": 1, "stop_lon": -97.73417, "parent_station": null, "route_id": "171", "stop_url": null, "stop_sequence": 6, "stop_id": "1180", "stop_desc": "002100 SAN JACINTO & 21ST", "stop_name": "2100 SAN JACINTO/21ST", "location_type": null, "platform_code": null, "zone_id": null}, {"stop_lat": 30.27641, "stop_timezone": null, "wheelchair_boarding": 0, "stop_code": "918", "direction_id": 1, "stop_lon": -97.73718, "parent_station": null, "route_id": "171", "stop_url": null, "stop_sequence": 6, "stop_id": "918", "stop_desc": "001500 SAN JACINTO & 15TH", "stop_name": "SAN JACINTO/15TH", "location_type": null, "platform_code": null, "zone_id": null}, {"stop_lat": 30.279508, "stop_timezone": null, "wheelchair_boarding": 0, "stop_code": "915", "direction_id": 1, "stop_lon": -97.736019, "parent_station": null, "route_id": "171", "stop_url": null, "stop_sequence": 7, "stop_id": "915", "stop_desc": "001806 SAN JACINTO & MARTIN LUTHER KING", "stop_name": "1806 SAN JACINTO/MARTIN LUTHER KING", "location_type": null, "platform_code": null, "zone_id": null}, {"stop_lat": 30.275451, "stop_timezone": null, "wheelchair_boarding": 0, "stop_code": "919", "direction_id": 1, "stop_lon": -97.737526, "parent_station": null, "route_id": "171", "stop_url": null, "stop_sequence": 7, "stop_id": "919", "stop_desc": "001400 SAN JACINTO & 14TH", "stop_name": "SAN JACINTO/14TH", "location_type": null, "platform_code": null, "zone_id": null}, {"stop_lat": 30.27816, "stop_timezone": null, "wheelchair_boarding": 0, "stop_code": "916", "direction_id": 1, "stop_lon": -97.7365, "parent_station": null, "route_id": "171", "stop_url": null, "stop_sequence": 8, "stop_id": "916", "stop_desc": "001700 SAN JACINTO & 17TH", "stop_name": "SAN JACINTO/17TH", "location_type": null, "platform_code": null, "zone_id": null}, {"stop_lat": 30.2745, "stop_timezone": null, "wheelchair_boarding": 0, "stop_code": "920", "direction_id": 1, "stop_lon": -97.73786, "parent_station": null, "route_id": "171", "stop_url": null, "stop_sequence": 8, "stop_id": "920", "stop_desc": "001300 SAN JACINTO & 13TH", "stop_name": "SAN JACINTO/13TH", "location_type": null, "platform_code": null, "zone_id": null}, {"stop_lat": 30.27641, "stop_timezone": null, "wheelchair_boarding": 0, "stop_code": "918", "direction_id": 1, "stop_lon": -97.73718, "parent_station": null, "route_id": "171", "stop_url": null, "stop_sequence": 9, "stop_id": "918", "stop_desc": "001500 SAN JACINTO & 15TH", "stop_name": "SAN JACINTO/15TH", "location_type": null, "platform_code": null, "zone_id": null}, {"stop_lat": 30.27221, "stop_timezone": null, "wheelchair_boarding": 0, "stop_code": "922", "direction_id": 1, "stop_lon": -97.73872, "parent_station": null, "route_id": "171", "stop_url": null, "stop_sequence": 9, "stop_id": "922", "stop_desc": "001100 SAN JACINTO & 11TH", "stop_name": "SAN JACINTO/11TH", "location_type": null, "platform_code": null, "zone_id": null}, {"stop_lat": 30.271503, "stop_timezone": null, "wheelchair_boarding": 0, "stop_code": "5950", "direction_id": 1, "stop_lon": -97.745478, "parent_station": null, "route_id": "171", "stop_url": null, "stop_sequence": 10, "stop_id": "5950", "stop_desc": "000000 GUADALUPE & 8TH", "stop_name": "GUADALUPE/8TH", "location_type": null, "platform_code": null, "zone_id": null}, {"stop_lat": 30.275451, "stop_timezone": null, "wheelchair_boarding": 0, "stop_code": "919", "direction_id": 1, "stop_lon": -97.737526, "parent_station": null, "route_id": "171", "stop_url": null, "stop_sequence": 10, "stop_id": "919", "stop_desc": "001400 SAN JACINTO & 14TH", "stop_name": "SAN JACINTO/14TH", "location_type": null, "platform_code": null, "zone_id": null}, {"stop_lat": 30.268253, "stop_timezone": null, "wheelchair_boarding": 0, "stop_code": "2612", "direction_id": 1, "stop_lon": -97.74669, "parent_station": null, "route_id": "171", "stop_url": null, "stop_sequence": 11, "stop_id": "2612", "stop_desc": "000500 GUADALUPE & 5TH", "stop_name": "500 GUADALUPE/5TH", "location_type": null, "platform_code": null, "zone_id": null}, {"stop_lat": 30.2745, "stop_timezone": null, "wheelchair_boarding": 0, "stop_code": "920", "direction_id": 1, "stop_lon": -97.73786, "parent_station": null, "route_id": "171", "stop_url": null, "stop_sequence": 11, "stop_id": "920", "stop_desc": "001300 SAN JACINTO & 13TH", "stop_name": "SAN JACINTO/13TH", "location_type": null, "platform_code": null, "zone_id": null}, {"stop_lat": 30.265387, "stop_timezone": null, "wheelchair_boarding": 0, "stop_code": "5146", "direction_id": 1, "stop_lon": -97.74896, "parent_station": null, "route_id": "171", "stop_url": null, "stop_sequence": 12, "stop_id": "5146", "stop_desc": "000100 SAN ANTONIO & 2ND", "stop_name": "SAN ANTONIO/2ND", "location_type": null, "platform_code": null, "zone_id": null}, {"stop_lat": 30.27221, "stop_timezone": null, "wheelchair_boarding": 0, "stop_code": "922", "direction_id": 1, "stop_lon": -97.73872, "parent_station": null, "route_id": "171", "stop_url": null, "stop_sequence": 12, "stop_id": "922", "stop_desc": "001100 SAN JACINTO & 11TH", "stop_name": "SAN JACINTO/11TH", "location_type": null, "platform_code": null, "zone_id": null}, {"stop_lat": 30.271503, "stop_timezone": null, "wheelchair_boarding": 0, "stop_code": "5950", "direction_id": 1, "stop_lon": -97.745478, "parent_station": null, "route_id": "171", "stop_url": null, "stop_sequence": 13, "stop_id": "5950", "stop_desc": "000000 GUADALUPE & 8TH", "stop_name": "GUADALUPE/8TH", "location_type": null, "platform_code": null, "zone_id": null}, {"stop_lat": 30.265741, "stop_timezone": null, "wheelchair_boarding": 0, "stop_code": "716", "direction_id": 1, "stop_lon": -97.752406, "parent_station": null, "route_id": "171", "stop_url": null, "stop_sequence": 13, "stop_id": "716", "stop_desc": "000800 CESAR CHAVEZ & WEST", "stop_name": "800 CESAR CHAVEZ/WEST", "location_type": null, "platform_code": null, "zone_id": null}, {"stop_lat": 30.268253, "stop_timezone": null, "wheelchair_boarding": 0, "stop_code": "2612", "direction_id": 1, "stop_lon": -97.74669, "parent_station": null, "route_id": "171", "stop_url": null, "stop_sequence": 14, "stop_id": "2612", "stop_desc": "000500 GUADALUPE & 5TH", "stop_name": "500 GUADALUPE/5TH", "location_type": null, "platform_code": null, "zone_id": null}, {"stop_lat": 30.234397, "stop_timezone": null, "wheelchair_boarding": 0, "stop_code": "4486", "direction_id": 1, "stop_lon": -97.863234, "parent_station": null, "route_id": "171", "stop_url": null, "stop_sequence": 14, "stop_id": "4486", "stop_desc": "006400 US 290 & WILLIAM CANNON", "stop_name": "OAK HILL PARK AND RIDE", "location_type": null, "platform_code": null, "zone_id": null}, {"stop_lat": 30.265387, "stop_timezone": null, "wheelchair_boarding": 0, "stop_code": "5146", "direction_id": 1, "stop_lon": -97.74896, "parent_station": null, "route_id": "171", "stop_url": null, "stop_sequence": 15, "stop_id": "5146", "stop_desc": "000100 SAN ANTONIO & 2ND", "stop_name": "SAN ANTONIO/2ND", "location_type": null, "platform_code": null, "zone_id": null}, {"stop_lat": 30.265741, "stop_timezone": null, "wheelchair_boarding": 0, "stop_code": "716", "direction_id": 1, "stop_lon": -97.752406, "parent_station": null, "route_id": "171", "stop_url": null, "stop_sequence": 16, "stop_id": "716", "stop_desc": "000800 CESAR CHAVEZ & WEST", "stop_name": "800 CESAR CHAVEZ/WEST", "location_type": null, "platform_code": null, "zone_id": null}, {"stop_lat": 30.234397, "stop_timezone": null, "wheelchair_boarding": 0, "stop_code": "4486", "direction_id": 1, "stop_lon": -97.863234, "parent_station": null, "route_id": "171", "stop_url": null, "stop_sequence": 17, "stop_id": "4486", "stop_desc": "006400 US 290 & WILLIAM CANNON", "stop_name": "OAK HILL PARK AND RIDE", "location_type": null, "platform_code": null, "zone_id": null}, {"stop_lat": 30.23566, "stop_timezone": null, "wheelchair_boarding": 0, "stop_code": "2617", "direction_id": 1, "stop_lon": -97.855268, "parent_station": null, "route_id": "171", "stop_url": null, "stop_sequence": 18, "stop_id": "2617", "stop_desc": "006132 US 290 & PARKWOOD", "stop_name": "6132 US 290/PARKWOOD", "location_type": null, "platform_code": null, "zone_id": null}, {"stop_lat": 30.23701, "stop_timezone": null, "wheelchair_boarding": 0, "stop_code": "4473", "direction_id": 1, "stop_lon": -97.8787, "parent_station": null, "route_id": "171", "stop_url": null, "stop_sequence": 19, "stop_id": "4473", "stop_desc": "006900 SCENIC BROOK & SH 71", "stop_name": "6900 SCENIC BROOK/SH 71", "location_type": null, "platform_code": null, "zone_id": null}, {"stop_lat": 30.23705, "stop_timezone": null, "wheelchair_boarding": 0, "stop_code": "4475", "direction_id": 1, "stop_lon": -97.88277, "parent_station": null, "route_id": "171", "stop_url": null, "stop_sequence": 20, "stop_id": "4475", "stop_desc": "007008 SCENIC BROOK & OAK MEADOW", "stop_name": "7008 SCENIC BROOK/OAK MEADOW", "location_type": null, "platform_code": null, "zone_id": null}, {"stop_lat": 30.23715, "stop_timezone": null, "wheelchair_boarding": 0, "stop_code": "4477", "direction_id": 1, "stop_lon": -97.88631, "parent_station": null, "route_id": "171", "stop_url": null, "stop_sequence": 21, "stop_id": "4477", "stop_desc": "007126 SCENIC BROOK & STONE LEDGE", "stop_name": "7126 SCENIC BROOK/STONE LEDGE", "location_type": null, "platform_code": null, "zone_id": null}, {"stop_lat": 30.23849, "stop_timezone": null, "wheelchair_boarding": 0, "stop_code": "4479", "direction_id": 1, "stop_lon": -97.88887, "parent_station": null, "route_id": "171", "stop_url": null, "stop_sequence": 22, "stop_id": "4479", "stop_desc": "007211 SCENIC BROOK & DUNKIRK", "stop_name": "SCENIC BROOK/DUNKIRK", "location_type": null, "platform_code": null, "zone_id": null}, {"stop_lat": 30.23752, "stop_timezone": null, "wheelchair_boarding": 0, "stop_code": "4481", "direction_id": 1, "stop_lon": -97.89357, "parent_station": null, "route_id": "171", "stop_url": null, "stop_sequence": 23, "stop_id": "4481", "stop_desc": "007300 SCENIC BROOK & HANBRIDGE", "stop_name": "SCENIC BROOK/HANBRIDGE", "location_type": null, "platform_code": null, "zone_id": null}, {"stop_lat": 30.23659, "stop_timezone": null, "wheelchair_boarding": 0, "stop_code": "4483", "direction_id": 1, "stop_lon": -97.89511, "parent_station": null, "route_id": "171", "stop_url": null, "stop_sequence": 24, "stop_id": "4483", "stop_desc": "007512 SCENIC BROOK & GALLATIN", "stop_name": "7512 SCENIC BROOK/GALLATIN", "location_type": null, "platform_code": null, "zone_id": null}, {"stop_lat": 30.23565, "stop_timezone": null, "wheelchair_boarding": 0, "stop_code": "2618", "direction_id": 1, "stop_lon": -97.89875, "parent_station": null, "route_id": "171", "stop_url": null, "stop_sequence": 25, "stop_id": "2618", "stop_desc": "008400 FENTON & SCENIC BROOK", "stop_name": "FENTON/SCENIC BROOK", "location_type": null, "platform_code": null, "zone_id": null}, {"stop_lat": 30.23667, "stop_timezone": null, "wheelchair_boarding": 0, "stop_code": "4462", "direction_id": 1, "stop_lon": -97.9008, "parent_station": null, "route_id": "171", "stop_url": null, "stop_sequence": 26, "stop_id": "4462", "stop_desc": "008500 FENTON & RED WILLOW", "stop_name": "FENTON/RED WILLOW", "location_type": null, "platform_code": null, "zone_id": null}, {"stop_lat": 30.23878, "stop_timezone": null, "wheelchair_boarding": 0, "stop_code": "4459", "direction_id": 1, "stop_lon": -97.89947, "parent_station": null, "route_id": "171", "stop_url": null, "stop_sequence": 27, "stop_id": "4459", "stop_desc": "008551 RED WILLOW & HANBRIDGE", "stop_name": "8551 RED WILLOW/HANBRIDGE", "location_type": null, "platform_code": null, "zone_id": null}, {"stop_lat": 30.24095, "stop_timezone": null, "wheelchair_boarding": 0, "stop_code": "4457", "direction_id": 1, "stop_lon": -97.89807, "parent_station": null, "route_id": "171", "stop_url": null, "stop_sequence": 28, "stop_id": "4457", "stop_desc": "008525 RED WILLOW & BARGAMEN", "stop_name": "8525 RED WILLOW/BARGAMEN", "location_type": null, "platform_code": null, "zone_id": null}, {"stop_lat": 30.24236, "stop_timezone": null, "wheelchair_boarding": 0, "stop_code": "4456", "direction_id": 1, "stop_lon": -97.89614, "parent_station": null, "route_id": "171", "stop_url": null, "stop_sequence": 29, "stop_id": "4456", "stop_desc": "008423 RED WILLOW & SENECA", "stop_name": "8423 RED WILLOW/SENECA", "location_type": null, "platform_code": null, "zone_id": null}, {"stop_lat": 30.24159, "stop_timezone": null, "wheelchair_boarding": 0, "stop_code": "4453", "direction_id": 1, "stop_lon": -97.89428, "parent_station": null, "route_id": "171", "stop_url": null, "stop_sequence": 30, "stop_id": "4453", "stop_desc": "008403 RED WILLOW & SMOKEY HILL", "stop_name": "8403 RED WILLOW/SMOKEY HILL", "location_type": null, "platform_code": null, "zone_id": null}, {"stop_lat": 30.2404, "stop_timezone": null, "wheelchair_boarding": 0, "stop_code": "4452", "direction_id": 1, "stop_lon": -97.89177, "parent_station": null, "route_id": "171", "stop_url": null, "stop_sequence": 31, "stop_id": "4452", "stop_desc": "008300 RED WILLOW & SILVERMINE", "stop_name": "RED WILLOW/SILVERMINE", "location_type": null, "platform_code": null, "zone_id": null}, {"stop_lat": 30.24282, "stop_timezone": null, "wheelchair_boarding": 0, "stop_code": "4450", "direction_id": 1, "stop_lon": -97.89121, "parent_station": null, "route_id": "171", "stop_url": null, "stop_sequence": 32, "stop_id": "4450", "stop_desc": "007001 SILVERMINE & SAGE MOUNTAIN", "stop_name": "SILVERMINE/SAGE MOUNTAIN", "location_type": null, "platform_code": null, "zone_id": null}, {"stop_lat": 30.245995, "stop_timezone": null, "wheelchair_boarding": 0, "stop_code": "4448", "direction_id": 1, "stop_lon": -97.888646, "parent_station": null, "route_id": "171", "stop_url": null, "stop_sequence": 33, "stop_id": "4448", "stop_desc": "006701 SILVERMINE & SH 71", "stop_name": "6701 SILVERMINE/SH 71", "location_type": null, "platform_code": null, "zone_id": null}]
