[{"stop_timezone": "", "parent_station": "", "direction_id": "0", "stop_url": "https://www.capmetro.org/stopdetail/index.php?stop=5175", "stop_sequence": "1", "stop_id": "5175", "stop_desc": "000501 23RD & TRINITY", "location_type": "", "zone_id": "", "stop_lat": "30.285069", "wheelchair_boarding": "0", "stop_code": "5175", "stop_lon": "-97.732623", "route_id": "680", "stop_name": "501 23rd/Trinity"}, {"stop_timezone": "", "parent_station": "", "direction_id": "0", "stop_url": "https://www.capmetro.org/stopdetail/index.php?stop=6082", "stop_sequence": "1", "stop_id": "6082", "stop_desc": "002219 ELMONT & TOWN LAKE", "location_type": "", "zone_id": "", "stop_lat": "30.240462", "wheelchair_boarding": "0", "stop_code": "6082", "stop_lon": "-97.723178", "route_id": "680", "stop_name": "2219 Elmont/Town Lake"}, {"stop_timezone": "", "parent_station": "", "direction_id": "0", "stop_url": "https://www.capmetro.org/stopdetail/index.php?stop=4285", "stop_sequence": "2", "stop_id": "4285", "stop_desc": "004400 ELMONT & PLEASANT VALLEY", "location_type": "", "zone_id": "", "stop_lat": "30.238125", "wheelchair_boarding": "0", "stop_code": "4285", "stop_lon": "-97.718348", "route_id": "680", "stop_name": "Elmont/Pleasant Valley"}, {"stop_timezone": "", "parent_station": "", "direction_id": "0", "stop_url": "https://www.capmetro.org/stopdetail/index.php?stop=4593", "stop_sequence": "2", "stop_id": "4593", "stop_desc": "000801 CLYDE LITTLEFIELD & RED RIVER", "location_type": "", "zone_id": "", "stop_lat": "30.283302", "wheelchair_boarding": "0", "stop_code": "4593", "stop_lon": "-97.728684", "route_id": "680", "stop_name": "801 Clyde Littlefield/Red River"}, {"stop_timezone": "", "parent_station": "", "direction_id": "0", "stop_url": "https://www.capmetro.org/stopdetail/index.php?stop=1710", "stop_sequence": "3", "stop_id": "1710", "stop_desc": "001800 RED RIVER & 18TH", "location_type": "", "zone_id": "", "stop_lat": "30.278197", "wheelchair_boarding": "0", "stop_code": "1710", "stop_lon": "-97.732943", "route_id": "680", "stop_name": "1800 Red River/18th"}, {"stop_timezone": "", "parent_station": "", "direction_id": "0", "stop_url": "https://www.capmetro.org/stopdetail/index.php?stop=4286", "stop_sequence": "3", "stop_id": "4286", "stop_desc": "001600 WICKERSHAM & ELMONT", "location_type": "", "zone_id": "", "stop_lat": "30.235821", "wheelchair_boarding": "0", "stop_code": "4286", "stop_lon": "-97.718624", "route_id": "680", "stop_name": "1600 Wickersham/Elmont"}, {"stop_timezone": "", "parent_station": "", "direction_id": "0", "stop_url": "https://www.capmetro.org/stopdetail/index.php?stop=3526", "stop_sequence": "4", "stop_id": "3526", "stop_desc": "00000 WICKERSHAM & ELMONT", "location_type": "", "zone_id": "", "stop_lat": "30.233631", "wheelchair_boarding": "0", "stop_code": "3526", "stop_lon": "-97.720092", "route_id": "680", "stop_name": "Wickersham/Elmont"}, {"stop_timezone": "", "parent_station": "", "direction_id": "0", "stop_url": "https://www.capmetro.org/stopdetail/index.php?stop=5600", "stop_sequence": "4", "stop_id": "5600", "stop_desc": "000619 15TH & BRACKENRIDGE", "location_type": "", "zone_id": "", "stop_lat": "30.275055", "wheelchair_boarding": "0", "stop_code": "5600", "stop_lon": "-97.733247", "route_id": "680", "stop_name": "619 15th/Brackenridge"}, {"stop_timezone": "", "parent_station": "", "direction_id": "0", "stop_url": "https://www.capmetro.org/stopdetail/index.php?stop=6082", "stop_sequence": "5", "stop_id": "6082", "stop_desc": "002219 ELMONT & TOWN LAKE", "location_type": "", "zone_id": "", "stop_lat": "30.240462", "wheelchair_boarding": "0", "stop_code": "6082", "stop_lon": "-97.723178", "route_id": "680", "stop_name": "2219 Elmont/Town Lake"}, {"stop_timezone": "", "parent_station": "", "direction_id": "0", "stop_url": "https://www.capmetro.org/stopdetail/index.php?stop=4285", "stop_sequence": "6", "stop_id": "4285", "stop_desc": "004400 ELMONT & PLEASANT VALLEY", "location_type": "", "zone_id": "", "stop_lat": "30.238125", "wheelchair_boarding": "0", "stop_code": "4285", "stop_lon": "-97.718348", "route_id": "680", "stop_name": "Elmont/Pleasant Valley"}, {"stop_timezone": "", "parent_station": "", "direction_id": "0", "stop_url": "https://www.capmetro.org/stopdetail/index.php?stop=4286", "stop_sequence": "7", "stop_id": "4286", "stop_desc": "001600 WICKERSHAM & ELMONT", "location_type": "", "zone_id": "", "stop_lat": "30.235821", "wheelchair_boarding": "0", "stop_code": "4286", "stop_lon": "-97.718624", "route_id": "680", "stop_name": "1600 Wickersham/Elmont"}, {"stop_timezone": "", "parent_station": "", "direction_id": "0", "stop_url": "https://www.capmetro.org/stopdetail/index.php?stop=3526", "stop_sequence": "8", "stop_id": "3526", "stop_desc": "00000 WICKERSHAM & ELMONT", "location_type": "", "zone_id": "", "stop_lat": "30.233631", "wheelchair_boarding": "0", "stop_code": "3526", "stop_lon": "-97.720092", "route_id": "680", "stop_name": "Wickersham/Elmont"}]
