[{"stop_lat": 30.185521, "stop_timezone": null, "wheelchair_boarding": 0, "stop_code": "5909", "direction_id": 0, "stop_lon": -97.894708, "parent_station": null, "route_id": "111", "stop_url": "http://www.capmetro.org/gismaps/stops/5909.html", "stop_sequence": 1, "stop_id": "5909", "stop_desc": "Southeast corner of ESCARPMENT and SOUTH BAY - Nearside", "stop_name": "11241 ESCARPMENT/SOUTH BAY", "location_type": null, "platform_code": null, "zone_id": null}, {"stop_lat": 30.193652, "stop_timezone": null, "wheelchair_boarding": 0, "stop_code": "5908", "direction_id": 0, "stop_lon": -97.885356, "parent_station": null, "route_id": "111", "stop_url": "http://www.capmetro.org/gismaps/stops/5908.html", "stop_sequence": 2, "stop_id": "5908", "stop_desc": "Southeast corner of ESCARPMENT and LA CROSSE - Nearside", "stop_name": "10405 ESCARPMENT/LA CROSSE", "location_type": null, "platform_code": null, "zone_id": null}, {"stop_lat": 30.200218, "stop_timezone": null, "wheelchair_boarding": 0, "stop_code": "5889", "direction_id": 0, "stop_lon": -97.876027, "parent_station": null, "route_id": "111", "stop_url": "http://www.capmetro.org/gismaps/stops/5889.html", "stop_sequence": 3, "stop_id": "5889", "stop_desc": "Northeast corner of SLAUGHTER and ESCARPMENT - Farside", "stop_name": "5801 SLAUGHTER/ESCARPMENT", "location_type": null, "platform_code": null, "zone_id": null}, {"stop_lat": 30.203832, "stop_timezone": null, "wheelchair_boarding": 0, "stop_code": "5891", "direction_id": 0, "stop_lon": -97.870754, "parent_station": null, "route_id": "111", "stop_url": "http://www.capmetro.org/gismaps/stops/5891.html", "stop_sequence": 4, "stop_id": "5891", "stop_desc": "Southeast corner of BECKETT and LA CRESADA - Nearside", "stop_name": "9111 BECKETT/LA CRESADA", "location_type": null, "platform_code": null, "zone_id": null}, {"stop_lat": 30.208187, "stop_timezone": null, "wheelchair_boarding": 0, "stop_code": "5893", "direction_id": 0, "stop_lon": -97.869105, "parent_station": null, "route_id": "111", "stop_url": "http://www.capmetro.org/gismaps/stops/5893.html", "stop_sequence": 5, "stop_id": "5893", "stop_desc": "Northeast corner of BECKETT and DAVIS - Farside", "stop_name": "8719 BECKETT/DAVIS", "location_type": null, "platform_code": null, "zone_id": null}, {"stop_lat": 30.213884, "stop_timezone": null, "wheelchair_boarding": 0, "stop_code": "5896", "direction_id": 0, "stop_lon": -97.863891, "parent_station": null, "route_id": "111", "stop_url": "http://www.capmetro.org/gismaps/stops/5896.html", "stop_sequence": 6, "stop_id": "5896", "stop_desc": "Northeast corner of BECKETT and NEW HORIZONS - Mid-Block", "stop_name": "8101 BECKETT AT DICK NICHOLS PARK", "location_type": null, "platform_code": null, "zone_id": null}, {"stop_lat": 30.219823, "stop_timezone": null, "wheelchair_boarding": 0, "stop_code": "5898", "direction_id": 0, "stop_lon": -97.858161, "parent_station": null, "route_id": "111", "stop_url": "http://www.capmetro.org/gismaps/stops/5898.html", "stop_sequence": 7, "stop_id": "5898", "stop_desc": "Southeast corner of BECKETT and PONOMA - Nearside", "stop_name": "7405 BECKETT/PONOMA", "location_type": null, "platform_code": null, "zone_id": null}, {"stop_lat": 30.218895, "stop_timezone": null, "wheelchair_boarding": 1, "stop_code": "4446", "direction_id": 0, "stop_lon": -97.854694, "parent_station": null, "route_id": "111", "stop_url": "http://www.capmetro.org/gismaps/stops/4446.html", "stop_sequence": 8, "stop_id": "4446", "stop_desc": "Southwest corner of CONVICT HILL and WOODCREEK - Nearside", "stop_name": "5125 CONVICT HILL/WOODCREEK", "location_type": null, "platform_code": null, "zone_id": null}, {"stop_lat": 30.217966, "stop_timezone": null, "wheelchair_boarding": 0, "stop_code": "4445", "direction_id": 0, "stop_lon": -97.852755, "parent_station": null, "route_id": "111", "stop_url": "http://www.capmetro.org/gismaps/stops/4445.html", "stop_sequence": 9, "stop_id": "4445", "stop_desc": "Southwest corner of CONVICT HILL and FLAMING OAK - Nearside", "stop_name": "4923 CONVICT HILL/FLAMING OAK", "location_type": null, "platform_code": null, "zone_id": null}, {"stop_lat": 30.219895, "stop_timezone": null, "wheelchair_boarding": 0, "stop_code": "5900", "direction_id": 0, "stop_lon": -97.843893, "parent_station": null, "route_id": "111", "stop_url": "http://www.capmetro.org/gismaps/stops/5900.html", "stop_sequence": 10, "stop_id": "5900", "stop_desc": "Northeast corner of BRUSH COUNTRY and ONE OAK - Farside", "stop_name": "6911 BRUSH COUNTRY/ONE OAK", "location_type": null, "platform_code": null, "zone_id": null}, {"stop_lat": 30.222951, "stop_timezone": null, "wheelchair_boarding": 0, "stop_code": "5902", "direction_id": 0, "stop_lon": -97.841813, "parent_station": null, "route_id": "111", "stop_url": "http://www.capmetro.org/gismaps/stops/5902.html", "stop_sequence": 11, "stop_id": "5902", "stop_desc": "Southeast corner of BRUSH COUNTRY and WILLIAM CANNON - Nearside", "stop_name": "6703 BRUSH COUNTRY/WILLIAM CANNON", "location_type": null, "platform_code": null, "zone_id": null}, {"stop_lat": 30.265065, "stop_timezone": null, "wheelchair_boarding": 0, "stop_code": "5498", "direction_id": 0, "stop_lon": -97.750824, "parent_station": null, "route_id": "111", "stop_url": "http://www.capmetro.org/gismaps/stops/5498.html", "stop_sequence": 12, "stop_id": "5498", "stop_desc": "Northwest corner of CESAR CHAVEZ and SAN ANTONIO - Mid-Block", "stop_name": "SEAHOLM STATION (NB)", "location_type": null, "platform_code": null, "zone_id": null}, {"stop_lat": 30.265792, "stop_timezone": null, "wheelchair_boarding": 0, "stop_code": "5944", "direction_id": 0, "stop_lon": -97.746213, "parent_station": null, "route_id": "111", "stop_url": "http://www.capmetro.org/gismaps/stops/5944.html", "stop_sequence": 13, "stop_id": "5944", "stop_desc": "Southeast corner of LAVACA and 3RD - Nearside", "stop_name": "LAVACA/3RD", "location_type": null, "platform_code": null, "zone_id": null}, {"stop_lat": 30.268613, "stop_timezone": null, "wheelchair_boarding": 0, "stop_code": "2605", "direction_id": 0, "stop_lon": -97.745114, "parent_station": null, "route_id": "111", "stop_url": "http://www.capmetro.org/gismaps/stops/2605.html", "stop_sequence": 14, "stop_id": "2605", "stop_desc": "Southeast corner of LAVACA and 6TH - Nearside", "stop_name": "517 LAVACA/6TH", "location_type": null, "platform_code": null, "zone_id": null}, {"stop_lat": 30.271378, "stop_timezone": null, "wheelchair_boarding": 0, "stop_code": "4007", "direction_id": 0, "stop_lon": -97.744115, "parent_station": null, "route_id": "111", "stop_url": "http://www.capmetro.org/gismaps/stops/4007.html", "stop_sequence": 15, "stop_id": "4007", "stop_desc": "Southeast corner of LAVACA and 9TH - Nearside", "stop_name": "LAVACA/9TH", "location_type": null, "platform_code": null, "zone_id": null}, {"stop_lat": 30.2727, "stop_timezone": null, "wheelchair_boarding": 0, "stop_code": "506", "direction_id": 0, "stop_lon": -97.741376, "parent_station": null, "route_id": "111", "stop_url": "http://www.capmetro.org/gismaps/stops/506.html", "stop_sequence": 16, "stop_id": "506", "stop_desc": "Southwest corner of 11TH and CONGRESS - Nearside", "stop_name": "11TH/CONGRESS", "location_type": null, "platform_code": null, "zone_id": null}, {"stop_lat": 30.272, "stop_timezone": null, "wheelchair_boarding": 0, "stop_code": "863", "direction_id": 0, "stop_lon": -97.738836, "parent_station": null, "route_id": "111", "stop_url": "http://www.capmetro.org/gismaps/stops/863.html", "stop_sequence": 17, "stop_id": "863", "stop_desc": "Southwest corner of 11TH and SAN JACINTO - Nearside", "stop_name": "11TH/SAN JACINTO SW CORNER", "location_type": null, "platform_code": null, "zone_id": null}, {"stop_lat": 30.272709, "stop_timezone": null, "wheelchair_boarding": 0, "stop_code": "864", "direction_id": 0, "stop_lon": -97.73715, "parent_station": null, "route_id": "111", "stop_url": "http://www.capmetro.org/gismaps/stops/864.html", "stop_sequence": 18, "stop_id": "864", "stop_desc": "Southeast corner of TRINITY and 12TH - Nearside", "stop_name": "TRINITY/12TH", "location_type": null, "platform_code": null, "zone_id": null}, {"stop_lat": 30.275786, "stop_timezone": null, "wheelchair_boarding": 0, "stop_code": "865", "direction_id": 0, "stop_lon": -97.736028, "parent_station": null, "route_id": "111", "stop_url": "http://www.capmetro.org/gismaps/stops/865.html", "stop_sequence": 19, "stop_id": "865", "stop_desc": "Southeast corner of TRINITY and 15TH - Nearside", "stop_name": "TRINITY/15TH", "location_type": null, "platform_code": null, "zone_id": null}, {"stop_lat": 30.283104, "stop_timezone": null, "wheelchair_boarding": 0, "stop_code": "1253", "direction_id": 0, "stop_lon": -97.73391, "parent_station": null, "route_id": "111", "stop_url": "http://www.capmetro.org/gismaps/stops/1253.html", "stop_sequence": 20, "stop_id": "1253", "stop_desc": "Southeast corner of SAN JACINTO and 21ST - Nearside", "stop_name": "2031 SAN JACINTO/21ST", "location_type": null, "platform_code": null, "zone_id": null}, {"stop_lat": 30.283104, "stop_timezone": null, "wheelchair_boarding": 0, "stop_code": "1253", "direction_id": 0, "stop_lon": -97.73391, "parent_station": null, "route_id": "111", "stop_url": "http://www.capmetro.org/gismaps/stops/1253.html", "stop_sequence": 21, "stop_id": "1253", "stop_desc": "Southeast corner of SAN JACINTO and 21ST - Nearside", "stop_name": "2031 SAN JACINTO/21ST", "location_type": null, "platform_code": null, "zone_id": null}, {"stop_lat": 30.28555, "stop_timezone": null, "wheelchair_boarding": 0, "stop_code": "3491", "direction_id": 0, "stop_lon": -97.733531, "parent_station": null, "route_id": "111", "stop_url": "http://www.capmetro.org/gismaps/stops/3491.html", "stop_sequence": 21, "stop_id": "3491", "stop_desc": "Northeast corner of SAN JACINTO and 23RD - Farside", "stop_name": "2301 SAN JACINTO/23RD", "location_type": null, "platform_code": null, "zone_id": null}, {"stop_lat": 30.28694, "stop_timezone": null, "wheelchair_boarding": 0, "stop_code": "1255", "direction_id": 0, "stop_lon": -97.733427, "parent_station": null, "route_id": "111", "stop_url": "http://www.capmetro.org/gismaps/stops/1255.html", "stop_sequence": 22, "stop_id": "1255", "stop_desc": "Southeast corner of SAN JACINTO and 24TH - Nearside", "stop_name": "2329 SAN JACINTO/24TH", "location_type": null, "platform_code": null, "zone_id": null}, {"stop_lat": 30.28555, "stop_timezone": null, "wheelchair_boarding": 0, "stop_code": "3491", "direction_id": 0, "stop_lon": -97.733531, "parent_station": null, "route_id": "111", "stop_url": "http://www.capmetro.org/gismaps/stops/3491.html", "stop_sequence": 22, "stop_id": "3491", "stop_desc": "Northeast corner of SAN JACINTO and 23RD - Farside", "stop_name": "2301 SAN JACINTO/23RD", "location_type": null, "platform_code": null, "zone_id": null}, {"stop_lat": 30.28694, "stop_timezone": null, "wheelchair_boarding": 0, "stop_code": "1255", "direction_id": 0, "stop_lon": -97.733427, "parent_station": null, "route_id": "111", "stop_url": "http://www.capmetro.org/gismaps/stops/1255.html", "stop_sequence": 23, "stop_id": "1255", "stop_desc": "Southeast corner of SAN JACINTO and 24TH - Nearside", "stop_name": "2329 SAN JACINTO/24TH", "location_type": null, "platform_code": null, "zone_id": null}, {"stop_lat": 30.288776, "stop_timezone": null, "wheelchair_boarding": 0, "stop_code": "1256", "direction_id": 0, "stop_lon": -97.734397, "parent_station": null, "route_id": "111", "stop_url": "http://www.capmetro.org/gismaps/stops/1256.html", "stop_sequence": 23, "stop_id": "1256", "stop_desc": "Southeast corner of SAN JACINTO and DEAN KEETON - Nearside", "stop_name": "2525 SAN JACINTO/DEAN KEETON", "location_type": null, "platform_code": null, "zone_id": null}, {"stop_lat": 30.288776, "stop_timezone": null, "wheelchair_boarding": 0, "stop_code": "1256", "direction_id": 0, "stop_lon": -97.734397, "parent_station": null, "route_id": "111", "stop_url": "http://www.capmetro.org/gismaps/stops/1256.html", "stop_sequence": 24, "stop_id": "1256", "stop_desc": "Southeast corner of SAN JACINTO and DEAN KEETON - Nearside", "stop_name": "2525 SAN JACINTO/DEAN KEETON", "location_type": null, "platform_code": null, "zone_id": null}]
