[{"stop_timezone": "", "parent_station": "", "direction_id": "1", "stop_url": "https://www.capmetro.org/stopdetail/index.php?stop=1160", "stop_sequence": "1", "stop_id": "1160", "stop_desc": "000105 HIGHLAND MALL & JONATHAN", "location_type": "", "zone_id": "", "stop_lat": "30.328491", "wheelchair_boarding": "0", "stop_code": "1160", "stop_lon": "-97.713604", "route_id": "324", "stop_name": "105 Highland Mall/Jonathan"}, {"stop_timezone": "", "parent_station": "", "direction_id": "1", "stop_url": "https://www.capmetro.org/stopdetail/index.php?stop=1283", "stop_sequence": "10", "stop_id": "1283", "stop_desc": "008504 GEORGIAN & WALNUT", "location_type": "", "zone_id": "", "stop_lat": "30.351297", "wheelchair_boarding": "0", "stop_code": "1283", "stop_lon": "-97.700509", "route_id": "324", "stop_name": "Georgian/Walnut"}, {"stop_timezone": "", "parent_station": "", "direction_id": "1", "stop_url": "https://www.capmetro.org/stopdetail/index.php?stop=1284", "stop_sequence": "11", "stop_id": "1284", "stop_desc": "008700 GEORGIAN & LITTLE WALNUT", "location_type": "", "zone_id": "", "stop_lat": "30.353431", "wheelchair_boarding": "0", "stop_code": "1284", "stop_lon": "-97.698728", "route_id": "324", "stop_name": "Georgian/Little Walnut"}, {"stop_timezone": "", "parent_station": "", "direction_id": "1", "stop_url": "https://www.capmetro.org/stopdetail/index.php?stop=1285", "stop_sequence": "12", "stop_id": "1285", "stop_desc": "008800 GEORGIAN & HOME", "location_type": "", "zone_id": "", "stop_lat": "30.356009", "wheelchair_boarding": "0", "stop_code": "1285", "stop_lon": "-97.696169", "route_id": "324", "stop_name": "Georgian/Home Place"}, {"stop_timezone": "", "parent_station": "", "direction_id": "1", "stop_url": "https://www.capmetro.org/stopdetail/index.php?stop=1286", "stop_sequence": "13", "stop_id": "1286", "stop_desc": "009013 GEORGIAN & FAWNRIDGE", "location_type": "", "zone_id": "", "stop_lat": "30.358122", "wheelchair_boarding": "0", "stop_code": "1286", "stop_lon": "-97.694809", "route_id": "324", "stop_name": "9013 Georgian/Fawnridge"}, {"stop_timezone": "", "parent_station": "", "direction_id": "1", "stop_url": "https://www.capmetro.org/stopdetail/index.php?stop=3147", "stop_sequence": "14", "stop_id": "3147", "stop_desc": "000400 RUNDBERG & SLAYTON", "location_type": "", "zone_id": "", "stop_lat": "30.362340", "wheelchair_boarding": "0", "stop_code": "3147", "stop_lon": "-97.695260", "route_id": "324", "stop_name": "400 Rundberg/Slayton"}, {"stop_timezone": "", "parent_station": "", "direction_id": "1", "stop_url": "https://www.capmetro.org/stopdetail/index.php?stop=3148", "stop_sequence": "15", "stop_id": "3148", "stop_desc": "000832 RUNDBERG & LAMAR", "location_type": "", "zone_id": "", "stop_lat": "30.363939", "wheelchair_boarding": "0", "stop_code": "3148", "stop_lon": "-97.698486", "route_id": "324", "stop_name": "832 Rundberg/Lamar"}, {"stop_timezone": "", "parent_station": "", "direction_id": "1", "stop_url": "https://www.capmetro.org/stopdetail/index.php?stop=3149", "stop_sequence": "16", "stop_id": "3149", "stop_desc": "001000 RUNDBERG & MEARNS MEADOW", "location_type": "", "zone_id": "", "stop_lat": "30.364972", "wheelchair_boarding": "0", "stop_code": "3149", "stop_lon": "-97.700675", "route_id": "324", "stop_name": "Rundberg/Mearns Meadow"}, {"stop_timezone": "", "parent_station": "", "direction_id": "1", "stop_url": "https://www.capmetro.org/stopdetail/index.php?stop=6256", "stop_sequence": "17", "stop_id": "6256", "stop_desc": "001107 Mearns Meadow & Quail", "location_type": "", "zone_id": "", "stop_lat": "30.369771", "wheelchair_boarding": "0", "stop_code": "6256", "stop_lon": "-97.700627", "route_id": "324", "stop_name": "1107 Mearns Meadow/Quail"}, {"stop_timezone": "", "parent_station": "", "direction_id": "1", "stop_url": "https://www.capmetro.org/stopdetail/index.php?stop=6250", "stop_sequence": "18", "stop_id": "6250", "stop_desc": "001300 MEARNS MEADOW & PARKFIELD", "location_type": "", "zone_id": "", "stop_lat": "30.371787", "wheelchair_boarding": "0", "stop_code": "6250", "stop_lon": "-97.702814", "route_id": "324", "stop_name": "1300 Mearns Meadow/Parkfield"}, {"stop_timezone": "", "parent_station": "", "direction_id": "1", "stop_url": "https://www.capmetro.org/stopdetail/index.php?stop=6254", "stop_sequence": "19", "stop_id": "6254", "stop_desc": "009507 MOUNTAIN QUAIL & RUTLAND", "location_type": "", "zone_id": "", "stop_lat": "30.371326", "wheelchair_boarding": "0", "stop_code": "6254", "stop_lon": "-97.709486", "route_id": "324", "stop_name": "9507 Mountain Quail/Rutland"}, {"stop_timezone": "", "parent_station": "", "direction_id": "1", "stop_url": "https://www.capmetro.org/stopdetail/index.php?stop=3276", "stop_sequence": "2", "stop_id": "3276", "stop_desc": "000200 HUNTLAND & AIRPORT", "location_type": "", "zone_id": "", "stop_lat": "30.330440", "wheelchair_boarding": "0", "stop_code": "3276", "stop_lon": "-97.715281", "route_id": "324", "stop_name": "Huntland/Airport"}, {"stop_timezone": "", "parent_station": "", "direction_id": "1", "stop_url": "https://www.capmetro.org/stopdetail/index.php?stop=4727", "stop_sequence": "20", "stop_id": "4727", "stop_desc": "001800 RUNDBERG & SINGING QUAIL", "location_type": "", "zone_id": "", "stop_lat": "30.371433", "wheelchair_boarding": "0", "stop_code": "4727", "stop_lon": "-97.714218", "route_id": "324", "stop_name": "Rundberg/Singing Quail"}, {"stop_timezone": "", "parent_station": "", "direction_id": "1", "stop_url": "https://www.capmetro.org/stopdetail/index.php?stop=3155", "stop_sequence": "21", "stop_id": "3155", "stop_desc": "009120 NORTHGATE & RUNDBERG", "location_type": "", "zone_id": "", "stop_lat": "30.370738", "wheelchair_boarding": "0", "stop_code": "3155", "stop_lon": "-97.716508", "route_id": "324", "stop_name": "9120 Northgate/Rundberg"}, {"stop_timezone": "", "parent_station": "", "direction_id": "1", "stop_url": "https://www.capmetro.org/stopdetail/index.php?stop=4729", "stop_sequence": "22", "stop_id": "4729", "stop_desc": "001729 COLONY CREEK & NORTHGATE", "location_type": "", "zone_id": "", "stop_lat": "30.369189", "wheelchair_boarding": "0", "stop_code": "4729", "stop_lon": "-97.715046", "route_id": "324", "stop_name": "1729 Colony Creek/Northgate"}, {"stop_timezone": "", "parent_station": "", "direction_id": "1", "stop_url": "https://www.capmetro.org/stopdetail/index.php?stop=4730", "stop_sequence": "23", "stop_id": "4730", "stop_desc": "009030 GALEWOOD & COLONY CREEK", "location_type": "", "zone_id": "", "stop_lat": "30.367480", "wheelchair_boarding": "0", "stop_code": "4730", "stop_lon": "-97.715120", "route_id": "324", "stop_name": "9030 Galewood/Colony Creek"}, {"stop_timezone": "", "parent_station": "", "direction_id": "1", "stop_url": "https://www.capmetro.org/stopdetail/index.php?stop=4732", "stop_sequence": "24", "stop_id": "4732", "stop_desc": "008910 GALEWOOD & PAYTON GIN", "location_type": "", "zone_id": "", "stop_lat": "30.366009", "wheelchair_boarding": "0", "stop_code": "4732", "stop_lon": "-97.716055", "route_id": "324", "stop_name": "8910 Galewood/Payton Gin"}, {"stop_timezone": "", "parent_station": "", "direction_id": "1", "stop_url": "https://www.capmetro.org/stopdetail/index.php?stop=3033", "stop_sequence": "25", "stop_id": "3033", "stop_desc": "001624 OHLEN & PAYTON GIN", "location_type": "", "zone_id": "", "stop_lat": "30.363710", "wheelchair_boarding": "0", "stop_code": "3033", "stop_lon": "-97.716090", "route_id": "324", "stop_name": "1624 Ohlen/Payton Gin"}, {"stop_timezone": "", "parent_station": "", "direction_id": "1", "stop_url": "https://www.capmetro.org/stopdetail/index.php?stop=4734", "stop_sequence": "26", "stop_id": "4734", "stop_desc": "001700 OHLEN & RESEARCH", "location_type": "", "zone_id": "", "stop_lat": "30.362927", "wheelchair_boarding": "0", "stop_code": "4734", "stop_lon": "-97.719020", "route_id": "324", "stop_name": "Ohlen/Research"}, {"stop_timezone": "", "parent_station": "", "direction_id": "1", "stop_url": "https://www.capmetro.org/stopdetail/index.php?stop=5575", "stop_sequence": "27", "stop_id": "5575", "stop_desc": "001820 OHLEN & RENTON", "location_type": "", "zone_id": "", "stop_lat": "30.361169", "wheelchair_boarding": "0", "stop_code": "5575", "stop_lon": "-97.723184", "route_id": "324", "stop_name": "1820 Ohlen/Renton"}, {"stop_timezone": "", "parent_station": "", "direction_id": "1", "stop_url": "https://www.capmetro.org/stopdetail/index.php?stop=3159", "stop_sequence": "28", "stop_id": "3159", "stop_desc": "002306 OHLEN & BOWLING GREEN", "location_type": "", "zone_id": "", "stop_lat": "30.362828", "wheelchair_boarding": "0", "stop_code": "3159", "stop_lon": "-97.728430", "route_id": "324", "stop_name": "2306 Ohlen/Bowling Green"}, {"stop_timezone": "", "parent_station": "", "direction_id": "1", "stop_url": "https://www.capmetro.org/stopdetail/index.php?stop=3160", "stop_sequence": "29", "stop_id": "3160", "stop_desc": "008118 BURNET & STECK", "location_type": "", "zone_id": "", "stop_lat": "30.360468", "wheelchair_boarding": "0", "stop_code": "3160", "stop_lon": "-97.729812", "route_id": "324", "stop_name": "8118 Burnet/Steck"}, {"stop_timezone": "", "parent_station": "", "direction_id": "1", "stop_url": "https://www.capmetro.org/stopdetail/index.php?stop=1274", "stop_sequence": "3", "stop_id": "1274", "stop_desc": "006800 GUADALUPE & KENNISTSON", "location_type": "", "zone_id": "", "stop_lat": "30.334694", "wheelchair_boarding": "0", "stop_code": "1274", "stop_lon": "-97.716377", "route_id": "324", "stop_name": "Guadalupe/Kennistson"}, {"stop_timezone": "", "parent_station": "", "direction_id": "1", "stop_url": "https://www.capmetro.org/stopdetail/index.php?stop=3060", "stop_sequence": "30", "stop_id": "3060", "stop_desc": "008000 BURNET & ASHDALE", "location_type": "", "zone_id": "", "stop_lat": "30.358333", "wheelchair_boarding": "0", "stop_code": "3060", "stop_lon": "-97.730386", "route_id": "324", "stop_name": "Burnet/Ashdale"}, {"stop_timezone": "", "parent_station": "", "direction_id": "1", "stop_url": "https://www.capmetro.org/stopdetail/index.php?stop=5849", "stop_sequence": "31", "stop_id": "5849", "stop_desc": "007800 BURNET & ANDERSON", "location_type": "", "zone_id": "", "stop_lat": "30.354217", "wheelchair_boarding": "0", "stop_code": "5849", "stop_lon": "-97.732117", "route_id": "324", "stop_name": "Northcross Station (SB)"}, {"stop_timezone": "", "parent_station": "", "direction_id": "1", "stop_url": "https://www.capmetro.org/stopdetail/index.php?stop=5851", "stop_sequence": "32", "stop_id": "5851", "stop_desc": "007719 NORTHCROSS & FOSTER", "location_type": "", "zone_id": "", "stop_lat": "30.354986", "wheelchair_boarding": "0", "stop_code": "5851", "stop_lon": "-97.736170", "route_id": "324", "stop_name": "7719 Northcross/Foster"}, {"stop_timezone": "", "parent_station": "", "direction_id": "1", "stop_url": "https://www.capmetro.org/stopdetail/index.php?stop=5856", "stop_sequence": "33", "stop_id": "5856", "stop_desc": "002714 FOSTER & NORTHCROSS", "location_type": "", "zone_id": "", "stop_lat": "30.357211", "wheelchair_boarding": "0", "stop_code": "5856", "stop_lon": "-97.737209", "route_id": "324", "stop_name": "2714 Foster/Northcross"}, {"stop_timezone": "", "parent_station": "", "direction_id": "1", "stop_url": "https://www.capmetro.org/stopdetail/index.php?stop=1275", "stop_sequence": "4", "stop_id": "1275", "stop_desc": "007125 GUADALUPE & ST JOHNS", "location_type": "", "zone_id": "", "stop_lat": "30.337671", "wheelchair_boarding": "0", "stop_code": "1275", "stop_lon": "-97.714427", "route_id": "324", "stop_name": "7125 Guadalupe/St Johns"}, {"stop_timezone": "", "parent_station": "", "direction_id": "1", "stop_url": "https://www.capmetro.org/stopdetail/index.php?stop=1276", "stop_sequence": "5", "stop_id": "1276", "stop_desc": "007417 GUADALUPE & CRESTLAND", "location_type": "", "zone_id": "", "stop_lat": "30.339996", "wheelchair_boarding": "0", "stop_code": "1276", "stop_lon": "-97.712898", "route_id": "324", "stop_name": "7417 Guadalupe/Crestland"}, {"stop_timezone": "", "parent_station": "", "direction_id": "1", "stop_url": "https://www.capmetro.org/stopdetail/index.php?stop=1278", "stop_sequence": "6", "stop_id": "1278", "stop_desc": "007601 NORTHCREST & PRAIRIE DELL", "location_type": "", "zone_id": "", "stop_lat": "30.340632", "wheelchair_boarding": "0", "stop_code": "1278", "stop_lon": "-97.708421", "route_id": "324", "stop_name": "7601 Northcrest/Prairie Dell"}, {"stop_timezone": "", "parent_station": "", "direction_id": "1", "stop_url": "https://www.capmetro.org/stopdetail/index.php?stop=5923", "stop_sequence": "7", "stop_id": "5923", "stop_desc": "000000 GEORGIAN & RESEARCH", "location_type": "", "zone_id": "", "stop_lat": "30.343527", "wheelchair_boarding": "0", "stop_code": "5923", "stop_lon": "-97.705431", "route_id": "324", "stop_name": "Georgian/Research"}, {"stop_timezone": "", "parent_station": "", "direction_id": "1", "stop_url": "https://www.capmetro.org/stopdetail/index.php?stop=5922", "stop_sequence": "8", "stop_id": "5922", "stop_desc": "008005 GEORGIAN & WONSLEY", "location_type": "", "zone_id": "", "stop_lat": "30.345388", "wheelchair_boarding": "0", "stop_code": "5922", "stop_lon": "-97.704224", "route_id": "324", "stop_name": "8005 Georgian/Wonsley"}, {"stop_timezone": "", "parent_station": "", "direction_id": "1", "stop_url": "https://www.capmetro.org/stopdetail/index.php?stop=1282", "stop_sequence": "9", "stop_id": "1282", "stop_desc": "008300 GEORGIAN & RED OAK", "location_type": "", "zone_id": "", "stop_lat": "30.349494", "wheelchair_boarding": "0", "stop_code": "1282", "stop_lon": "-97.702006", "route_id": "324", "stop_name": "Georgian/Red Oak"}]
